{"table":[{"source":"yellow page","service_name":"Lauzon Music Centre","category":"accordion teacher","phone":"613-725-1116","address":"1345 Wellington St W, Ottawa, ON K1Y 3B8","postalcode":"K1Y 3B8","website":"http://www.lauzonmusic.com","working_hour":"","latitude":"45.3983916","longitude":"-75.7381848"},{"source":"yellow page","service_name":"Guitars Plus","category":"accordion teacher","phone":"613-431-0397","address":"200 Raglan St S, Renfrew, ON K7V 1R1","postalcode":"K7V 1R1","website":" ","working_hour":"","latitude":"45.4718518","longitude":"-76.6840213"},{"source":"yellow page","service_name":"Campbell Douglas Keyboards Ltd","category":"accordion teacher","phone":"6132250666","address":"1547 Merivale Rd, Nepean, ON K2G 4V3","postalcode":"K2G 4V3","website":"http://campbelldouglaskeyboards.com","working_hour":"","latitude":"45.3547747","longitude":"-75.7356808"},{"source":"yellow page","service_name":"Granata Music Ltd","category":"accordion teacher","phone":"613-727-0727","address":"18-1568 Merivale Rd, Nepean, ON K2G 5Y7","postalcode":"K2G 5Y7","website":" ","working_hour":"Monday 9:30 am - 8:00 pm   Tuesday 9:30 am - 8:00 pm   Wednesday 9:30 am - 9:00 pm   Thursday 9:30 am - 9:00 pm   Friday 9:30 am - 9:00 pm   Saturday 9:30 am - 6:00 pm   Sunday 12:00 pm - 5:00 pm","latitude":"45.3519459","longitude":"-75.7341869"},{"source":"yellow page","service_name":"SRC Music","category":"accordion teacher","phone":"613-253-0263","address":"124 Moore St, Carleton Place, ON K7C 2P5","postalcode":"K7C 2P5","website":"http://www.srcmusic.ca","working_hour":"","latitude":"45.136104","longitude":"-76.136517"},{"source":"yellow page","service_name":"Long & McQuade Musical Instruments","category":"accordion teacher","phone":"613-595-1035","address":"4-66 Hearst Way, Kanata, ON K2L 2P4","postalcode":"K2L 2P4","website":" ","working_hour":"","latitude":"45.316914","longitude":"-75.886999"},{"source":"yellow page","service_name":"Simply Guitars","category":"accordion teacher","phone":"613-224-1989","address":"1889 Baseline Rd, Ottawa, ON K2C 0C7","postalcode":"K2C 0C7","website":"http://www.simplyguitars.ca","working_hour":"","latitude":"45.353395","longitude":"-75.758599"},{"source":"yellow page","service_name":"Bob's Music Plus","category":"accordion teacher","phone":"613-732-3454","address":"105 Pembroke St W, Pembroke, ON K8A 5M7","postalcode":"K8A 5M7","website":" ","working_hour":"Monday 10:00 am - 6:00 pm   Tuesday 10:00 am - 6:00 pm   Wednesday 10:00 am - 6:00 pm   Thursday 10:00 am - 7:00 pm   Friday 10:00 am - 7:00 pm   Saturday 10:00 am - 5:00 pm","latitude":"45.8256179","longitude":"-77.1151518"},{"source":"yellow page","service_name":"Rainbow Music","category":"accordion teacher","phone":"613-932-8603","address":"1418 Pitt St, Cornwall, ON K6J 3T8","postalcode":"K6J 3T8","website":"http://www.rainbowmusicshop.com","working_hour":"Monday 9:00 am - 5:00 pm   Tuesday 9:00 am - 5:00 pm   Wednesday 9:00 am - 5:00 pm   Thursday 9:00 am - 5:00 pm   Friday 9:00 am - 8:00 pm   Saturday 9:00 am - 12:00 pm","latitude":"45.036237","longitude":"-74.742015"},{"source":"yellow page","service_name":"L'Escale Musique","category":"accordion teacher","phone":"6136323097","address":"254 James St, Hawkesbury, ON K6A 1S8","postalcode":"K6A 1S8","website":" ","working_hour":"","latitude":"45.6089269","longitude":"-74.6095821"},{"source":"yellow page","service_name":"Strung Out Guitars","category":"accordion teacher","phone":"613-938-3738","address":"601 Montreal Rd, Cornwall, ON K6H 1C3","postalcode":"K6H 1C3","website":"http://www.strungoutguitars.ca","working_hour":"","latitude":"45.018426","longitude":"-74.70755"},{"source":"yellow page","service_name":"Event Express","category":"accordion teacher","phone":"613-443-1108","address":"829 rue Notre Dame, Embrun, ON K0A 1W1","postalcode":"K0A 1W1","website":" ","working_hour":"","latitude":"45.268942","longitude":"-75.2952648"},{"source":"yellow page","service_name":"Ottawa Music Academy","category":"accordion teacher","phone":"6137395757","address":"200-2 Lorry Greenberg Dr, Ottawa, ON K1G 5H6","postalcode":"K1G 5H6","website":"http://www.ottawamusicacademy.com","working_hour":"","latitude":"45.369499","longitude":"-75.620526"},{"source":"yellow page","service_name":"Melody Music Centre","category":"accordion teacher","phone":"613-209-3242","address":"104 Pitt St, Cornwall, ON K6J 3P4","postalcode":"K6J 3P4","website":" ","working_hour":"Monday 10:00 am - 5:30 pm   Tuesday 10:00 am - 5:30 pm   Wednesday 10:00 am - 1:00 pm   Thursday 10:00 am - 5:30 pm   Friday 10:00 am - 8:00 pm   Saturday 10:00 am - 5:00 pm","latitude":"45.016984","longitude":"-74.727894"},{"source":"yellow page","service_name":"Adlibb","category":"accordion teacher","phone":"613-525-5422","address":"57 Kenyon W, Alexandria, ON K0C 1A0","postalcode":"K0C 1A0","website":" ","working_hour":"Monday 10:00 am - 8:00 pm   Tuesday 10:00 am - 8:00 pm   Wednesday 10:00 am - 8:00 pm   Thursday 10:00 am - 8:00 pm   Friday 10:00 am - 8:00 pm   Saturday 9:00 am - 6:00 pm","latitude":"45.310363","longitude":"-74.6384868"},{"source":"yellow page","service_name":"Intercontinental Music","category":"accordion teacher","phone":"613-748-9891","address":"610 Donald St, Ottawa, ON K1K 1L4","postalcode":"K1K 1L4","website":"http://www.intercontinentalmusic.ca","working_hour":"Monday 10:00 am - 6:00 pm   Tuesday 10:00 am - 6:00 pm   Wednesday 10:00 am - 6:00 pm   Thursday 10:00 am - 6:00 pm   Friday 10:00 am - 6:00 pm   Saturday 10:00 am - 5:30 pm   Sunday 11:00 am - 5:00 pm","latitude":"45.428857","longitude":"-75.641174"},{"source":"yellow page","service_name":"Music Tools Etc","category":"accordion teacher","phone":"613-733-1926","address":"1591 Kingsdale Ave, Gloucester, ON K1T 1H3","postalcode":"K1T 1H3","website":" ","working_hour":"","latitude":"45.346844","longitude":"-75.629209"},{"source":"yellow page","service_name":"Anne Cure Violins","category":"accordion teacher","phone":"613-824-3343","address":"6601 des Chouettes Lane, Orleans, ON K1C 6N4","postalcode":"K1C 6N4","website":" ","working_hour":"","latitude":"45.457959","longitude":"-75.510275"},{"source":"yellow page","service_name":"Musicare Inc","category":"accordion teacher","phone":"613-822-0601","address":"4534 Anderson Rd, Gloucester, ON K0A 1K0","postalcode":"K0A 1K0","website":"http://shopmusicare.com","working_hour":"Monday 8:00 am - 5:00 pm   Tuesday 8:00 am - 5:00 pm   Wednesday 8:00 am - 5:00 pm   Thursday 8:00 am - 8:00 pm   Friday 8:00 am - 5:00 pm","latitude":"45.34123","longitude":"-75.523162"},{"source":"yellow page","service_name":"Bobby Lalonde Music","category":"accordion teacher","phone":"613-636-1100","address":"1002 Main St E, Hawkesbury, ON K6A 1B7","postalcode":"K6A 1B7","website":" ","working_hour":"Tuesday 10:00 am - 5:30 pm   Wednesday 10:00 am - 5:30 pm   Thursday 10:00 am - 7:00 pm   Friday 10:00 am - 7:00 pm   Saturday 10:00 am - 4:00 pm","latitude":"45.61024","longitude":"-74.593433"},{"source":"yellow page","service_name":"Musicamis","category":"accordion teacher","phone":"450-533-4755","address":"138, ch Dalesville, Brownsburg-Chatham, QC J8G 2C8","postalcode":"J8G 2C8","website":" ","working_hour":"","latitude":"45.7582363","longitude":"-74.3838341"},{"source":"yellow page","service_name":"Long & McQuade","category":"accordion teacher","phone":"613-521-5909","address":"2631 Alta Vista Drive, Ottawa, ON K1V 7T5","postalcode":"K1V 7T5","website":" ","working_hour":"","latitude":"45.3734724","longitude":"-75.6628429"},{"source":"yellow page","service_name":"Domenics Academy Of Music","category":"accordion teacher","phone":"613-837-0124","address":"2297 Promenade St Joseph, Ottawa, ON K1C 1E7","postalcode":"K1C 1E7","website":" ","working_hour":"Monday 12:00 pm - 9:00 pm   Tuesday 10:00 am - 9:00 pm   Wednesday 10:00 am - 9:00 pm   Thursday 10:00 am - 9:00 pm   Friday 10:00 am - 9:00 pm   Saturday 9:00 am - 5:00 pm","latitude":"45.4682072","longitude":"-75.5312942"},{"source":"yellow page","service_name":"Long & McQuade Musical Instruments","category":"accordion teacher","phone":"613-521-0917","address":"1193 Hunt Club Rd, Ottawa, ON K1V 8S4","postalcode":"K1V 8S4","website":" ","working_hour":"","latitude":"45.3521858","longitude":"-75.6500406"},{"source":"yellow page","service_name":"Audionote Kits Ltd","category":"accordion teacher","phone":"613-822-9399","address":"885 Sandy Forest Pl, Gloucester, ON K1V 1P1","postalcode":"K1V 1P1","website":" ","working_hour":"","latitude":"45.277742","longitude":"-75.682758"},{"source":"yellow page","service_name":"Metro Music","category":"accordion teacher","phone":"613-233-9688","address":"695 Bank St, Ottawa, ON K1S 3T8","postalcode":"K1S 3T8","website":" ","working_hour":"","latitude":"45.40522","longitude":"-75.689554"},{"source":"yellow page","service_name":"Sunny Side Music School","category":"accordion teacher","phone":"613-730-2887","address":"1111 Bank St, Ottawa, ON K1S 3X4","postalcode":"K1S 3X4","website":"http://www.ottawafolklore.com","working_hour":"","latitude":"45.393749","longitude":"-75.683106"},{"source":"yellow page","service_name":"Class Axe Guitars","category":"accordion teacher","phone":"1-855-216-1329","address":"288 County Road 44, Kemptville, ON K0G 1J0","postalcode":"K0G 1J0","website":"http://www.classaxe.ca","working_hour":"Monday 10:00 am - 9:00 pm   Tuesday 10:00 am - 9:00 pm   Wednesday 10:00 am - 9:00 pm   Thursday 10:00 am - 9:00 pm   Friday 10:00 am - 6:00 pm   Saturday 10:00 am - 5:00 pm","latitude":"45.0227412","longitude":"-75.6542109"},{"source":"yellow page","service_name":"Rock My House","category":"accordion teacher","phone":"613-258-5656","address":"669 South Gower Dr RR 3, Kemptville, ON K0G 1J0","postalcode":"K0G 1J0","website":" ","working_hour":"Monday 3:00 pm - 9:00 pm   Tuesday 12:00 pm - 9:00 pm   Wednesday 12:00 pm - 9:00 pm   Thursday 12:00 pm - 9:00 pm   Friday 12:00 pm - 9:00 pm   Saturday 10:00 am - 5:00 pm   For Musical Lessons Or Rental Space Availability Upon Appointment","latitude":"45.0316016","longitude":"-75.5861828"},{"source":"yellow page","service_name":"Long & McQuade Musical Instruments","category":"accordion teacher","phone":"613-384-9225","address":"1057 Midland Ave, Kingston, ON K7P 2X8","postalcode":"K7P 2X8","website":"http://www.renaissance-music.com","working_hour":"Monday 9:00 am - 7:00 pm   Tuesday 9:00 am - 7:00 pm   Wednesday 9:00 am - 7:00 pm   Thursday 9:00 am - 7:00 pm   Friday 9:00 am - 7:00 pm   Saturday 9:00 am - 6:00 pm","latitude":"44.261359","longitude":"-76.574007"},{"source":"yellow page","service_name":"Rankin Sound","category":"accordion teacher","phone":"613-453-0512","address":"75 Queen St, Kingston, ON K7K 1A5","postalcode":"K7K 1A5","website":" ","working_hour":"","latitude":"44.232531","longitude":"-76.482494"},{"source":"yellow page","service_name":"Michael Yearsley","category":"accordion teacher","phone":"613-546-9999","address":"206 Concession St, Kingston, ON K7K 2B5","postalcode":"K7K 2B5","website":"http://www.yearslaw.com","working_hour":"","latitude":"44.24125","longitude":"-76.504439"},{"source":"yellow page","service_name":"Centre Stage Music","category":"accordion teacher","phone":"613-417-1140","address":"1095 Princess St, Kingston, ON K7L 1H3","postalcode":"K7L 1H3","website":"http://www.cntrstgmusic.com","working_hour":"Monday 10:00 am - 6:00 pm   Tuesday 10:00 am - 6:00 pm   Wednesday 10:00 am - 6:00 pm   Thursday 10:00 am - 6:00 pm   Friday 10:00 am - 8:30 pm   Saturday 10:00 am - 6:00 pm","latitude":"44.24443","longitude":"-76.517884"},{"source":"yellow page","service_name":"Limestone Music","category":"accordion teacher","phone":"613-546-8881","address":"162 Division St, Kingston, ON K7L 3M6","postalcode":"K7L 3M6","website":"http://www.limestonemusic.ca","working_hour":"","latitude":"44.232797","longitude":"-76.492874"},{"source":"yellow page","service_name":"Kingston Guitar Shop","category":"accordion teacher","phone":"613-900-0318","address":"95 Clarence St, Kingston, ON K7L 1X2","postalcode":"K7L 1X2","website":"http://www.coolguitars.ca","working_hour":"","latitude":"44.230271","longitude":"-76.482852"},{"source":"yellow page","service_name":"Pinnacle Music Studios","category":"accordion teacher","phone":"613-969-0050","address":"261 Front St N, Belleville, ON K8N 2Z6","postalcode":"K8N 2Z6","website":"http://www.pinnaclemusicstudios.com","working_hour":"Monday 10:00 am - 5:30 pm   Tuesday 10:00 am - 5:30 pm   Wednesday 10:00 am - 5:30 pm   Thursday 10:00 am - 5:30 pm   Friday 10:00 am - 5:30 pm   Saturday 10:00 am - 5:30 pm   Sunday 10:00 am - 5:30 pm","latitude":"44.1653744","longitude":"-77.3849429"},{"source":"yellow page","service_name":"Riverside Music","category":"accordion teacher","phone":"613-394-4891","address":"16 Dundas St W, Trenton, ON K8V 6V9","postalcode":"K8V 6V9","website":"http://www.riversidemusic.com","working_hour":"Monday 9:30 am - 8:00 pm   Tuesday 9:30 am - 8:00 pm   Wednesday 9:30 am - 8:00 pm   Thursday 9:30 am - 8:00 pm   Friday 9:30 am - 5:00 pm   Saturday 9:30 am - 4:00 pm","latitude":"44.1016987","longitude":"-77.5756162"},{"source":"yellow page","service_name":"Harmony Music Plus","category":"accordion teacher","phone":"613-968-9975","address":"76 Harriett St, Belleville, ON K8P 1V7","postalcode":"K8P 1V7","website":"http://www.harmonymusicplus.com","working_hour":"Monday 10:00 am - 6:00 pm   Tuesday 10:00 am - 6:00 pm   Wednesday 10:00 am - 6:00 pm   Thursday 10:00 am - 6:00 pm   Friday 10:00 am - 9:00 pm   Saturday 10:00 am - 6:00 pm","latitude":"44.1693098","longitude":"-77.3924351"},{"source":"yellow page","service_name":"Long & McQuade Musical Instruments","category":"accordion teacher","phone":"3436000124","address":"28 Roy Blvd, Belleville, ON K8N 4Z5","postalcode":"K8N 4Z5","website":" ","working_hour":"","latitude":"44.2082564","longitude":"-77.4069322"},{"source":"yellow page","service_name":"Arden's Music","category":"accordion teacher","phone":"1-888-771-9808","address":"23 College St W, Belleville, ON K8P 2G3","postalcode":"K8P 2G3","website":"http://www.ardensmusic.com","working_hour":"Monday 9:00 am - 5:00 pm   Tuesday 9:00 am - 5:00 pm   Wednesday 9:00 am - 5:00 pm   Thursday 9:00 am - 5:00 pm   Friday 9:00 am - 5:00 pm   Please Call Us For Details","latitude":"44.1764146","longitude":"-77.3921596"},{"source":"yellow page","service_name":"Log Cabin Yarns","category":"accordion teacher","phone":"613-336-3385","address":"12 Peterson Rd, Northbrook, ON K0H 2G0","postalcode":"K0H 2G0","website":" ","working_hour":"Monday 8:00 am - 5:00 pm   Tuesday 8:00 am - 5:00 pm   Wednesday 8:00 am - 5:00 pm   Thursday 8:00 am - 5:00 pm   Friday 8:00 am - 5:00 pm   Saturday 8:00 am - 5:00 pm   Sunday 11:00 am - 3:00 pm","latitude":"44.7340392","longitude":"-77.1585218"},{"source":"yellow page","service_name":"All You Need Music","category":"accordion teacher","phone":"6133420471","address":"3-555 California Ave, Brockville, ON K6V 7N5","postalcode":"K6V 7N5","website":"http://allyouneedmusic.com/","working_hour":"Monday 10:00 am - 6:00 pm   Tuesday 10:00 am - 6:00 pm   Wednesday 10:00 am - 6:00 pm   Thursday 10:00 am - 6:00 pm   Friday 10:00 am - 6:00 pm   Saturday 10:00 am - 5:00 pm","latitude":"44.615936","longitude":"-75.695505"},{"source":"yellow page","service_name":"Mr C's Gift Of Music","category":"accordion teacher","phone":"613-342-7377","address":"3-7712 Kent Blvd, Brockville, ON K6V 7H6","postalcode":"K6V 7H6","website":"http://www.wilsonandlee.ca","working_hour":"Monday 12:00 pm - 6:00 pm   Tuesday 12:00 pm - 6:00 pm   Wednesday 12:00 pm - 6:00 pm   Thursday 12:00 pm - 6:00 pm   Friday 12:00 pm - 6:00 pm   Saturday 10:00 am - 4:00 pm","latitude":"44.5996205","longitude":"-75.7065822"},{"source":"yellow page","service_name":"Rideau River Music","category":"accordion teacher","phone":"613-283-1410","address":"11 Main St W, Smiths Falls, ON K7A 1M4","postalcode":"K7A 1M4","website":" ","working_hour":"Monday 10:00 am - 5:30 pm   Tuesday 10:00 am - 5:30 pm   Wednesday 10:00 am - 5:30 pm   Thursday 10:00 am - 5:30 pm   Friday 10:00 am - 5:30 pm   Saturday 10:00 am - 5:00 pm","latitude":"44.8995805","longitude":"-76.0217152"},{"source":"yellow page","service_name":"Guitar Nuts","category":"accordion teacher","phone":"613-332-6444","address":"15 Station St RR 1, Bancroft, ON K0L 1C0","postalcode":"K0L 1C0","website":"http://guitarnuts.ca","working_hour":"","latitude":"45.0594976","longitude":"-77.8563058"},{"source":"yellow page","service_name":"Long & McQuade Musical Instruments","category":"accordion teacher","phone":"705-742-5332","address":"129 Aylmer St N, Peterborough, ON K9J 3K7","postalcode":"K9J 3K7","website":"https://www.long-mcquade.com/","working_hour":"Monday 10:00 am - 9:00 pm   Tuesday 10:00 am - 9:00 pm   Wednesday 10:00 am - 9:00 pm   Thursday 10:00 am - 9:00 pm   Friday 10:00 am - 9:00 pm   Saturday 10:00 am - 6:00 pm","latitude":"44.29753","longitude":"-78.322661"},{"source":"yellow page","service_name":"Hock Shop","category":"accordion teacher","phone":"705-741-2274","address":"409 George St N, Peterborough, ON K9H 3R4","postalcode":"K9H 3R4","website":" ","working_hour":"Monday 9:00 am - 5:00 pm   Tuesday 9:00 am - 5:00 pm   Wednesday 9:00 am - 5:00 pm   Thursday 9:00 am - 6:00 pm   Friday 9:00 am - 6:00 pm   Saturday 9:00 am - 5:00 pm   Please Call For Details   Please Visit Our Website For More Information","latitude":"44.306219","longitude":"-78.320101"},{"source":"yellow page","service_name":"Maar's Music","category":"accordion teacher","phone":"705-243-9964","address":"360 George St N, Peterborough, ON K9H 7E7","postalcode":"K9H 7E7","website":" ","working_hour":"Monday 10:00 am - 6:00 pm   Tuesday 10:00 am - 7:00 pm   Wednesday 10:00 am - 7:00 pm   Thursday 10:00 am - 7:00 pm   Friday 10:00 am - 7:00 pm   Saturday 10:00 am - 5:00 pm   Please Call For Details","latitude":"44.304178","longitude":"-78.319923"},{"source":"yellow page","service_name":"Larry Rogers Piano Tuner & Technician","category":"accordion teacher","phone":"705-887-6210","address":"28 Bury's Green Road, Fenelon Falls, ON K0M 1N0","postalcode":"K0M 1N0","website":"http://www.pianodoc.ca","working_hour":"","latitude":"44.5995215","longitude":"-78.711094"},{"source":"yellow page","service_name":"First Stop Swap Shop Inc","category":"accordion teacher","phone":"705-536-3366","address":"285 George St N, Peterborough, ON K9J 3H3","postalcode":"K9J 3H3","website":"#","working_hour":"Monday 9:30 am - 6:00 pm   Tuesday 9:30 am - 6:00 pm   Wednesday 9:30 am - 6:00 pm   Thursday 9:30 am - 6:00 pm   Friday 9:30 am - 6:00 pm   Saturday 10:00 am - 4:00 pm","latitude":"44.302367","longitude":"-78.319832"},{"source":"yellow page","service_name":"Van Halteren's Music Centre","category":"accordion teacher","phone":"705-324-2111","address":"8 Wellington St, Lindsay, ON K9V 3N1","postalcode":"K9V 3N1","website":" ","working_hour":"","latitude":"44.3576622","longitude":"-78.7375244"},{"source":"yellow page","service_name":"Gilbert Guitars","category":"accordion teacher","phone":"705-329-2913","address":"68 Mississaga St E, Orillia, ON L3V 1V5","postalcode":"L3V 1V5","website":"http://www.gilbertguitars.com/","working_hour":"Monday 11:00 am - 8:00 pm   Tuesday 11:00 am - 8:00 pm   Wednesday 11:00 am - 8:00 pm   Thursday 11:00 am - 8:00 pm   Friday 11:00 am - 5:30 pm   Saturday 10:30 am - 5:30 pm","latitude":"44.608966","longitude":"-79.418005"},{"source":"yellow page","service_name":"True North Music","category":"accordion teacher","phone":"705-329-0000","address":"18 Mississaga St E, Orillia, ON L3V 1V5","postalcode":"L3V 1V5","website":"http://www.truenorthmusic.com","working_hour":"","latitude":"44.608432","longitude":"-79.419202"},{"source":"yellow page","service_name":"The Guitar Boutique","category":"accordion teacher","phone":"7052779497","address":"252 Ski Hill Rd RR 1, Bethany, ON L0A 1A0","postalcode":"L0A 1A0","website":" ","working_hour":"","latitude":"44.2027111","longitude":"-78.5778424"},{"source":"yellow page","service_name":"Cripple Creek Music","category":"accordion teacher","phone":"705-789-1112","address":"15 Chaffey St, Huntsville, ON P1H 1H4","postalcode":"P1H 1H4","website":" ","working_hour":"Monday 10:00 am - 5:30 pm   Tuesday 10:00 am - 5:30 pm   Wednesday 10:00 am - 5:30 pm   Thursday 10:00 am - 5:30 pm   Friday 10:00 am - 5:30 pm   Saturday 10:00 am - 5:00 pm","latitude":"45.329435","longitude":"-79.212696"},{"source":"yellow page","service_name":"Wilson & Lee Music Store","category":"accordion teacher","phone":"905-725-4706","address":"87 Simcoe St N, Oshawa, ON L1G 4S3","postalcode":"L1G 4S3","website":"http://www.wilsonandlee.ca","working_hour":"Monday 9:00 am - 6:00 pm   Tuesday 9:00 am - 6:00 pm   Wednesday 9:00 am - 6:00 pm   Thursday 9:00 am - 8:00 pm   Friday 9:00 am - 8:00 pm   Saturday 9:00 am - 5:00 pm","latitude":"43.899958","longitude":"-78.8647"},{"source":"yellow page","service_name":"Steve's Music Store","category":"accordion teacher","phone":"613-789-1131","address":"308 Rideau St, Ottawa, ON K1N 5Y5","postalcode":"K1N 5Y5","website":"http://www.stevesmusic.com","working_hour":"Monday 9:00 am - 6:00 pm   Tuesday 9:00 am - 6:00 pm   Wednesday 9:00 am - 6:00 pm   Thursday 9:00 am - 9:00 pm   Friday 9:00 am - 9:00 pm   Saturday 9:00 am - 5:00 pm   Sunday 12:00 pm - 5:00 pm","latitude":"45.429128","longitude":"-75.684881"},{"source":"yellow page","service_name":"The Sound Post","category":"accordion teacher","phone":"613-422-4415","address":"319 Catherine St, Ottawa, ON K1R 5T4","postalcode":"K1R 5T4","website":"http://www.thesoundpost.com","working_hour":"Tuesday 12:00 pm - 6:00 pm   Wednesday 12:00 pm - 6:00 pm   Thursday 12:00 pm - 6:00 pm   Friday 12:00 pm - 6:00 pm   Saturday 10:00 am - 6:00 pm","latitude":"45.407804","longitude":"-75.696103"},{"source":"yellow page","service_name":"Dave's Drum Shop","category":"accordion teacher","phone":"613-594-3786","address":"390 Gladstone Ave, Ottawa, ON K2P 0Z1","postalcode":"K2P 0Z1","website":" ","working_hour":"","latitude":"45.411832","longitude":"-75.694359"},{"source":"yellow page","service_name":"Spaceman Music","category":"accordion teacher","phone":"6135945323","address":"388 Gladstone Ave, Ottawa, ON K2P 0Z1","postalcode":"K2P 0Z1","website":" ","working_hour":"","latitude":"45.411832","longitude":"-75.694359"},{"source":"yellow page","service_name":"Accordion Lessons","category":"accordion teacher","phone":"6134212997","address":"ON","postalcode":"","website":" ","working_hour":"Monday 9:00 am - 5:00 pm   Tuesday 9:00 am - 5:00 pm   Wednesday 9:00 am - 5:00 pm   Thursday 9:00 am - 5:00 pm   Friday 9:00 am - 5:00 pm","latitude":"43.651893","longitude":"-79.381713"},{"source":"yellow page","service_name":"Studio Turmel","category":"accordion teacher","phone":"450-377-2838","address":"209, rue Victoria, Saint-Stanislas-de-Kostka, QC J0S 1W0","postalcode":"J0S 1W0","website":" ","working_hour":"Monday 8:00 am - 4:00 pm   Tuesday 8:00 am - 4:00 pm   Wednesday 8:00 am - 4:00 pm   Thursday 8:00 am - 4:00 pm   Friday 8:00 am - 4:00 pm","latitude":"45.256484","longitude":"-74.130452"},{"source":"yellow page","service_name":"Samusique","category":"accordion teacher","phone":"819-216-8747","address":"90 rue Saint-Vincent, Sainte-Agathe-des-Monts, QC J8C 2A7","postalcode":"J8C 2A7","website":" ","working_hour":"Tuesday 10:00 am - 5:00 pm   Wednesday 10:00 am - 5:00 pm   Thursday 10:00 am - 7:00 pm   Friday 10:00 am - 7:00 pm   Saturday 10:00 am - 5:00 pm   Sunday 10:00 am - 5:00 pm","latitude":"46.0491322","longitude":"-74.2882914"},{"source":"yellow page","service_name":"Diffusion Audio","category":"accordion teacher","phone":"4502273818","address":"121 ch Champagne RR 2, Saint-Sauveur, QC J0R 1R2","postalcode":"J0R 1R2","website":"http://www.diffusion-audio.com","working_hour":"","latitude":"45.8874056","longitude":"-74.1972373"},{"source":"yellow page","service_name":"Long & McQuade Musical Instruments","category":"accordion teacher","phone":"4504915544","address":"141 rue Saint-Laurent, Saint-Eustache, QC J7P 5H6","postalcode":"J7P 5H6","website":" ","working_hour":"","latitude":"45.5692596","longitude":"-73.8841437"},{"source":"yellow page","service_name":"La Boite Musicale","category":"accordion teacher","phone":"450-951-9851","address":"102-19, rue Blainville O, Sainte-Thérèse, QC J7E 1X1","postalcode":"J7E 1X1","website":" ","working_hour":"Tuesday 10:00 am - 7:00 pm   Wednesday 10:00 am - 7:00 pm   Thursday 10:00 am - 9:00 pm   Friday 10:00 am - 9:00 pm   Saturday 10:00 am - 5:00 pm","latitude":"45.6395941","longitude":"-73.8427143"},{"source":"yellow page","service_name":"www.infomusique.qc.ca","category":"accordion teacher","phone":"819-425-8583","address":"240A, rue Léonard, Mont-Tremblant, QC J8E 3K1","postalcode":"J8E 3K1","website":"http://www.infomusique.qc.ca","working_hour":"","latitude":"46.1189235","longitude":"-74.5960583"},{"source":"yellow page","service_name":"L'Octave","category":"accordion teacher","phone":"450-377-7923","address":"106, rue du Marché, Salaberry-de-Valleyfield, QC J6T 1P7","postalcode":"J6T 1P7","website":" ","working_hour":"","latitude":"45.2533693","longitude":"-74.1363187"},{"source":"yellow page","service_name":"Passion Musique","category":"accordion teacher","phone":"4504324949","address":"563 rue Saint-Georges, Saint-Jérôme, QC J7Z 5B7","postalcode":"J7Z 5B7","website":" ","working_hour":"Tuesday 10:00 am - 6:00 pm   Wednesday 10:00 am - 6:00 pm   Thursday 10:00 am - 9:00 pm   Friday 10:00 am - 6:00 pm   Saturday 10:00 am - 5:00 pm","latitude":"45.7826792","longitude":"-74.0016812"},{"source":"yellow page","service_name":"Harmonie Musique","category":"accordion teacher","phone":"514-457-4799","address":"101, rue Sainte-Anne, Sainte-Anne-de-Bellevue, QC H9X 1L9","postalcode":"H9X 1L9","website":" ","working_hour":"Monday 9:00 am - 5:00 pm   Tuesday 9:00 am - 5:00 pm   Wednesday 9:00 am - 5:00 pm   Thursday 9:00 am - 5:00 pm   Friday 9:00 am - 5:00 pm","latitude":"45.4034884","longitude":"-73.9517206"},{"source":"yellow page","service_name":"Gaudet Musique","category":"accordion teacher","phone":"450-373-3303","address":"94, rue Champlain, Salaberry-de-Valleyfield, QC J6T 1W6","postalcode":"J6T 1W6","website":" ","working_hour":"Monday 10:00 am - 5:00 pm   Tuesday 10:00 am - 5:00 pm   Wednesday 10:00 am - 5:00 pm   Thursday 10:00 am - 9:00 pm   Friday 10:00 am - 9:00 pm   Saturday 10:00 am - 5:00 pm","latitude":"45.255147","longitude":"-74.129084"},{"source":"yellow page","service_name":"Labelle Musique","category":"accordion teacher","phone":"450-377-9315","address":"30, rue Grande-île, Salaberry-de-Valleyfield, QC J6S 3L8","postalcode":"J6S 3L8","website":"http://www.labellemusique.ca","working_hour":"Monday 10:00 am - 9:00 pm   Tuesday 10:00 am - 9:00 pm   Wednesday 10:00 am - 9:00 pm   Thursday 10:00 am - 9:00 pm   Friday 10:00 am - 9:00 pm   Saturday 9:00 am - 5:00 pm","latitude":"45.2625281","longitude":"-74.1320959"},{"source":"yellow page","service_name":"Grand'Maison Musique","category":"accordion teacher","phone":"450-436-5632","address":"407, rue Parent, Saint-Jérôme, QC J7Z 2A1","postalcode":"J7Z 2A1","website":" ","working_hour":"Monday 10:00 am - 5:30 pm   Tuesday 10:00 am - 5:30 pm   Wednesday 10:00 am - 5:30 pm   Thursday 10:00 am - 6:00 pm   Friday 10:00 am - 6:00 pm   Saturday 10:00 am - 5:00 pm","latitude":"45.77701","longitude":"-73.998259"},{"source":"yellow page","service_name":"Musitec","category":"accordion teacher","phone":"514-420-0001","address":"4889 boul Saint-Charles, Pierrefonds, QC H9H 3E4","postalcode":"H9H 3E4","website":" ","working_hour":"Tuesday 11:30 am - 6:30 pm   Wednesday 11:30 pm - 6:30 pm   Thursday 11:30 am - 6:30 pm   Friday 11:30 am - 8:00 pm   Saturday 10:00 am - 5:00 pm   Sunday 12:00 am - 4:00 pm","latitude":"45.4666323","longitude":"-73.8738619"},{"source":"yellow page","service_name":"Le A-440","category":"accordion teacher","phone":"450-373-6611","address":"83, rue Champlain, Salaberry-de-Valleyfield, QC J6T 1W4","postalcode":"J6T 1W4","website":" ","working_hour":"","latitude":"45.255184","longitude":"-74.128997"},{"source":"yellow page","service_name":"Nord Musique Inc","category":"accordion teacher","phone":"450-432-2940","address":"77 rue Saint-Georges, Saint-Jérôme, QC J7Z 4Z4","postalcode":"J7Z 4Z4","website":" ","working_hour":"Monday 10:00 am - 6:00 pm   Tuesday 10:00 am - 6:00 pm   Wednesday 10:00 am - 6:00 pm   Thursday 10:00 am - 9:00 pm   Friday 10:00 am - 9:00 pm   Saturday 10:00 am - 5:00 pm","latitude":"45.7709184","longitude":"-74.0017489"},{"source":"yellow page","service_name":"Nadisq","category":"accordion teacher","phone":"450-371-4339","address":"209, rue Victoria, Salaberry-de-Valleyfield, QC J6T 1A8","postalcode":"J6T 1A8","website":" ","working_hour":"","latitude":"45.256484","longitude":"-74.130452"},{"source":"yellow page","service_name":"Montreal Academy of Music West Island","category":"accordion teacher","phone":"514-312-6275","address":"104-1564, ch Herron, Dorval, QC H9S 1B7","postalcode":"H9S 1B7","website":"http://www.academiedemontreal.com","working_hour":"Call For Details: Sunday, Monday, Tuesday, Wednesday, Thursday, Friday, Saturday.","latitude":"45.448718","longitude":"-73.7635463"},{"source":"yellow page","service_name":"Steel Guitars Of Canada","category":"accordion teacher","phone":"905-355-3056","address":"566 Dudley Rd RR 3, Colborne, ON K0K 1S0","postalcode":"K0K 1S0","website":"http://www.steelguitarcanada.com","working_hour":"Monday 9:00 am - 5:50 pm   Tuesday 9:00 am - 9:00 pm   Wednesday 9:00 am - 9:00 pm   Thursday 9:00 am - 9:00 pm   Friday 9:00 am - 9:00 pm   Saturday 9:00 am - 5:00 pm","latitude":"44.013041","longitude":"-77.9354553"},{"source":"yellow page","service_name":"Long & McQuade Musical Instruments","category":"accordion teacher","phone":"905-373-1991","address":"7789 County Road 2, Cobourg, ON K9A 4J7","postalcode":"K9A 4J7","website":" ","working_hour":"Monday 10:00 am - 7:00 pm   Tuesday 10:00 am - 7:00 pm   Wednesday 10:00 am - 7:00 pm   Thursday 10:00 am - 7:00 pm   Friday 10:00 am - 7:00 pm   Saturday 10:00 am - 5:00 pm","latitude":"43.966606","longitude":"-78.219647"},{"source":"yellow page","service_name":"Long & Mcquade Ltd","category":"accordion teacher","phone":"9054388118","address":"902 Simcoe St N, Oshawa, ON L1G 4W2","postalcode":"L1G 4W2","website":" ","working_hour":"","latitude":"43.921542","longitude":"-78.87455"},{"source":"yellow page","service_name":"Long & Mcquade Musical Instruments","category":"accordion teacher","phone":"905-435-0572","address":"902 Simcoe St N, Oshawa, ON L1G 4W2","postalcode":"L1G 4W2","website":" ","working_hour":"","latitude":"43.921548","longitude":"-78.873958"},{"source":"yellow page","service_name":"The Hands On Music Company","category":"accordion teacher","phone":"905-623-7474","address":"39 Ontario St, Bowmanville, ON L1C 2S4","postalcode":"L1C 2S4","website":"http://www.handsonmusic.ca","working_hour":"","latitude":"43.910456","longitude":"-78.68469"},{"source":"yellow page","service_name":"Long & McQuade Musical Instruments","category":"accordion teacher","phone":"9054341612","address":"902 Simcoe St N, Oshawa, ON L1G 4W2","postalcode":"L1G 4W2","website":" ","working_hour":"","latitude":"43.921548","longitude":"-78.873958"},{"source":"yellow page","service_name":"Tundra Music","category":"accordion teacher","phone":"9054935000","address":"4-1121 Dundas St E, Whitby, ON L1N 2K4","postalcode":"L1N 2K4","website":" ","working_hour":"","latitude":"43.88399","longitude":"-78.924004"},{"source":"yellow page","service_name":"Long & McQuade Musical Instruments","category":"accordion teacher","phone":"905-686-4900","address":"1887 Kingston Rd, Pickering, ON L1V 1C9","postalcode":"L1V 1C9","website":"http://long-mcquade.com","working_hour":"","latitude":"43.852021","longitude":"-79.066012"},{"source":"yellow page","service_name":"Shaw Percussion","category":"accordion teacher","phone":"905-722-5449","address":"5258 Old Homestead Rd RR 1, Sutton West, ON L0E 1R0","postalcode":"L0E 1R0","website":"http://www.shawpercussion.com","working_hour":"Appointment Only","latitude":"44.27407","longitude":"-79.356754"},{"source":"yellow page","service_name":"Connors Music","category":"accordion teacher","phone":"905-476-3712","address":"201 The Queensway S, Keswick, ON L4P 2A3","postalcode":"L4P 2A3","website":"http://www.mcc.gouv.qc.ca/conservatoire/val-dor.htm","working_hour":"Monday 9:30 am - 9:00 pm   Tuesday 9:30 am - 9:00 pm   Wednesday 9:30 am - 9:00 pm   Thursday 9:30 am - 9:00 pm   Friday 9:30 am - 9:00 pm   Saturday 9:00 am - 6:00 pm","latitude":"44.230852","longitude":"-79.465696"},{"source":"yellow page","service_name":"The Guitar Boutique","category":"accordion teacher","phone":"9056687210","address":"601 Dundas St W, Whitby, ON L1N 2N3","postalcode":"L1N 2N3","website":" ","working_hour":"","latitude":"43.87839","longitude":"-78.948629"},{"source":"yellow page","service_name":"Ring Music","category":"accordion teacher","phone":"416-924-3571","address":"90 Harbord St, Toronto, ON M5S 1G5","postalcode":"M5S 1G5","website":"http://www.ringmusic.com","working_hour":"Tuesday 10:00 am - 6:00 pm   Wednesday 10:00 am - 6:00 pm   Thursday 10:00 am - 6:00 pm   Friday 10:00 am - 6:00 pm   Saturday 10:00 am - 6:00 pm","latitude":"43.66298","longitude":"-79.402956"},{"source":"yellow page","service_name":"Long And Mcquade Limited","category":"accordion teacher","phone":"905-839-8816","address":"550 Granite Crt, Pickering, ON L1W 3Y8","postalcode":"L1W 3Y8","website":"http://www.long-mcquade.com","working_hour":"","latitude":"43.810426","longitude":"-79.120671"},{"source":"yellow page","service_name":"Long & McQuade Musical Instruments","category":"accordion teacher","phone":"604-588-9421","address":"13785 104th Avenue, Surrey, BC V3T 1W6","postalcode":"V3T 1W6","website":" ","working_hour":"","latitude":"49.191606","longitude":"-122.840138"},{"source":"yellow page","service_name":"Tundra Music","category":"accordion teacher","phone":"9054922642","address":"Pickering, ON L1V 1R8","postalcode":"L1V 1R8","website":" ","working_hour":"","latitude":"","longitude":""},{"source":"yellow page","service_name":"Wilson Music Services","category":"accordion teacher","phone":"905-853-5082","address":"750 Lowell Ave, Newmarket, ON L3Y 1T5","postalcode":"L3Y 1T5","website":"http://wilsonmusic.ca/","working_hour":"Monday 9:00 am - 4:30 pm   Tuesday 9:00 am - 4:30 pm   Wednesday 9:00 am - 4:30 pm   Thursday 9:00 am - 4:30 pm   Friday 9:00 am - 4:30 pm   Saturday 9:00 am - 12:00 pm","latitude":"44.056283","longitude":"-79.445183"},{"source":"yellow page","service_name":"House of Raga","category":"accordion teacher","phone":"416-452-6491","address":"24 The Bridle Trail, Unionville, ON L3R 4E9","postalcode":"L3R 4E9","website":"http://www.houseofraga.net","working_hour":"Monday 9:00 am - 9:00 pm   Tuesday 9:00 am - 9:00 pm   Wednesday 9:00 am - 9:00 pm   Thursday 9:00 am - 9:00 pm   Friday 9:00 am - 9:00 pm   Saturday 9:00 am - 9:00 pm   Sunday 9:00 am - 9:00 pm","latitude":"43.8755","longitude":"-79.310165"},{"source":"yellow page","service_name":"Pro Music","category":"accordion teacher","phone":"905-479-5800","address":"5051 Highway 7, Unionville, ON L3R 1N3","postalcode":"L3R 1N3","website":"http://www.pro-music.ca","working_hour":"","latitude":"43.865828","longitude":"-79.289922"},{"source":"yellow page","service_name":"Reid Larry","category":"accordion teacher","phone":"7054432351","address":"284 Dunlop St W, Barrie, ON L4N 1B9","postalcode":"L4N 1B9","website":" ","working_hour":"","latitude":"44.3823698","longitude":"-79.7058333"},{"source":"yellow page","service_name":"Remenyi House of Music","category":"accordion teacher","phone":"9058813400","address":"6-1455 16th Ave, Richmond Hill, ON L4B 4W5","postalcode":"L4B 4W5","website":" ","working_hour":"","latitude":"43.861967","longitude":"-79.388573"},{"source":"yellow page","service_name":"Wasaga Music","category":"accordion teacher","phone":"705-429-8238","address":"1056 Mosley St, Wasaga Beach, ON L9Z 2G1","postalcode":"L9Z 2G1","website":" ","working_hour":"Monday 9:00 am - 5:00 pm   Tuesday 9:00 am - 5:00 pm   Wednesday 9:00 am - 5:00 pm   Thursday 9:00 am - 5:00 pm   Friday 9:00 am - 5:00 pm","latitude":"44.494861","longitude":"-80.046102"},{"source":"yellow page","service_name":"The Piano Studio","category":"accordion teacher","phone":"905-895-1844","address":"17665 Leslie St, Newmarket, ON L3Y 3E3","postalcode":"L3Y 3E3","website":"http://www.thepianostudio.com","working_hour":"Monday 12:00 am - 8:00 pm   Tuesday 12:00 am - 9:00 pm   Wednesday 12:00 am - 9:00 pm   Thursday 12:00 am - 9:00 pm   Friday 9:00 am - 6:00 pm   Saturday 9:00 am - 5:00 pm","latitude":"44.070184","longitude":"-79.433011"},{"source":"yellow page","service_name":"Multipost Retail Systems","category":"accordion teacher","phone":"9054774747","address":"80 Citizen Crt, Markham, ON L6G 1A7","postalcode":"L6G 1A7","website":"http://www.vendorware.com","working_hour":"","latitude":"43.842711","longitude":"-79.31897"},{"source":"yellow page","service_name":"Long & McQuade Musical Instruments","category":"accordion teacher","phone":"905-209-1177","address":"9833 Markham Rd, Markham, ON L3P 3J3","postalcode":"L3P 3J3","website":" ","working_hour":"","latitude":"43.8585984","longitude":"-79.2562671"},{"source":"yellow page","service_name":"Carlaw Conservatory Of Music","category":"accordion teacher","phone":"905-294-5517","address":"113 Main St, Markham, ON L3P 1X9","postalcode":"L3P 1X9","website":"http://carlawconservatoryofmusic.com","working_hour":"","latitude":"43.878063","longitude":"-79.260831"},{"source":"yellow page","service_name":"Drummer's Hangout","category":"accordion teacher","phone":"905-503-7300","address":"15483 Yonge St, Aurora, ON L4G 1P3","postalcode":"L4G 1P3","website":" ","working_hour":"Monday 10:00 am - 8:30 pm   Tuesday 10:00 am - 8:30 pm   Wednesday 10:00 am - 8:30 pm   Thursday 10:00 am - 8:30 pm   Friday 10:00 am - 8:30 pm   Saturday 10:00 am - 6:00 pm   Sunday 12:00 pm - 5:00 pm","latitude":"44.005986","longitude":"-79.469095"},{"source":"yellow page","service_name":"Johnstone's Music Land","category":"accordion teacher","phone":"705-526-7821","address":"280 King St, Midland, ON L4R 3M6","postalcode":"L4R 3M6","website":" ","working_hour":"Tuesday 9:30 am - 5:00 pm   Wednesday 9:30 am - 5:00 pm   Thursday 9:30 am - 5:00 pm   Friday 9:30 am - 6:00 pm   Saturday 9:30 am - 5:00 pm","latitude":"44.749672","longitude":"-79.885158"},{"source":"yellow page","service_name":"Remenyi House Of Music","category":"accordion teacher","phone":"9058813400","address":"6-1455 16th Ave, Richmond Hill, ON L4B 4W5","postalcode":"L4B 4W5","website":" ","working_hour":"","latitude":"43.861967","longitude":"-79.388573"},{"source":"yellow page","service_name":"The Arts Music Store","category":"accordion teacher","phone":"905-898-7164","address":"274 Eagle Street, Newmarket, ON L3Y 1K1","postalcode":"L3Y 1K1","website":" ","working_hour":"","latitude":"44.048133","longitude":"-79.465868"},{"source":"yellow page","service_name":"Cosmo Music Company Ltd","category":"accordion teacher","phone":"905-770-5222","address":"10 via Renzo Dr, Richmond Hill, ON L4S 0B6","postalcode":"L4S 0B6","website":"http://cosmomusic.ca","working_hour":"","latitude":"43.8901537","longitude":"-79.392703"},{"source":"yellow page","service_name":"Saved By Technology","category":"accordion teacher","phone":"4169286434","address":"145 St. Luke Lane, Toronto, ON M4Y 0A7","postalcode":"M4Y 0A7","website":" ","working_hour":"","latitude":"43.664361","longitude":"-79.384717"},{"source":"yellow page","service_name":"Steve's Music Store","category":"accordion teacher","phone":"416-593-8888","address":"415 Queen St W, Toronto, ON M5V 2A5","postalcode":"M5V 2A5","website":"http://www.stevesmusic.com","working_hour":"Monday 9:00 am - 6:00 pm   Tuesday 9:00 am - 6:00 pm   Wednesday 9:00 am - 6:00 pm   Thursday 9:00 am - 9:00 pm   Friday 9:00 am - 9:00 pm   Saturday 9:00 am - 5:00 pm   Sunday 12:00 pm - 5:00 pm","latitude":"43.648901","longitude":"-79.394779"},{"source":"yellow page","service_name":"Chords Canada","category":"accordion teacher","phone":"416-242-4967","address":"62 Densley Ave, North York, ON M6M 5E1","postalcode":"M6M 5E1","website":" ","working_hour":"Monday 8:30 am - 5:00 pm   Tuesday 8:30 am - 5:00 pm   Wednesday 8:30 am - 5:00 pm   Thursday 8:30 am - 5:00 pm   Friday 8:30 am - 5:00 pm","latitude":"43.704748","longitude":"-79.472182"},{"source":"yellow page","service_name":"Guitar Shack","category":"accordion teacher","phone":"905-763-1997","address":"1416 Centre St, Thornhill, ON L4J 3N1","postalcode":"L4J 3N1","website":"http://www.guitar-shack.com","working_hour":"Monday 10:00 am - 9:00 pm   Tuesday 10:00 am - 9:00 pm   Wednesday 10:00 am - 9:00 pm   Thursday 10:00 am - 9:00 pm   Friday 10:00 am - 9:00 pm   Saturday 10:00 am - 6:00 pm   Sunday 10:00 am - 6:00 pm","latitude":"43.806691","longitude":"-79.4695905"},{"source":"yellow page","service_name":"Steinway Piano Gallery of Toronto","category":"accordion teacher","phone":"905-940-5397","address":"8-2651 John St, Markham, ON L3R 2W5","postalcode":"L3R 2W5","website":"http://steinwaypianogallery.ca","working_hour":"","latitude":"43.82495","longitude":"-79.358193"},{"source":"yellow page","service_name":"Just Drums","category":"accordion teacher","phone":"416-226-1211","address":"137 Willowdale Ave, North York, ON M2N 4Y3","postalcode":"M2N 4Y3","website":"http://www.justdrums.com","working_hour":"Monday 10:00 am - 9:00 pm   Tuesday 10:00 am - 9:00 pm   Wednesday 10:00 am - 9:00 pm   Thursday 10:00 am - 9:00 pm   Friday 10:00 am - 9:00 pm   Saturday 10:00 am - 6:00 pm","latitude":"43.765461","longitude":"-79.400295"},{"source":"yellow page","service_name":"Harknett Musical Services Ltd","category":"accordion teacher","phone":"905-477-1142","address":"2650 John St, Markham, ON L3R 2W6","postalcode":"L3R 2W6","website":"http://www.harknettmusic.com","working_hour":"Monday 9:00 am - 5:00 pm   Tuesday 9:00 am - 5:00 pm   Wednesday 9:00 am - 5:00 pm   Thursday 9:00 am - 5:00 pm   Friday 9:00 am - 5:00 pm   Saturday 9:00 am - 4:00 pm","latitude":"43.8248224","longitude":"-79.3589287"},{"source":"yellow page","service_name":"Rogers Music Centre","category":"accordion teacher","phone":"416-651-3332","address":"465 Rogers Rd, York, ON M6M 1A8","postalcode":"M6M 1A8","website":" ","working_hour":"Monday 11:00 am - 7:00 pm   Tuesday 11:00 am - 7:00 pm   Wednesday 11:00 am - 7:00 pm   Thursday 11:00 am - 9:00 pm   Friday 11:00 am - 7:00 pm   Saturday 11:00 am - 7:00 pm   Sunday 11:00 am - 7:00 pm","latitude":"43.682155","longitude":"-79.466209"},{"source":"yellow page","service_name":"Samuelson Music","category":"accordion teacher","phone":"416-733-4088","address":"59 Banstock Dr, North York, ON M2K 2H7","postalcode":"M2K 2H7","website":" ","working_hour":"Monday 8:00 am - 5:00 pm   Tuesday 8:00 am - 5:00 pm   Wednesday 8:00 am - 5:00 pm   Thursday 8:00 am - 5:00 pm   Friday 8:00 am - 5:00 pm   Appointment Only","latitude":"43.787726","longitude":"-79.383167"},{"source":"yellow page","service_name":"St John's Music","category":"accordion teacher","phone":"416-785-5000","address":"109 Vanderhoof Ave, Toronto, ON M4G 2H7","postalcode":"M4G 2H7","website":"http://www.stjohnsmusic.com/toronto/contact","working_hour":"Monday 10:00 am - 6:00 pm   Tuesday 10:00 am - 6:00 pm   Wednesday 10:00 am - 6:00 pm   Thursday 10:00 am - 6:00 pm   Friday 10:00 am - 6:00 pm   Saturday 10:00 am - 6:00 pm   Sunday 11:00 am - 5:00 pm","latitude":"43.712527","longitude":"-79.359327"},{"source":"yellow page","service_name":"Allegro Music","category":"accordion teacher","phone":"416-483-7203","address":"2045 Avenue Rd, North York, ON M5M 4A7","postalcode":"M5M 4A7","website":" ","working_hour":"Monday 11:00 am - 8:00 pm   Tuesday 11:00 am - 8:00 pm   Wednesday 11:00 am - 8:00 pm   Thursday 11:00 am - 8:00 pm   Friday 11:00 am - 6:00 pm   Saturday 10:00 am - 5:30 pm   Sunday 11:00 am - 5:00 pm","latitude":"43.7359894","longitude":"-79.4201047"},{"source":"yellow page","service_name":"Canadian Drum Gear","category":"accordion teacher","phone":"905-738-2234","address":"307 Edgeley Blvd, Concord, ON L4K 3Z5","postalcode":"L4K 3Z5","website":" ","working_hour":"Monday 10:00 am - 5:00 pm   Tuesday 10:00 am - 5:00 pm   Wednesday 10:00 am - 5:00 pm   Thursday 10:00 am - 5:00 pm   Friday 10:00 am - 5:00 pm   Saturday 9:00 am - 5:00 pm   Sunday 12:00 pm - 4:00 pm","latitude":"43.799855","longitude":"-79.5338431"},{"source":"yellow page","service_name":"Long & McQuade","category":"accordion teacher","phone":"416-663-8683","address":"2777 Steeles Ave W, North York, ON M3J 3K5","postalcode":"M3J 3K5","website":" ","working_hour":"","latitude":"43.782322","longitude":"-79.490858"},{"source":"yellow page","service_name":"Sarosh Musical Instruments","category":"accordion teacher","phone":"416-569-6178","address":"2 Angelucci Dr, Brampton, ON L6P 1G6","postalcode":"L6P 1G6","website":" ","working_hour":"","latitude":"43.777172","longitude":"-79.665411"},{"source":"yellow page","service_name":"Junction Guitars","category":"accordion teacher","phone":"416-761-0056","address":"2761 Dundas St W, Toronto, ON M6P 1Y4","postalcode":"M6P 1Y4","website":" ","working_hour":"Monday 10:00 am - 6:00 pm   Tuesday 10:00 am - 6:00 pm   Wednesday 10:00 am - 6:00 pm   Thursday 10:00 am - 6:00 pm   Friday 10:00 am - 6:00 pm   Saturday 10:00 am - 6:00 pm   Sunday 12:00 pm - 5:00 pm","latitude":"43.665225","longitude":"-79.461312"},{"source":"yellow page","service_name":"Drumland Inc","category":"accordion teacher","phone":"905-856-2135","address":"4585 Hwy 7, Woodbridge, ON L4L 1S6","postalcode":"L4L 1S6","website":" ","working_hour":"Monday 10:00 am - 8:00 pm   Tuesday 10:00 am - 8:00 pm   Wednesday 10:00 am - 8:00 pm   Thursday 10:00 am - 8:00 pm   Friday 10:00 am - 8:00 pm   Saturday 10:00 am - 5:00 pm   Sunday 12:00 pm - 4:00 pm","latitude":"43.7835577","longitude":"-79.5758101"},{"source":"yellow page","service_name":"TOS Ltd","category":"accordion teacher","phone":"905-474-3575","address":"2770 14th Ave, Markham, ON L3R 0J1","postalcode":"L3R 0J1","website":"http://www.tosltd.com","working_hour":"Monday 9:00 am - 5:00 pm   Tuesday 9:00 am - 5:00 pm   Wednesday 9:00 am - 5:00 pm   Thursday 9:00 am - 5:00 pm   Friday 9:00 am - 5:00 pm","latitude":"43.830231","longitude":"-79.358311"},{"source":"yellow page","service_name":"Footprint Music","category":"accordion teacher","phone":"4167926683","address":"2601 Yonge St, Toronto, ON M4P 2J1","postalcode":"M4P 2J1","website":"http://www.footprintsmusic.ca","working_hour":"","latitude":"43.714632","longitude":"-79.400051"},{"source":"yellow page","service_name":"Merriam Music","category":"accordion teacher","phone":"905-660-9503","address":"75-3175 Rutherford Rd, Vaughan, ON L4K 5Y6","postalcode":"L4K 5Y6","website":"https://www.merriammusic.com/","working_hour":"Monday 1:00 pm - 9:00 pm   Tuesday 1:00 pm - 9:00 pm   Wednesday 1:00 pm - 9:00 pm   Thursday 1:00 pm - 9:00 pm   Friday 1:00 pm - 9:00 pm   Saturday 9:00 am - 6:00 pm","latitude":"43.82965","longitude":"-79.537209"},{"source":"yellow page","service_name":"Tutti Violini","category":"accordion teacher","phone":"416-486-5050","address":"1560 Bayview Ave, Toronto, ON M4G 3B8","postalcode":"M4G 3B8","website":"http://www.tuttiviolini.com","working_hour":"Monday 11:00 am - 5:00 pm   Tuesday 11:00 am - 5:00 pm   Wednesday 11:00 am - 5:00 pm   Thursday 11:00 am - 5:00 pm   Friday 11:00 am - 5:00 pm","latitude":"43.705297","longitude":"-79.375015"},{"source":"yellow page","service_name":"Blue Mountain Music","category":"accordion teacher","phone":"705-445-5500","address":"127 Hurontario St, Collingwood, ON L9Y 2L9","postalcode":"L9Y 2L9","website":"http://www.bluemountainmusic.ca","working_hour":"Monday 10:00 am - 6:00 pm   Tuesday 10:00 am - 6:00 pm   Wednesday 10:00 am - 6:00 pm   Thursday 10:00 am - 6:00 pm   Friday 10:00 am - 6:00 pm   Saturday 10:00 am - 6:00 pm   Sunday 11:00 pm - 4:00 pm","latitude":"44.499526","longitude":"-80.216512"},{"source":"yellow page","service_name":"Johnny Drums & More","category":"accordion teacher","phone":"705-549-9300","address":"100 Main St, Penetanguishene, ON L9M 1T5","postalcode":"L9M 1T5","website":"http://www.johnmarrocco.ca","working_hour":"Monday 12:00 pm - 9:00 pm   Tuesday 12:00 pm - 9:00 pm   Wednesday 12:00 pm - 9:00 pm   Thursday 12:00 pm - 9:00 pm   Friday 12:00 pm - 9:00 pm","latitude":"44.768477","longitude":"-79.933569"},{"source":"yellow page","service_name":"Cloutier Musical Instruments","category":"accordion teacher","phone":"705-446-6837","address":"123 Hurontario St, Collingwood, ON L9Y 2L9","postalcode":"L9Y 2L9","website":" ","working_hour":"","latitude":"44.4997846","longitude":"-80.2167992"},{"source":"yellow page","service_name":"Joe's Music","category":"accordion teacher","phone":"705-445-8238","address":"9849 Beachwood Rd, Collingwood, ON L9Y 3Z1","postalcode":"L9Y 3Z1","website":"http://www.joesstore.ca","working_hour":"","latitude":"44.504022","longitude":"-80.202933"},{"source":"yellow page","service_name":"Arcadia Academy Of Music Bolton","category":"accordion teacher","phone":"9058571221","address":"12 Parr, ON L7E 4E3","postalcode":"L7E 4E3","website":"http://www.arcadiamusicacademy.com","working_hour":"","latitude":"43.8530196","longitude":"-79.7027442"},{"source":"yellow page","service_name":"Yamaha Commercial Audio Tech Support","category":"accordion teacher","phone":"9059442609","address":"80 Citizen Crt, Markham, ON L6G 1A7","postalcode":"L6G 1A7","website":"http://yamahacommercialaudiosystems.com/support.php","working_hour":"","latitude":"43.842711","longitude":"-79.31897"},{"source":"yellow page","service_name":"Long & Mcquade Ltd","category":"accordion teacher","phone":"5197635301","address":"30 Arrow Rd, Guelph, ON N1K 1S6","postalcode":"N1K 1S6","website":" ","working_hour":"","latitude":"43.5549651","longitude":"-80.2946944"},{"source":"yellow page","service_name":"Long & McQuade Musical Instruments","category":"accordion teacher","phone":"905-450-4334","address":"370 Main St N, Brampton, ON L6V 4A4","postalcode":"L6V 4A4","website":" ","working_hour":"","latitude":"43.69545","longitude":"-79.772793"},{"source":"yellow page","service_name":"A & R Music","category":"accordion teacher","phone":"519-507-5550","address":"401 Durham St E, Walkerton, ON N0G 2V0","postalcode":"N0G 2V0","website":" ","working_hour":"","latitude":"43.988229","longitude":"-80.733517"},{"source":"yellow page","service_name":"Busters Buy & Sell New & Used Goods","category":"accordion teacher","phone":"289-505-2964","address":"295 Queen E, Brampton, ON L6W 3R1","postalcode":"L6W 3R1","website":"http://www.busterspawn.ca","working_hour":"Monday 10:00 am - 9:00 pm   Tuesday 10:00 am - 9:00 pm   Wednesday 10:00 am - 9:00 pm   Thursday 10:00 am - 9:00 pm   Friday 10:00 am - 9:00 pm   Saturday 10:00 am - 6:00 pm   Sunday 11:00 am - 5:00 pm","latitude":"43.703131","longitude":"-79.7410427"},{"source":"yellow page","service_name":"Heather & Greg Holmes","category":"accordion teacher","phone":"519-925-3037","address":"135 Main St W, Shelburne, ON L9V 3K3","postalcode":"L9V 3K3","website":" ","working_hour":"Monday 9:00 am - 5:00 pm   Tuesday 9:00 am - 5:00 pm   Wednesday 9:00 am - 5:00 pm   Thursday 9:00 am - 5:00 pm   Friday 9:00 am - 5:00 pm   Saturday 9:00 am - 3:00 pm","latitude":"44.078243","longitude":"-80.204527"},{"source":"yellow page","service_name":"Spirit Drums","category":"accordion teacher","phone":"416-795-1320","address":"155909 7th Line, Markdale, ON N0C 1H0","postalcode":"N0C 1H0","website":" ","working_hour":"Monday 10:00 am - 8:00 pm   Tuesday 10:00 am - 8:00 pm   Wednesday 10:00 am - 8:00 pm   Thursday 10:00 am - 8:00 pm   Friday 10:00 am - 8:00 pm   Saturday 10:00 am - 8:00 pm   Sunday 10:00 am - 8:00 pm","latitude":"44.4259546","longitude":"-80.5808547"},{"source":"yellow page","service_name":"Bellissimo Custom Guitars","category":"accordion teacher","phone":"9058439334","address":"12420 Bramalea Rd, Caledon East, ON L7C 2P2","postalcode":"L7C 2P2","website":"http://www.bellissimocustomguitars.com","working_hour":"Monday 9:00 am - 7:00 pm   Tuesday 9:00 am - 7:00 pm   Wednesday 9:00 am - 7:00 pm   Thursday 9:00 am - 7:00 pm   Friday 9:00 am - 7:00 pm","latitude":"43.7801685","longitude":"-79.7926713"},{"source":"yellow page","service_name":"Sphere Works-Music Plus","category":"accordion teacher","phone":"519-369-1547","address":"148 Garafraxa St S, ON N0G 1R0","postalcode":"N0G 1R0","website":" ","working_hour":"Monday 10:00 am - 6:00 pm   Tuesday 10:00 am - 6:00 pm   Wednesday 10:00 am - 6:00 pm   Thursday 10:00 am - 6:00 pm   Friday 10:00 am - 6:00 pm","latitude":"44.175342","longitude":"-80.818238"},{"source":"yellow page","service_name":"Long & McQuade Musical Instruments","category":"accordion teacher","phone":"519-763-5301","address":"30 Arrow Rd, Guelph, ON N1K 1S6","postalcode":"N1K 1S6","website":" ","working_hour":"","latitude":"43.5549651","longitude":"-80.2946944"},{"source":"yellow page","service_name":"Axe 'N Gear Music & Vintage Collectibles","category":"accordion teacher","phone":"519-831-9911","address":"111238 11th Line, East Garafraxa, ON L9W 7A4","postalcode":"L9W 7A4","website":" ","working_hour":"","latitude":"43.8052312","longitude":"-80.2407593"},{"source":"yellow page","service_name":"Music In The Wood Midnight Special Enterprises","category":"accordion teacher","phone":"519-856-9266","address":"122 Main, Rockwood, ON N0B 2K0","postalcode":"N0B 2K0","website":" ","working_hour":"Tuesday 4:00 pm - 6:00 pm   Wednesday 4:00 pm - 6:00 pm   Thursday 3:00 pm - 8:00 pm   Friday 3:00 pm - 8:00 pm   Saturday 11:00 am - 5:00 pm   Sunday 11:00 am - 4:00 pm","latitude":"43.576028","longitude":"-80.076666"},{"source":"yellow page","service_name":"Travelling Musician","category":"accordion teacher","phone":"905-459-1100","address":"199 Queen St E, Brampton, ON L6W 2B3","postalcode":"L6W 2B3","website":"http://www.travellingmusician.com/","working_hour":"","latitude":"43.693941","longitude":"-79.751363"},{"source":"yellow page","service_name":"Don't Fret Musical Instruments","category":"accordion teacher","phone":"9056899898","address":"40 Mill N, Waterdown, ON L0R 2H0","postalcode":"L0R 2H0","website":"http://www.dontfretguitars.com","working_hour":"Monday 1:00 pm - 8:00 pm   Tuesday 1:00 pm - 8:00 pm   Wednesday 1:00 pm - 8:00 pm   Thursday 1:00 pm - 8:00 pm   Friday 11:00 am - 4:00 pm   Saturday 11:00 am - 4:00 pm","latitude":"43.3351596","longitude":"-79.8928025"},{"source":"yellow page","service_name":"Don't Fret Musical Instruments","category":"accordion teacher","phone":"905-333-8337","address":"2446 New St, Burlington, ON L7R 1J6","postalcode":"L7R 1J6","website":" ","working_hour":"","latitude":"43.33715","longitude":"-79.7865574"},{"source":"yellow page","service_name":"Absolute Music","category":"accordion teacher","phone":"905-318-7447","address":"945 Upper James St, Hamilton, ON L9C 3A6","postalcode":"L9C 3A6","website":"http://www.absolutemusic.ca","working_hour":"Tuesday 12:00 pm - 6:00 pm   Wednesday 12:00 pm - 6:00 pm   Thursday 12:00 pm - 9:00 pm   Friday 12:00 pm - 9:00 pm   Saturday 11:00 am - 5:00 pm","latitude":"43.224385","longitude":"-79.883517"},{"source":"yellow page","service_name":"Long & McQuade Musical Instruments","category":"accordion teacher","phone":"905-319-3330","address":"3180 Mainway Dr, Burlington, ON L7M 1A5","postalcode":"L7M 1A5","website":"http://long-mcquade.com","working_hour":"","latitude":"43.361638","longitude":"-79.805921"},{"source":"yellow page","service_name":"Get Loud Music","category":"accordion teacher","phone":"9052033612","address":"357 Main St E, Milton, ON L9T 1P7","postalcode":"L9T 1P7","website":" ","working_hour":"Monday 12:00 pm - 9:00 pm   Tuesday 12:00 pm - 9:00 pm   Wednesday 12:00 pm - 9:00 pm   Thursday 12:00 pm - 9:00 pm   Friday 12:00 pm - 8:00 pm   Saturday 11:00 am - 5:00 pm","latitude":"43.516314","longitude":"-79.879753"},{"source":"yellow page","service_name":"Mcquade Project Management","category":"accordion teacher","phone":"905-681-7452","address":"563 Catherine St, Burlington, ON L7N 2R9","postalcode":"L7N 2R9","website":" ","working_hour":"","latitude":"43.343236","longitude":"-79.787306"},{"source":"yellow page","service_name":"Mountain Music","category":"accordion teacher","phone":"905-574-2800","address":"705 Mohawk Rd E, Hamilton, ON L8T 2P7","postalcode":"L8T 2P7","website":"http://www.mountainmusic.ca","working_hour":"Monday 10:00 am - 8:00 pm   Tuesday 10:00 am - 8:00 pm   Wednesday 10:00 am - 8:00 pm   Thursday 10:00 am - 8:00 pm   Friday 10:00 am - 8:00 pm   Saturday 10:00 am - 5:30 pm","latitude":"43.218858","longitude":"-79.841812"},{"source":"yellow page","service_name":"The Custom Guitar Shop","category":"accordion teacher","phone":"905-335-0659","address":"","postalcode":"","website":" ","working_hour":"","latitude":"","longitude":""},{"source":"yellow page","service_name":"Dickert Guitars","category":"accordion teacher","phone":"905-315-9779","address":"ON","postalcode":"","website":" ","working_hour":"","latitude":"","longitude":""},{"source":"yellow page","service_name":"Long & McQuade Musical Instruments","category":"accordion teacher","phone":"905-684-2961","address":"41 Geneva St, St Catharines, ON L2R 4M5","postalcode":"L2R 4M5","website":"http://ostaneksmusic.com","working_hour":"","latitude":"43.162302","longitude":"-79.240122"},{"source":"yellow page","service_name":"Power City Music & Sound","category":"accordion teacher","phone":"905-374-3456","address":"3022 Saint Andrew Ave, Niagara Falls, ON L2J 2R6","postalcode":"L2J 2R6","website":"http://www.computerswapshop.com","working_hour":"","latitude":"43.128691","longitude":"-79.105445"},{"source":"yellow page","service_name":"Beamsville Music","category":"accordion teacher","phone":"905-324-5121","address":"8-4520 Ontario St, Beamsville, ON L0R 1B5","postalcode":"L0R 1B5","website":"http://www.Beamsvillemusic.com","working_hour":"Monday 10:00 am - 9:00 pm   Tuesday 10:00 am - 9:00 pm   Wednesday 10:00 am - 9:00 pm   Thursday 10:00 am - 9:00 pm   Friday 10:00 am - 8:00 pm   Saturday 10:00 am - 8:00 pm","latitude":"43.1769115","longitude":"-79.4769044"},{"source":"yellow page","service_name":"Ryson's United Studios Of Music Inc","category":"accordion teacher","phone":"905-682-7219","address":"5 Court St, St Catharines, ON L2R 4R3","postalcode":"L2R 4R3","website":" ","working_hour":"Monday 9:00 am - 5:00 pm   Tuesday 9:00 am - 5:00 pm   Wednesday 9:00 am - 5:00 pm   Thursday 9:00 am - 5:00 pm   Friday 9:00 am - 5:00 pm","latitude":"43.161363","longitude":"-79.241159"},{"source":"yellow page","service_name":"Wrona's House Of Violins","category":"accordion teacher","phone":"716-297-2263","address":"907 Escarpment Dr","postalcode":"","website":" ","working_hour":"","latitude":"","longitude":""},{"source":"yellow page","service_name":"Ontario Conservatory Of Music","category":"accordion teacher","phone":"905-871-3511","address":"212 Jarvis St, Fort Erie, ON L2A 2S5","postalcode":"L2A 2S5","website":" ","working_hour":"","latitude":"42.929745","longitude":"-78.919839"},{"source":"yellow page","service_name":"The Sound Post","category":"accordion teacher","phone":"416-971-6990","address":"93 Grenville St, Toronto, ON M5S 1B4","postalcode":"M5S 1B4","website":"http://www.thesoundpost.com","working_hour":"Tuesday 10:00 am - 6:00 pm   Wednesday 10:00 am - 6:00 pm   Thursday 10:00 am - 8:00 pm   Friday 10:00 am - 6:00 pm   Saturday 10:00 am - 6:00 pm","latitude":"43.6612511","longitude":"-79.3874335"},{"source":"yellow page","service_name":"The Fun School Of Music","category":"accordion teacher","phone":"905-309-3886","address":"42 Main St W, Grimsby, ON L3M 1R4","postalcode":"L3M 1R4","website":"http://www.funschoolofmusic.com/","working_hour":"","latitude":"43.1938224","longitude":"-79.5617706"},{"source":"yellow page","service_name":"Mike's Music","category":"accordion teacher","phone":"905-227-7941","address":"9 Pine St N, Thorold, ON L2V 3Z9","postalcode":"L2V 3Z9","website":"http://www.mikesmusiconline.moonfruit.com","working_hour":"","latitude":"43.1254935","longitude":"-79.2032712"},{"source":"yellow page","service_name":"Central Music","category":"accordion teacher","phone":"905-732-4885","address":"252 East Main St, Welland, ON L3B 3W9","postalcode":"L3B 3W9","website":"http://www.centralmusic.com","working_hour":"Monday 10:00 am - 6:00 pm   Tuesday 10:00 am - 6:00 pm   Wednesday 10:00 am - 6:00 pm   Thursday 10:00 am - 7:00 pm   Friday 10:00 am - 7:00 pm   Saturday 10:00 am - 5:00 pm","latitude":"42.9931253","longitude":"-79.2430789"},{"source":"yellow page","service_name":"Thorold Music","category":"accordion teacher","phone":"905-227-2472","address":"1-289 Glendale Ave, St Catharines, ON L2T 2L4","postalcode":"L2T 2L4","website":" ","working_hour":"","latitude":"43.135147","longitude":"-79.219293"},{"source":"yellow page","service_name":"Music City Instruments","category":"accordion teacher","phone":"905-937-7625","address":"38 Secord Dr, St Catharines, ON L2N 1K8","postalcode":"L2N 1K8","website":" ","working_hour":"","latitude":"43.184951","longitude":"-79.250777"},{"source":"yellow page","service_name":"King Of Trade","category":"accordion teacher","phone":"289-438-2742","address":"216 St. Paul St, St Catharines, ON L2R 3M2","postalcode":"L2R 3M2","website":" ","working_hour":"Monday 10:00 am - 5:30 pm   Tuesday 10:00 am - 5:30 pm   Wednesday 10:00 am - 5:30 pm   Thursday 10:00 am - 5:30 pm   Friday 10:00 am - 5:30 pm   Saturday 10:00 am - 5:00 pm","latitude":"43.1581274","longitude":"-79.2437631"},{"source":"yellow page","service_name":"Niagara Conservatory Of Music","category":"accordion teacher","phone":"289-434-0554","address":"23 Centre St, St Catharines, ON L2R 3A8","postalcode":"L2R 3A8","website":"http://www.niagaraconservatory.com","working_hour":"Monday 3:00 pm - 9:30 pm   Tuesday 3:00 pm - 9:30 pm   Wednesday 3:00 pm - 9:30 pm   Thursday 3:00 pm - 9:30 pm   Saturday 9:00 am - 5:00 pm   Sunday 11:00 am - 4:00 pm","latitude":"43.162036","longitude":"-79.241525"},{"source":"yellow page","service_name":"Long & McQuade Musical Instruments","category":"accordion teacher","phone":"416-439-8001","address":"1133 Markham Rd, Scarborough, ON M1H 2Y5","postalcode":"M1H 2Y5","website":" ","working_hour":"","latitude":"43.775541","longitude":"-79.231434"},{"source":"yellow page","service_name":"Ontario Conservatory Of Music","category":"accordion teacher","phone":"905-871-3511","address":"54 Jarvis St, Fort Erie, ON L2A 2S4","postalcode":"L2A 2S4","website":" ","working_hour":"","latitude":"42.929793","longitude":"-78.916585"},{"source":"yellow page","service_name":"AJ's Music","category":"accordion teacher","phone":"905-356-7695","address":"4582 Queen St, Niagara Falls, ON L2E 2L6","postalcode":"L2E 2L6","website":"http://www.ajsmusic.ca","working_hour":"Tuesday 10:00 am - 5:30 pm   Wednesday 10:00 am - 5:30 pm   Thursday 10:00 am - 5:30 pm   Friday 10:00 am - 5:30 pm   Saturday 10:00 am - 4:00 pm","latitude":"43.106628","longitude":"-79.069052"},{"source":"yellow page","service_name":"Murphy's Music","category":"accordion teacher","phone":"905-374-7196","address":"6011 Thorold Stone Rd, Niagara Falls, ON L2J 1A4","postalcode":"L2J 1A4","website":"http://www.murphysmusic.ca","working_hour":"","latitude":"43.11535","longitude":"-79.095351"},{"source":"yellow page","service_name":"Smart Pedals For Drums","category":"accordion teacher","phone":"905-545-0992","address":"2A-829 King St E, Hamilton, ON L8M 1B1","postalcode":"L8M 1B1","website":"http://www.homestead.com/playsmart/pedals.html","working_hour":"","latitude":"43.251377","longitude":"-79.841991"},{"source":"yellow page","service_name":"Value Plus","category":"accordion teacher","phone":"9052978538","address":"1143 Main St E, Hamilton, ON L8M 1P2","postalcode":"L8M 1P2","website":" ","working_hour":"","latitude":"43.243131","longitude":"-79.822039"},{"source":"yellow page","service_name":"M E S Music Equipment Sales Ltd","category":"accordion teacher","phone":"905-545-0404","address":"34 Parkdale Ave N, Hamilton, ON L8H 5W8","postalcode":"L8H 5W8","website":"http://www.mesonline.com","working_hour":"Monday 10:00 am - 6:00 pm   Tuesday 10:00 am - 6:00 pm   Wednesday 10:00 am - 6:00 pm   Thursday 10:00 am - 6:00 pm   Friday 10:00 am - 6:00 pm   Saturday 10:00 am - 5:00 pm","latitude":"43.237079","longitude":"-79.79178"},{"source":"yellow page","service_name":"Jillard Guitars","category":"accordion teacher","phone":"416-206-1054","address":"62 1/2 Stirton St, Hamilton, ON L8L 6E9","postalcode":"L8L 6E9","website":" ","working_hour":"","latitude":"43.253628","longitude":"-79.842669"},{"source":"yellow page","service_name":"Ontario Conservatory Of Music","category":"accordion teacher","phone":"289-919-0514","address":"221A-550 Fennell Ave E, Hamilton, ON L8V 4S9","postalcode":"L8V 4S9","website":" ","working_hour":"Tuesday 3:00 pm - 9:00 pm   Wednesday 3:00 pm - 9:00 pm   Thursday 3:00 pm - 9:00 pm   Friday 3:00 pm - 9:00 pm   Saturday 9:00 am - 3:00 pm","latitude":"43.232227","longitude":"-79.856327"},{"source":"yellow page","service_name":"Long & McQuade Musical Instruments","category":"accordion teacher","phone":"9055380247","address":"2444 Barton St E, Hamilton, ON L8E 2W7","postalcode":"L8E 2W7","website":" ","working_hour":"","latitude":"43.237126","longitude":"-79.761518"},{"source":"yellow page","service_name":"Tundra Music","category":"accordion teacher","phone":"2893898882","address":"257 King St E, Hamilton, ON L8N 1B9","postalcode":"L8N 1B9","website":" ","working_hour":"","latitude":"43.254205","longitude":"-79.861453"},{"source":"yellow page","service_name":"Lou's Music & Sound","category":"accordion teacher","phone":"905-297-0882","address":"108 Queenston Rd, Hamilton, ON L8K 1G2","postalcode":"L8K 1G2","website":" ","working_hour":"Monday 12:00 pm - 12:00 am   Tuesday 12:00 pm - 12:00 am   Wednesday 12:00 pm - 12:00 am   Thursday 12:00 pm - 12:00 am   Friday 12:00 pm - 12:00 am   Saturday 12:00 pm - 12:00 am   Sunday 12:00 pm - 12:00 am","latitude":"43.235852","longitude":"-79.798886"},{"source":"yellow page","service_name":"Eddie's Piano Co Ltd","category":"accordion teacher","phone":"416-299-8768","address":"3251 Kennedy Rd, Scarborough, ON M1V 2J9","postalcode":"M1V 2J9","website":"http://www.eddiepiano.com/","working_hour":"Monday 9:00 am - 5:00 pm   Tuesday 9:00 am - 5:00 pm   Wednesday 9:00 am - 5:00 pm   Thursday 9:00 am - 5:00 pm   Friday 9:00 am - 5:00 pm   Call For Details: Sunday, Saturday.","latitude":"43.817286","longitude":"-79.304221"},{"source":"yellow page","service_name":"Music Of May Ltd","category":"accordion teacher","phone":"416-754-2228","address":"63 Silver Star Blvd, Scarborough, ON M1V 5E5","postalcode":"M1V 5E5","website":"http://www.harmony-music.com/","working_hour":"Monday 11:00 am - 7:00 pm   Wednesday 11:00 am - 7:00 pm   Thursday 11:00 am - 7:00 pm   Friday 11:00 am - 7:00 pm   Saturday 10:00 am - 6:00 pm   Sunday 10:00 am - 6:00 pm","latitude":"43.806515","longitude":"-79.291007"},{"source":"yellow page","service_name":"Infinti Strings","category":"accordion teacher","phone":"905-513-3777","address":"351 Ferrier St, Markham, ON L3R 5Z2","postalcode":"L3R 5Z2","website":"http://www.infinitistrings.ca","working_hour":"Monday 10:00 am - 6:30 pm   Tuesday 10:00 am - 6:30 pm   Wednesday 10:00 am - 6:30 pm   Thursday 10:00 am - 6:30 pm   Friday 10:00 am - 6:30 pm   Saturday 10:00 am - 6:30 pm   Sunday 10:00 am - 6:30 pm","latitude":"43.820911","longitude":"-79.330916"},{"source":"yellow page","service_name":"QY String","category":"accordion teacher","phone":"416-490-9379","address":"3550 Victoria Park Ave, North York, ON M2H 2N5","postalcode":"M2H 2N5","website":" ","working_hour":"Monday 10:00 am - 6:00 pm   Tuesday 10:00 am - 6:00 pm   Wednesday 10:00 am - 6:00 pm   Thursday 10:00 am - 6:00 pm   Friday 10:00 am - 6:00 pm   Saturday 10:00 am - 6:00 pm","latitude":"43.80595","longitude":"-79.337184"},{"source":"yellow page","service_name":"Hanway Music","category":"accordion teacher","phone":"647-607-8901","address":"18-400 Esna Park Dr, Markham, ON L3R 3K2","postalcode":"L3R 3K2","website":" ","working_hour":"Monday 2:30 pm - 9:00 pm   Tuesday 2:30 pm - 9:00 pm   Wednesday 2:30 pm - 9:00 pm   Thursday 2:30 pm - 9:00 pm   Friday 2:30 pm - 9:00 pm   Saturday 9:00 am - 9:00 pm   Sunday 9:00 am - 9:00 pm","latitude":"43.821854","longitude":"-79.335788"},{"source":"yellow page","service_name":"CJC Music","category":"accordion teacher","phone":"416-721-7162","address":"","postalcode":"","website":" ","working_hour":"","latitude":"","longitude":""},{"source":"yellow page","service_name":"M And I Instruments","category":"accordion teacher","phone":"905-670-8243","address":"7035 Maxwell Rd, Mississauga, ON L5S 1R5","postalcode":"L5S 1R5","website":"http://microinstruments.ca","working_hour":"Monday 9:00 am - 7:00 pm   Tuesday 9:00 am - 7:00 pm   Wednesday 9:00 am - 7:00 pm   Thursday 9:00 am - 7:00 pm   Friday 9:00 am - 7:00 pm   Saturday 10:00 am - 5:00 pm","latitude":"43.669514","longitude":"-79.682303"},{"source":"yellow page","service_name":"National Academy Of Music","category":"accordion teacher","phone":"905-502-5494","address":"1001-45 Kingsbridge Garden Cir, Mississauga, ON L5R 3K4","postalcode":"L5R 3K4","website":" ","working_hour":"","latitude":"43.6029456","longitude":"-79.6500406"},{"source":"yellow page","service_name":"Toronto Piano Music Education Centre","category":"accordion teacher","phone":"905-361-5664","address":"75 Watline Ave, Mississauga, ON L4Z 3E5","postalcode":"L4Z 3E5","website":"http://www.pianogroup.ca","working_hour":"","latitude":"43.622343","longitude":"-79.670602"},{"source":"yellow page","service_name":"Busters Pawn.ca","category":"accordion teacher","phone":"289-633-0546","address":"1370 Dundas St E, Mississauga, ON L4Y 4G4","postalcode":"L4Y 4G4","website":"http://www.busterspawn.ca","working_hour":"Monday 10:00 am - 9:00 pm   Tuesday 10:00 am - 9:00 pm   Wednesday 10:00 am - 9:00 pm   Thursday 10:00 am - 9:00 pm   Friday 10:00 am - 9:00 pm   Saturday 10:00 am - 6:00 pm   Sunday 11:00 am - 5:00 pm","latitude":"43.608609","longitude":"-79.584617"},{"source":"yellow page","service_name":"Long & McQuade Musical Instruments","category":"accordion teacher","phone":"905-273-3939","address":"900 Rathburn Rd W, Mississauga, ON L5C 4L3","postalcode":"L5C 4L3","website":" ","working_hour":"","latitude":"43.578552","longitude":"-79.661586"},{"source":"yellow page","service_name":"Walters Music Centre","category":"accordion teacher","phone":"905-542-0099","address":"905 Britannia Rd W, Mississauga, ON L5V 2X8","postalcode":"L5V 2X8","website":" ","working_hour":"","latitude":"43.609674","longitude":"-79.698587"},{"source":"yellow page","service_name":"Melodic Music Centre","category":"accordion teacher","phone":"905-268-0539","address":"3234 Wharton Way, Mississauga, ON L4X 2C1","postalcode":"L4X 2C1","website":"http://www.melodiccanada.com/","working_hour":"Monday 9:00 am - 5:00 pm   Tuesday 9:00 am - 5:00 pm   Wednesday 9:00 am - 5:00 pm   Thursday 9:00 am - 5:00 pm   Friday 9:00 am - 5:00 pm   Saturday 9:00 am - 5:00 pm   Call For Details: Sunday.","latitude":"43.622496","longitude":"-79.578723"},{"source":"yellow page","service_name":"Supereme","category":"accordion teacher","phone":"6472690650","address":"205-3024 Hurontario St, Mississauga, ON L5B 4M4","postalcode":"L5B 4M4","website":" ","working_hour":"","latitude":"43.5806313","longitude":"-79.6169662"},{"source":"yellow page","service_name":"Club Bass","category":"accordion teacher","phone":"416-538-1685","address":"698 The Queensway, Etobicoke, ON M8Y 1K9","postalcode":"M8Y 1K9","website":" ","working_hour":"Wednesday 12:00 pm - 5:00 pm   Thursday 12:00 pm - 5:00 pm   Friday 12:00 pm - 5:00 pm   Saturday 11:00 am - 4:00 pm   Appointments Available: Tuesday.","latitude":"43.627135","longitude":"-79.499871"},{"source":"yellow page","service_name":"Pro Rehearsal & Backline","category":"accordion teacher","phone":"416-693-1816","address":"154 Islington Ave, Etobicoke, ON M8V 3B6","postalcode":"M8V 3B6","website":"http://www.prbcanada.com","working_hour":"","latitude":"43.601807","longitude":"-79.505737"},{"source":"yellow page","service_name":"Strings Attached Music Shop","category":"accordion teacher","phone":"905-812-0101","address":"3 Main St, Mississauga, ON L5M 1X4","postalcode":"L5M 1X4","website":"http://www.stringsattachedmusic.com","working_hour":"Monday 11:00 am - 8:30 pm   Tuesday 11:00 am - 8:30 pm   Wednesday 11:00 am - 8:30 pm   Thursday 11:00 am - 8:30 pm   Friday 11:00 am - 8:30 pm   Saturday 10:00 am - 6:00 pm   Sunday: Open Seasonally, 12 Noon ¿ 5 Pm","latitude":"43.581322","longitude":"-79.712662"},{"source":"yellow page","service_name":"The Guitar Shop","category":"accordion teacher","phone":"905-274-5555","address":"249 Lakeshore Road East, Mississauga, ON L5G 1G8","postalcode":"L5G 1G8","website":"http://www.theguitarshop.ca","working_hour":"","latitude":"43.559567","longitude":"-79.576893"},{"source":"yellow page","service_name":"L A Music.ca","category":"accordion teacher","phone":"9052710303","address":"230 Lakeshore Rd E, Mississauga, ON L5G 1G7","postalcode":"L5G 1G7","website":"http://www.lamusic.ca","working_hour":"Monday 10:00 am - 7:00 pm   Tuesday 10:00 am - 7:00 pm   Wednesday 10:00 am - 7:00 pm   Thursday 10:00 am - 7:00 pm   Friday 10:00 am - 7:00 pm   Saturday 10:00 am - 6:00 pm","latitude":"43.559056","longitude":"-79.577715"},{"source":"yellow page","service_name":"Long & McQuade Downtown Store","category":"accordion teacher","phone":"416-588-0855","address":"925 Bloor St W, Toronto, ON M6H 1L5","postalcode":"M6H 1L5","website":" ","working_hour":"","latitude":"43.661632","longitude":"-79.427234"},{"source":"yellow page","service_name":"The Guitar World","category":"accordion teacher","phone":"905-858-9918","address":"6435 Erin Mills Pky, Mississauga, ON L5N 4H4","postalcode":"L5N 4H4","website":" ","working_hour":"Monday 10:00 am - 8:00 pm   Tuesday 10:00 am - 8:00 pm   Wednesday 10:00 am - 8:00 pm   Thursday 10:00 am - 8:00 pm   Friday 10:00 am - 7:00 pm   Saturday 10:00 am - 5:00 pm","latitude":"43.587041","longitude":"-79.742282"},{"source":"yellow page","service_name":"Long & McQuade Musical Instruments","category":"accordion teacher","phone":"416-588-7886","address":"925 Bloor St W, Toronto, ON M6H 1L5","postalcode":"M6H 1L5","website":"https://www.long-mcquade.com/location/Ontario/Toronto/","working_hour":"Monday 9:30 am - 6:00 pm   Tuesday 9:30 am - 6:00 pm   Wednesday 9:30 am - 6:00 pm   Thursday 9:30 am - 9:00 pm   Friday 9:30 am - 9:00 pm   Saturday 9:30 am - 6:00 pm","latitude":"43.661632","longitude":"-79.427234"},{"source":"yellow page","service_name":"Armstrong Gary Woodwinds Ltd","category":"accordion teacher","phone":"416-535-6000","address":"1612 Queen St W, Toronto, ON M6R 1A8","postalcode":"M6R 1A8","website":"http://www.garyarmstrong.com","working_hour":"Tuesday 10:00 am - 4:00 pm   Wednesday 10:00 am - 4:00 pm   Thursday 10:00 am - 4:00 pm   Friday 10:00 am - 4:00 pm   Saturday 10:00 am - 4:00 pm","latitude":"43.639563","longitude":"-79.44188"},{"source":"yellow page","service_name":"Lil'Demon Guitar Pro Shop","category":"accordion teacher","phone":"416-530-1766","address":"1594 Queen St W, Toronto, ON M6R 1A8","postalcode":"M6R 1A8","website":" ","working_hour":"Tuesday 10:00 am - 5:00 pm   Wednesday 10:00 am - 5:00 pm   Thursday 10:00 am - 5:00 pm   Friday 11:00 am - 6:00 pm   Saturday 12:00 pm - 7:00 pm","latitude":"43.650388","longitude":"-79.415496"},{"source":"yellow page","service_name":"Coll Audio","category":"accordion teacher","phone":"9056966829","address":"ON","postalcode":"","website":"http://collaudio.com","working_hour":"Monday 10:00 am - 6:00 pm   Tuesday 10:00 am - 6:00 pm   Wednesday 10:00 am - 6:00 pm   Thursday 10:00 am - 6:00 pm   Friday 10:00 am - 6:00 pm   Saturday 10:00 am - 6:00 pm","latitude":"43.651893","longitude":"-79.381713"},{"source":"yellow page","service_name":"Heinl Geo & Co Ltd","category":"accordion teacher","phone":"416-363-0093","address":"201 Church St, Toronto, ON M5B 1Y7","postalcode":"M5B 1Y7","website":"http://www.georgeheinl.com","working_hour":"Monday 9:00 am - 5:00 pm   Tuesday 9:00 am - 5:00 pm   Wednesday 9:00 am - 5:00 pm   Thursday 9:00 am - 5:00 pm   Friday 9:00 am - 5:00 pm","latitude":"43.655675","longitude":"-79.376798"},{"source":"yellow page","service_name":"The Guitar World","category":"accordion teacher","phone":"905-257-3110","address":"380 Dundas St E, Oakville, ON L6H 6Z9","postalcode":"L6H 6Z9","website":" ","working_hour":"Monday 10:00 am - 8:00 pm   Tuesday 10:00 am - 8:00 pm   Wednesday 10:00 am - 8:00 pm   Thursday 10:00 am - 8:00 pm   Friday 10:00 am - 7:00 pm   Saturday 10:00 am - 5:00 pm","latitude":"43.488595","longitude":"-79.717008"},{"source":"yellow page","service_name":"Gear Music","category":"accordion teacher","phone":"905-339-3515","address":"324 Kerr St, Oakville, ON L6K 3B5","postalcode":"L6K 3B5","website":"https://www.gearmusic.com","working_hour":"Monday 10:00 am - 9:00 pm   Tuesday 10:00 am - 9:00 pm   Wednesday 10:00 am - 9:00 pm   Thursday 10:00 am - 9:00 pm   Friday 10:00 am - 8:00 pm   Saturday 10:00 am - 6:00 pm   Sunday 12:00 am - 12:00 am","latitude":"43.443532","longitude":"-79.681301"},{"source":"yellow page","service_name":"Avian Guitars Canada","category":"accordion teacher","phone":"289-400-7529","address":"Oakville, ON","postalcode":"","website":" ","working_hour":"","latitude":"","longitude":""},{"source":"yellow page","service_name":"Adrian Raso Oa","category":"accordion teacher","phone":"519-837-3729","address":"15 Chapel Lane, Guelph, ON N1H 2N4","postalcode":"N1H 2N4","website":" ","working_hour":"","latitude":"43.5460387","longitude":"-80.2513652"},{"source":"yellow page","service_name":"Picks & Sticks Music","category":"accordion teacher","phone":"905-528-6058","address":"140 Locke St S, Hamilton, ON L8P 4A9","postalcode":"L8P 4A9","website":"http://www.picksandsticksmusic.com/","working_hour":"Monday 11:00 am - 7:30 pm   Tuesday 11:00 am - 7:30 pm   Wednesday 11:00 am - 7:30 pm   Thursday 11:00 am - 7:30 pm   Friday 11:00 am - 7:30 pm   Saturday 10:00 am - 5:00 pm   Sunday 11:00 am - 3:00 pm","latitude":"43.256526","longitude":"-79.885172"},{"source":"yellow page","service_name":"The Acoustic Room","category":"accordion teacher","phone":"9055240101","address":"144 James St S, Hamilton, ON L8P 3A2","postalcode":"L8P 3A2","website":" ","working_hour":"","latitude":"43.252429","longitude":"-79.870948"},{"source":"yellow page","service_name":"The Music Stand","category":"accordion teacher","phone":"9055749212","address":"14 Hester St, Hamilton, ON L9A 2N2","postalcode":"L9A 2N2","website":" ","working_hour":"Monday 11:00 am - 9:00 pm   Tuesday 11:00 am - 9:00 pm   Wednesday 11:00 am - 9:00 pm   Thursday 11:00 am - 9:00 pm   Friday 11:00 am - 9:00 pm   Saturday 10:00 am - 5:00 pm","latitude":"43.224889","longitude":"-79.882374"},{"source":"yellow page","service_name":"Epic Musical Instruments","category":"accordion teacher","phone":"905-515-6198","address":"ON","postalcode":"","website":" ","working_hour":"","latitude":"","longitude":""},{"source":"yellow page","service_name":"Guitar Clinic","category":"accordion teacher","phone":"905-528-5667","address":"ON","postalcode":"","website":" ","working_hour":"","latitude":"","longitude":""},{"source":"yellow page","service_name":"Caledonia Music Ctre","category":"accordion teacher","phone":"905-765-3334","address":"62 Argyle St N Store, Caledonia, ON N3W 1B9","postalcode":"N3W 1B9","website":" ","working_hour":"Monday 3:00 pm - 9:00 pm   Tuesday 3:00 pm - 9:00 pm   Wednesday 3:00 pm - 9:00 pm   Thursday 3:00 pm - 9:00 pm   Friday 3:00 pm - 9:00 pm   Saturday 1:00 pm - 6:00 pm","latitude":"43.074766","longitude":"-79.950712"},{"source":"yellow page","service_name":"Guelph Music","category":"accordion teacher","phone":"519-836-3199","address":"20 Carden St, Guelph, ON N1H 3A2","postalcode":"N1H 3A2","website":" ","working_hour":"Monday 11:00 am - 6:00 pm   Tuesday 11:00 am - 6:00 pm   Wednesday 11:00 am - 6:00 pm   Thursday 11:00 am - 7:00 pm   Friday 11:00 am - 7:00 pm   Saturday 11:00 am - 5:00 pm   Sunday 12:00 pm - 4:00 pm","latitude":"43.543874","longitude":"-80.249116"},{"source":"yellow page","service_name":"Folkway Music","category":"accordion teacher","phone":"519-763-5524","address":"163 Suffolk St W, Guelph, ON N1H 2J7","postalcode":"N1H 2J7","website":"http://folkwaymusic.com","working_hour":"","latitude":"43.5444373","longitude":"-80.2605251"},{"source":"yellow page","service_name":"Open String","category":"accordion teacher","phone":"519-763-5493","address":"1 Bushmills Cres, Guelph, ON N1K 1T5","postalcode":"N1K 1T5","website":"http://www.openstrings.ca","working_hour":"","latitude":"43.527927","longitude":"-80.278256"},{"source":"yellow page","service_name":"Long & McQuade Musical Instruments","category":"accordion teacher","phone":"519-371-9662","address":"704 6th St E, Owen Sound, ON N4K 1G7","postalcode":"N4K 1G7","website":"http://www.fromagermusic.com","working_hour":"","latitude":"44.561325","longitude":"-80.93095"},{"source":"yellow page","service_name":"Coll Audio","category":"accordion teacher","phone":"416-264-1188","address":"3595 St Clair Ave E, Scarborough, ON M1K 1L8","postalcode":"M1K 1L8","website":"http://www.collaudio.com","working_hour":"Monday 10:00 am - 6:00 pm   Tuesday 10:00 am - 6:00 pm   Wednesday 10:00 am - 6:00 pm   Thursday 10:00 am - 6:00 pm   Friday 10:00 am - 6:00 pm","latitude":"43.717462","longitude":"-79.257214"},{"source":"yellow page","service_name":"The Twelfth Fret","category":"accordion teacher","phone":"416-423-2132","address":"2132 Danforth Ave, Toronto, ON M4C 1J9","postalcode":"M4C 1J9","website":"http://www.12fret.com","working_hour":"","latitude":"43.686149","longitude":"-79.311549"},{"source":"yellow page","service_name":"Scarboro Music Co Ltd","category":"accordion teacher","phone":"416-699-8333","address":"1051 Kingston Rd, Toronto, ON M4E 1T5","postalcode":"M4E 1T5","website":"http://www.scarboromusic.com","working_hour":"Monday 11:00 am - 8:30 pm   Tuesday 11:00 am - 8:30 pm   Wednesday 11:00 am - 8:30 pm   Thursday 11:00 am - 8:30 pm   Friday 11:00 am - 6:00 pm   Saturday 12:00 pm - 5:00 pm","latitude":"43.680808","longitude":"-79.284205"},{"source":"yellow page","service_name":"Tundra Music","category":"accordion teacher","phone":"416-222-8222","address":"587 Jones Ave, Toronto, ON M4J 3H4","postalcode":"M4J 3H4","website":" ","working_hour":"Monday 12:00 pm - 4:00 pm   Tuesday 12:00 pm - 5:00 pm   Wednesday 12:00 pm - 5:00 pm   Thursday 12:00 pm - 5:00 pm   Friday 12:00 pm - 5:00 pm   Saturday 12:00 pm - 5:00 pm","latitude":"43.679618","longitude":"-79.340034"},{"source":"yellow page","service_name":"Metro Sound & Music","category":"accordion teacher","phone":"416-921-4270","address":"486 Yonge St, Toronto, ON M4Y 1X5","postalcode":"M4Y 1X5","website":"http://metrosoundmusic.com/","working_hour":"","latitude":"43.662708","longitude":"-79.383658"},{"source":"yellow page","service_name":"Musideum","category":"accordion teacher","phone":"4165997323","address":"401 Richmond St W, Toronto, ON M5V 3A8","postalcode":"M5V 3A8","website":" ","working_hour":"","latitude":"43.648052","longitude":"-79.394859"},{"source":"yellow page","service_name":"Remenyi House Of Music","category":"accordion teacher","phone":"416-961-3111","address":"210 Bloor St W, Toronto, ON M5S 1T8","postalcode":"M5S 1T8","website":" ","working_hour":"","latitude":"43.668476","longitude":"-79.395972"},{"source":"yellow page","service_name":"Paul's Boutique","category":"accordion teacher","phone":"416-603-9477","address":"69 Nassau St, Toronto, ON M5T 1M6","postalcode":"M5T 1M6","website":" ","working_hour":"Monday 12:00 pm - 7:00 pm   Tuesday 12:00 pm - 7:00 pm   Wednesday 12:00 pm - 7:00 pm   Thursday 12:00 pm - 7:00 pm   Friday 12:00 pm - 7:00 pm   Saturday 12:00 pm - 7:00 pm   Sunday 12:00 pm - 7:00 pm","latitude":"43.655153","longitude":"-79.402684"},{"source":"yellow page","service_name":"Long & McQuade Musical Instruments","category":"accordion teacher","phone":"519-885-4215","address":"36 King St N, Waterloo, ON N2J 2W8","postalcode":"N2J 2W8","website":"#","working_hour":"Monday 9:00 am - 5:00 pm   Tuesday 9:00 am - 5:00 pm   Wednesday 9:00 am - 5:00 pm   Thursday 9:00 am - 5:00 pm   Friday 9:00 am - 5:00 pm","latitude":"43.466336","longitude":"-80.522663"},{"source":"yellow page","service_name":"CMA Music","category":"accordion teacher","phone":"519-826-9788","address":"330 Laird Rd, Guelph, ON N1G 3X7","postalcode":"N1G 3X7","website":"http://www.cmamusic.ca","working_hour":"Monday 12:00 pm - 9:00 pm   Tuesday 12:00 pm - 9:00 pm   Wednesday 12:00 pm - 9:00 pm   Thursday 12:00 pm - 9:00 pm   Friday 12:00 pm - 9:00 pm   Saturday 10:00 am - 4:00 pm","latitude":"43.492925","longitude":"-80.200713"},{"source":"yellow page","service_name":"JamSchool","category":"accordion teacher","phone":"519-836-8526","address":"225 Hanlon Creek Blvd, Guelph, ON N1C 0A1","postalcode":"N1C 0A1","website":"#","working_hour":"","latitude":"43.4920061","longitude":"-80.2191182"},{"source":"yellow page","service_name":"Opus II","category":"accordion teacher","phone":"519-743-4362","address":"87 Pinecrest Dr, Kitchener, ON N2A 2G7","postalcode":"N2A 2G7","website":"http://www.opus-two.com","working_hour":"Monday 9:30 am - 5:30 pm   Tuesday 9:30 am - 5:30 pm   Wednesday 9:30 am - 5:30 pm   Thursday 9:30 am - 5:30 pm   Friday 9:30 am - 5:30 pm   Saturday 9:30 am - 5:30 pm","latitude":"43.436145","longitude":"-80.446256"},{"source":"yellow page","service_name":"Long & McQuade Musical Instruments","category":"accordion teacher","phone":"519-622-1970","address":"1490 Dunbar Rd, Cambridge, ON N1R 6R3","postalcode":"N1R 6R3","website":"http://www.murchmusic.com","working_hour":"","latitude":"43.390882","longitude":"-80.321125"},{"source":"yellow page","service_name":"Bob's Guitar Service","category":"accordion teacher","phone":"519-208-4663","address":"342 Victoria St N, Kitchener, ON N2H 5E2","postalcode":"N2H 5E2","website":"#","working_hour":"","latitude":"43.458431","longitude":"-80.483088"},{"source":"yellow page","service_name":"Riley Music","category":"accordion teacher","phone":"519-741-1758","address":"16 Charles St W, Kitchener, ON N2G 1H2","postalcode":"N2G 1H2","website":" ","working_hour":"","latitude":"43.449684","longitude":"-80.491865"},{"source":"yellow page","service_name":"Riedstra's Violin Shop Inc","category":"accordion teacher","phone":"519-743-3838","address":"239 Victoria St N, Kitchener, ON N2H 5C9","postalcode":"N2H 5C9","website":"http://www.riedstrasviolinshop.com","working_hour":"","latitude":"43.457009","longitude":"-80.487165"},{"source":"yellow page","service_name":"Exeter Music Centre","category":"accordion teacher","phone":"519-235-1263","address":"342 Main St N SS 3, Exeter, ON N0M 1S3","postalcode":"N0M 1S3","website":"http://www.exetermusic.com/","working_hour":"Monday 11:00 am - 5:00 pm   Tuesday 11:00 am - 5:00 pm   Wednesday 11:00 am - 5:00 pm   Thursday 11:00 am - 5:00 pm   Friday 11:00 am - 5:00 pm   Saturday 10:00 am - 4:00 pm","latitude":"43.356614","longitude":"-81.474675"},{"source":"yellow page","service_name":"Cancussion","category":"accordion teacher","phone":"519-396-8595","address":"749 Baird St, Kincardine, ON N2Z 1M3","postalcode":"N2Z 1M3","website":" ","working_hour":"","latitude":"44.1739209","longitude":"-81.618817"},{"source":"yellow page","service_name":"Selinger Music","category":"accordion teacher","phone":"519-291-7665","address":"208 Main St W, Listowel, ON N4W 1A1","postalcode":"N4W 1A1","website":"http://www.listowellegends.com","working_hour":"","latitude":"43.7321517","longitude":"-80.9545438"},{"source":"yellow page","service_name":"Buy 'n' Sell","category":"accordion teacher","phone":"519-894-1555","address":"6-509 Wilson Ave, Kitchener, ON N2C 2M4","postalcode":"N2C 2M4","website":"http://www.buy-n-sell.ca","working_hour":"Monday 10:00 am - 8:00 pm   Tuesday 10:00 am - 8:00 pm   Wednesday 10:00 am - 8:00 pm   Thursday 10:00 am - 8:00 pm   Friday 10:00 am - 8:00 pm   Saturday 10:00 am - 5:30 pm   Sunday 11:30 am - 4:30 pm","latitude":"43.419848","longitude":"-80.442323"},{"source":"yellow page","service_name":"McConville Guitars","category":"accordion teacher","phone":"519-275-2188","address":"69 Waterloo St N, Stratford, ON N5A 5H8","postalcode":"N5A 5H8","website":" ","working_hour":"","latitude":"43.376454","longitude":"-80.980554"},{"source":"yellow page","service_name":"Blackboard Sound","category":"accordion teacher","phone":"226-453-2148","address":"652 Goderich St, Port Elgin, ON N0H 2C0","postalcode":"N0H 2C0","website":"http://blackboardsound.com","working_hour":"Monday 11:00 am - 9:00 pm   Tuesday 11:00 am - 9:00 pm   Wednesday 11:00 am - 9:00 pm   Thursday 11:00 am - 9:00 pm   Friday 11:00 am - 9:00 pm   Saturday 10:00 am - 6:00 pm","latitude":"44.4370277","longitude":"-81.3882361"},{"source":"yellow page","service_name":"Long & McQuade Musical Instruments","category":"accordion teacher","phone":"519-271-9102","address":"36 Ontario St, Stratford, ON N5A 3G8","postalcode":"N5A 3G8","website":"#","working_hour":"","latitude":"43.3714845","longitude":"-80.9835206"},{"source":"yellow page","service_name":"Ware William R-Violins Ltd","category":"accordion teacher","phone":"519-472-2359","address":"14 Metamora Cres, London, ON N6G 1R3","postalcode":"N6G 1R3","website":" ","working_hour":"","latitude":"43.003089","longitude":"-81.290557"},{"source":"yellow page","service_name":"Long & McQuade Musical Instruments","category":"accordion teacher","phone":"519-433-2434","address":"20 Meg Dr, London, ON N6E 2X9","postalcode":"N6E 2X9","website":"http://long-mcquade.com","working_hour":"","latitude":"42.925137","longitude":"-81.232037"},{"source":"yellow page","service_name":"Pawn Tario","category":"accordion teacher","phone":"519-539-1777","address":"451 Dundas St, Woodstock, ON N4S 1C2","postalcode":"N4S 1C2","website":"http://pawntario.wordpress.com/","working_hour":"Monday 10:00 am - 6:00 pm   Tuesday 10:00 am - 6:00 pm   Wednesday 10:00 am - 6:00 pm   Thursday 10:00 am - 6:00 pm   Friday 10:00 am - 6:00 pm   Saturday 10:00 am - 2:00 pm","latitude":"43.129917","longitude":"-80.757959"},{"source":"yellow page","service_name":"Music Express Canada","category":"accordion teacher","phone":"226-922-1890","address":"42 Easton Rd, Brantford, ON N3P 1J5","postalcode":"N3P 1J5","website":"#","working_hour":"Monday 11:30 am - 5:30 pm   Tuesday 11:30 am - 5:30 pm   Wednesday 11:30 am - 5:30 pm   Thursday 11:30 am - 5:30 pm   Friday 11:30 am - 5:30 pm   Saturday 1:00 pm - 5:00 pm   Appointments Available: Sunday.","latitude":"43.176334","longitude":"-80.23957"},{"source":"yellow page","service_name":"Kelly's Of Simcoe","category":"accordion teacher","phone":"519-426-3913","address":"49 Peel St, Simcoe, ON N3Y 1S3","postalcode":"N3Y 1S3","website":" ","working_hour":"","latitude":"42.835907","longitude":"-80.305251"},{"source":"yellow page","service_name":"Long & McQuade Musical Instruments","category":"accordion teacher","phone":"519-539-7371","address":"20 Finkle St, Woodstock, ON N4S 3C6","postalcode":"N4S 3C6","website":" ","working_hour":"","latitude":"43.129317","longitude":"-80.75779"},{"source":"yellow page","service_name":"Pat Alonzo Music Shop","category":"accordion teacher","phone":"1-844-299-7604","address":"139 Charing Cross St, Brantford, ON N3R 2J3","postalcode":"N3R 2J3","website":"#","working_hour":"Monday 10:00 am - 8:00 pm   Tuesday 10:00 am - 8:00 pm   Wednesday 10:00 am - 8:00 pm   Thursday 10:00 am - 8:00 pm   Friday 10:00 am - 8:00 pm   Saturday 10:00 am - 5:00 pm","latitude":"43.158595","longitude":"-80.262934"},{"source":"yellow page","service_name":"John Bellone Musical Instruments","category":"accordion teacher","phone":"519-673-1411","address":"446 York St, London, ON N6B 1R2","postalcode":"N6B 1R2","website":"http://www.bellonesmusic.com","working_hour":"Monday 10:00 am - 6:00 pm   Tuesday 10:00 am - 6:00 pm   Wednesday 10:00 am - 6:00 pm   Thursday 10:00 am - 6:00 pm   Friday 10:00 am - 6:00 pm   Saturday 10:00 am - 6:00 pm   Sunday 12:00 pm - 5:00 pm","latitude":"42.9845677","longitude":"-81.2367035"},{"source":"yellow page","service_name":"The Harp Nest","category":"accordion teacher","phone":"5199336089","address":"266 Blackacres Blvd, London, ON N6G 2V1","postalcode":"N6G 2V1","website":" ","working_hour":"","latitude":"43.012133","longitude":"-81.3119634"},{"source":"yellow page","service_name":"Long & McQuade Musical Instruments","category":"accordion teacher","phone":"519-439-0101","address":"725 Fanshawe Park Rd W, London, ON N6G 5B4","postalcode":"N6G 5B4","website":"http://www.long-mcquade.com","working_hour":"","latitude":"43.0174528","longitude":"-81.3139378"},{"source":"yellow page","service_name":"Academy Of Music Music Centre","category":"accordion teacher","phone":"5198427811","address":"20 Brock St E, Tillsonburg, ON N4G 1Z5","postalcode":"N4G 1Z5","website":"http://www.academyofmusic-musiccentre.com/","working_hour":"","latitude":"42.86068","longitude":"-80.726625"},{"source":"yellow page","service_name":"Classical Guitars & Accessories","category":"accordion teacher","phone":"519-651-0588","address":"B 8 Queen E, Cambridge, ON N3C 2A6","postalcode":"N3C 2A6","website":"http://www.sentex.ca/~walker81/","working_hour":"","latitude":"43.431671","longitude":"-80.310206"},{"source":"yellow page","service_name":"Music Aid","category":"accordion teacher","phone":"519-433-3343","address":"311 Horton St E, London, ON N6B 1L5","postalcode":"N6B 1L5","website":"http://www.musicaid.com","working_hour":"Monday 9:00 am - 5:00 pm   Tuesday 9:00 am - 5:00 pm   Wednesday 9:00 am - 5:00 pm   Thursday 9:00 am - 5:00 pm   Friday 9:00 am - 5:00 pm","latitude":"42.980631","longitude":"-81.2411839"},{"source":"yellow page","service_name":"Maestro Music Academy","category":"accordion teacher","phone":"519-631-1530","address":"323 Talbot St, St Thomas, ON N5P 1B5","postalcode":"N5P 1B5","website":"http://www.maestromusic323.com","working_hour":"Monday 10:00 am - 9:00 pm   Tuesday 10:00 am - 9:00 pm   Wednesday 10:00 am - 9:00 pm   Thursday 10:00 am - 9:00 pm   Friday 10:00 am - 8:30 pm   Saturday 10:00 am - 5:30 pm   Please Call For Details","latitude":"42.779013","longitude":"-81.199034"},{"source":"yellow page","service_name":"Allan's Violins","category":"accordion teacher","phone":"5194717025","address":"266 Blackacres Blvd, London, ON N6G 2V1","postalcode":"N6G 2V1","website":"http://www.theharpnest.ca","working_hour":"","latitude":"43.012133","longitude":"-81.3119634"},{"source":"yellow page","service_name":"Picker's Alley","category":"accordion teacher","phone":"1-877-763-9325","address":"","postalcode":"","website":"http://www.pickersalley.com","working_hour":"Tuesday 10:00 am - 7:00 pm   Wednesday 10:00 am - 7:00 pm   Thursday 10:00 am - 7:00 pm   Friday 10:00 am - 7:00 pm   Saturday 10:00 am - 4:00 pm","latitude":"","longitude":""},{"source":"yellow page","service_name":"Picker's Alley","category":"accordion teacher","phone":"519-344-7740","address":"430 Exmouth St, Sarnia, ON N7T 5N9","postalcode":"N7T 5N9","website":"#","working_hour":"Monday 10:00 am - 5:30 pm   Tuesday 10:00 am - 5:30 pm   Wednesday 10:00 am - 5:30 pm   Thursday 10:00 am - 5:30 pm   Friday 10:00 am - 5:30 pm   Saturday 10:00 am - 4:00 pm","latitude":"42.985342","longitude":"-82.389251"},{"source":"yellow page","service_name":"van Goozen Music","category":"accordion teacher","phone":"519-344-2319","address":"115 Mitton St S, Sarnia, ON N7T 3C5","postalcode":"N7T 3C5","website":"#","working_hour":"Monday 9:00 am - 5:00 pm   Tuesday 9:00 am - 5:00 pm   Wednesday 9:00 am - 5:00 pm   Thursday 9:00 am - 5:00 pm   Friday 9:00 am - 5:00 pm   Please Call For Details","latitude":"42.97","longitude":"-82.398391"},{"source":"yellow page","service_name":"Wilson Sound","category":"accordion teacher","phone":"519-336-2458","address":"305 College Ave N, Sarnia, ON N7T 6B9","postalcode":"N7T 6B9","website":" ","working_hour":"","latitude":"42.977548","longitude":"-82.400475"},{"source":"yellow page","service_name":"Long & McQuade Music Ltd","category":"accordion teacher","phone":"5192581561","address":"1250 Tecumseh Rd E, Windsor, ON N8W 1B6","postalcode":"N8W 1B6","website":" ","working_hour":"","latitude":"42.300008","longitude":"-83.006597"},{"source":"yellow page","service_name":"Major Chord Music Store & Studio Ltd","category":"accordion teacher","phone":"519-322-0802","address":"1894 Talbot Rd, Ruthven, ON N0P 2G0","postalcode":"N0P 2G0","website":" ","working_hour":"","latitude":"42.0526077","longitude":"-82.6584108"},{"source":"yellow page","service_name":"Tecumseh Music Centre","category":"accordion teacher","phone":"519-979-8810","address":"2-13126 Tecumseh Rd E, Windsor, ON N8N 3T6","postalcode":"N8N 3T6","website":"http://www.tecumsehmusic.com","working_hour":"","latitude":"42.3121935","longitude":"-82.8732667"},{"source":"yellow page","service_name":"The Lesson Lounge Music Store","category":"accordion teacher","phone":"226-783-1902","address":"4-120 Erie St S, ON N8H 3B3","postalcode":"N8H 3B3","website":" ","working_hour":"","latitude":"42.04817","longitude":"-82.600109"},{"source":"yellow page","service_name":"Musicland","category":"accordion teacher","phone":"519-736-7128","address":"59 Richmond St, Amherstburg, ON N9V 1G1","postalcode":"N9V 1G1","website":" ","working_hour":"Monday 1:00 pm - 6:30 pm   Tuesday 1:00 pm - 6:30 pm   Wednesday 3:00 pm - 6:30 pm   Thursday 1:00 pm - 6:30 pm   Friday 1:00 pm - 6:30 pm   Saturday 9:00 am - 3:00 pm","latitude":"42.1026134","longitude":"-83.1119837"},{"source":"yellow page","service_name":"Jay Swatmans Lasalle Music Inc","category":"accordion teacher","phone":"519-972-5507","address":"B3-1775 Sprucewood Ave, Windsor, ON N9J 1X7","postalcode":"N9J 1X7","website":"http://www.lasallemusic.ca","working_hour":"Monday 11:00 am - 7:00 pm   Tuesday 11:00 am - 7:00 pm   Wednesday 11:00 am - 7:00 pm   Thursday 11:00 am - 7:00 pm   Friday 11:00 am - 7:00 pm   Saturday 10:00 am - 3:00 pm","latitude":"42.246726","longitude":"-83.062534"},{"source":"yellow page","service_name":"Rebel Cowboy Music","category":"accordion teacher","phone":"519-997-7777","address":"49 Main St E, Kingsville, ON N9Y 1A1","postalcode":"N9Y 1A1","website":" ","working_hour":"","latitude":"42.0379693","longitude":"-82.7377047"},{"source":"yellow page","service_name":"Long & McQuade Musical Instruments","category":"accordion teacher","phone":"519-252-3442","address":"1801 Walker Rd, Windsor, ON N8W 3P3","postalcode":"N8W 3P3","website":"#","working_hour":"","latitude":"42.304557","longitude":"-82.995923"},{"source":"yellow page","service_name":"Downtown Sound Again","category":"accordion teacher","phone":"519-246-1636","address":"29 Front St W, Strathroy, ON N7G 1X5","postalcode":"N7G 1X5","website":"http://dsound.webhop.net","working_hour":"Monday 9:00 am - 6:00 pm   Tuesday 9:00 am - 6:00 pm   Wednesday 9:00 am - 6:00 pm   Thursday 9:00 am - 6:00 pm   Friday 9:00 am - 6:00 pm   Saturday 9:00 am - 3:00 pm","latitude":"42.9581433","longitude":"-81.6250138"},{"source":"yellow page","service_name":"Education, Citizenship and Youth","category":"accordion teacher","phone":"9490048","address":"","postalcode":"","website":" ","working_hour":"","latitude":"","longitude":""},