{"table":[{"source":"yellow page","service_name":"Friend's Hair Design","category":"beauty salon","phone":"6134321585","address":"290B Veterans Memorial Dr, Renfrew, ON K7V 2R8","postalcode":"K7V 2R8","website":" ","working_hour":"","latitude":"45.46924","longitude":"-76.6699"},{"source":"yellow page","service_name":"Loxx Of Style","category":"beauty salon","phone":"613-622-0523","address":"109 John St N, Arnprior, ON K7S 2N5","postalcode":"K7S 2N5","website":" ","working_hour":"Monday 10:00 am - 7:00 pm   Tuesday 10:00 am - 7:00 pm   Wednesday 10:00 am - 7:00 pm   Thursday 10:00 am - 7:00 pm   Friday 10:00 am - 7:00 pm   Saturday 10:00 am - 6:00 pm","latitude":"45.433568","longitude":"-76.3542963"},{"source":"yellow page","service_name":"Serenity Spa and Medi-spa","category":"beauty salon","phone":"8196475403","address":"354 Main St, Shawville, QC J0X 2Y0","postalcode":"J0X 2Y0","website":" ","working_hour":"","latitude":"45.6038288","longitude":"-76.4919448"},{"source":"yellow page","service_name":"Cutz","category":"beauty salon","phone":"819-647-3331","address":"385 Main, Shawville, QC J0X 2Y0","postalcode":"J0X 2Y0","website":" ","working_hour":"Monday 10:00 am - 7:00 pm   Tuesday 10:00 am - 7:00 pm   Wednesday 10:00 am - 7:00 pm   Thursday 10:00 am - 7:00 pm   Friday 10:00 am - 7:00 pm   Saturday 10:00 am - 6:00 pm","latitude":"45.6042233","longitude":"-76.4929168"},{"source":"yellow page","service_name":"Studio Jenn","category":"beauty salon","phone":"819-647-3168","address":"372 Main, Shawville, QC J0X 2Y0","postalcode":"J0X 2Y0","website":" ","working_hour":"Monday 10:00 am - 7:00 pm   Tuesday 10:00 am - 7:00 pm   Wednesday 10:00 am - 7:00 pm   Thursday 10:00 am - 7:00 pm   Friday 10:00 am - 7:00 pm   Saturday 10:00 am - 6:00 pm","latitude":"45.603954","longitude":"-76.492255"},{"source":"yellow page","service_name":"First Choice Haircutters","category":"beauty salon","phone":"6136232878","address":"395 Daniel St S, Arnprior, ON K7S 3G9","postalcode":"K7S 3G9","website":" ","working_hour":"","latitude":"45.423722","longitude":"-76.369204"},{"source":"yellow page","service_name":"Heather's Style for Everyone","category":"beauty salon","phone":"613-433-3479","address":"40 Barnet Blvd, Renfrew, ON K7V 2M4","postalcode":"K7V 2M4","website":" ","working_hour":"Monday 9:00 am - 7:00 pm   Tuesday 9:00 am - 7:00 pm   Wednesday 9:00 am - 7:00 pm   Thursday 9:00 am - 7:00 pm   Friday 9:00 am - 7:00 pm","latitude":"45.462658","longitude":"-76.671171"},{"source":"yellow page","service_name":"Angles Coiffure","category":"beauty salon","phone":"819-647-5299","address":"305 G rue Main St, Shawville, QC J0X 2Y0","postalcode":"J0X 2Y0","website":" ","working_hour":"Monday 9:00 am - 7:00 pm   Tuesday 9:00 am - 7:00 pm   Wednesday 9:00 am - 7:00 pm   Thursday 9:00 am - 7:00 pm   Friday 9:00 am - 7:00 pm","latitude":"45.603161","longitude":"-76.489983"},{"source":"yellow page","service_name":"Clip & Snip Hair Design","category":"beauty salon","phone":"613-623-5568","address":"77 John St N, Arnprior, ON K7S 2N4","postalcode":"K7S 2N4","website":" ","working_hour":"Monday 10:00 am - 7:00 pm   Tuesday 10:00 am - 7:00 pm   Wednesday 10:00 am - 7:00 pm   Thursday 10:00 am - 7:00 pm   Friday 10:00 am - 7:00 pm   Saturday 10:00 am - 6:00 pm","latitude":"45.4329333","longitude":"-76.3550004"},{"source":"yellow page","service_name":"Cheryl's Hair 4 You","category":"beauty salon","phone":"613-622-5682","address":"105 Vancourtland St S, Arnprior, ON K7S 3Y4","postalcode":"K7S 3Y4","website":" ","working_hour":"","latitude":"45.434387","longitude":"-76.367278"},{"source":"yellow page","service_name":"New Beginnings Hair Design","category":"beauty salon","phone":"6136239467","address":"32 John St N, Arnprior, ON K7S 2N2","postalcode":"K7S 2N2","website":" ","working_hour":"Monday 10:00 am - 6:00 pm   Tuesday 10:00 am - 9:00 pm   Thursday 10:00 am - 9:00 pm   Friday 10:00 am - 6:00 pm   Saturday 8:00 am - 3:00 pm   Emergency appointments available","latitude":"45.431747","longitude":"-76.356779"},{"source":"yellow page","service_name":"Shadez Hair & Esthetic Studio","category":"beauty salon","phone":"6136237072","address":"45 Elgin St W, Arnprior, ON K7S 1N6","postalcode":"K7S 1N6","website":" ","working_hour":"Tuesday 9:00 am - 5:00 pm   Wednesday 9:00 am - 9:00 pm   Thursday 9:00 am - 9:00 pm   Friday 9:00 am - 5:00 pm   Saturday 9:00 am - 5:00 pm","latitude":"45.4335267","longitude":"-76.3545271"},{"source":"yellow page","service_name":"A'Head Of Style","category":"beauty salon","phone":"613-623-3987","address":"48 Madawaska St, Arnprior, ON K7S 1R9","postalcode":"K7S 1R9","website":" ","working_hour":"","latitude":"45.4349199","longitude":"-76.3537271"},{"source":"yellow page","service_name":"First Choice Haircutters","category":"beauty salon","phone":"6134339399","address":"2-910 O'Brien Rd, Renfrew, ON K7V 3Z4","postalcode":"K7V 3Z4","website":"http://firstchoice.com","working_hour":"","latitude":"45.479261","longitude":"-76.6516956"},{"source":"yellow page","service_name":"Studio ThirtyEight","category":"beauty salon","phone":"613-623-4907","address":"38 Melville Rd, Arnprior, ON K7S 3Z8","postalcode":"K7S 3Z8","website":" ","working_hour":"","latitude":"45.431242","longitude":"-76.346157"},{"source":"yellow page","service_name":"Hairzone","category":"beauty salon","phone":"613-622-7676","address":"110 River, Arnprior, ON K7S 1R4","postalcode":"K7S 1R4","website":" ","working_hour":"Monday 10:00 am - 7:00 pm   Tuesday 10:00 am - 7:00 pm   Wednesday 10:00 am - 7:00 pm   Thursday 10:00 am - 7:00 pm   Friday 10:00 am - 7:00 pm   Saturday 10:00 am - 6:00 pm","latitude":"45.449771","longitude":"-76.377268"},{"source":"yellow page","service_name":"Fashion Nails","category":"beauty salon","phone":"613-622-7938","address":"375 Daniel S, Arnprior, ON K7S 3K6","postalcode":"K7S 3K6","website":" ","working_hour":"Monday 10:00 am - 7:00 pm   Tuesday 10:00 am - 7:00 pm   Wednesday 10:00 am - 7:00 pm   Thursday 10:00 am - 7:00 pm   Friday 10:00 am - 7:00 pm   Saturday 10:00 am - 6:00 pm","latitude":"45.424736","longitude":"-76.366572"},{"source":"yellow page","service_name":"Lana's Nails & Bodypiercing","category":"beauty salon","phone":"6138973732","address":"136 John St N, Arnprior, ON K7S 2N6","postalcode":"K7S 2N6","website":" ","working_hour":"","latitude":"45.434201","longitude":"-76.353711"},{"source":"yellow page","service_name":"Studio 92 Unisex Haircare","category":"beauty salon","phone":"613-623-8300","address":"92 John St N, Arnprior, ON K7S 2N3","postalcode":"K7S 2N3","website":" ","working_hour":"","latitude":"45.4332275","longitude":"-76.354694"},{"source":"yellow page","service_name":"Chantilly Spa","category":"beauty salon","phone":"613-222-3681","address":"16 Edward St S, Arnprior, ON K7S 3W4","postalcode":"K7S 3W4","website":" ","working_hour":"24 hours a day - 7 days a week","latitude":"45.4347757","longitude":"-76.3616209"},{"source":"yellow page","service_name":"Salon Solstice","category":"beauty salon","phone":"6135242020","address":"4608 Ste-Catherine, St Isidore, ON K0C 2B0","postalcode":"K0C 2B0","website":"http://salon-solstice.com","working_hour":"Monday 9:00 am - 8:00 pm   Tuesday 9:00 am - 8:00 pm   Wednesday 9:00 am - 8:00 pm   Thursday 9:00 am - 8:00 pm   Friday 9:00 am - 7:00 pm   Saturday 9:00 am - 2:00 pm   Sunday 11:00 am - 2:00 pm","latitude":"45.388508","longitude":"-74.879222"},{"source":"yellow page","service_name":"Salon Haute Coiffure","category":"beauty salon","phone":"6135242092","address":"4508 Ste-Catherine, St Isidore, ON K0C 2B0","postalcode":"K0C 2B0","website":"http://www.hautecoiffureboston.com","working_hour":"","latitude":"45.388508","longitude":"-74.879222"},{"source":"yellow page","service_name":"Salon Agathe","category":"beauty salon","phone":"613-297-8987","address":"597 County Rd 9, Ottawa, ON K0B 1L0","postalcode":"K0B 1L0","website":" ","working_hour":"","latitude":"45.548419","longitude":"-75.0393"},{"source":"yellow page","service_name":"Studio Le Look","category":"beauty salon","phone":"613-679-1292","address":"400A St-Philippe, Alfred, ON K0B 1A0","postalcode":"K0B 1A0","website":" ","working_hour":"","latitude":"45.5579343","longitude":"-74.8826327"},{"source":"yellow page","service_name":"Salon pour Toi","category":"beauty salon","phone":"6135243725","address":"4023 County Road 3, St-Isidore, ON K0C 2B0","postalcode":"K0C 2B0","website":" ","working_hour":"Tuesday 9:00 am - 7:00 pm   Thursday 9:00 am - 7:00 pm   Friday 9:00 am - 4:00 pm   Saturday 8:00 am - 12:00 pm","latitude":"45.3856957","longitude":"-74.9160217"},{"source":"yellow page","service_name":"Tanya Beriault at Studio Diamond","category":"beauty salon","phone":"6137641333","address":"767 Principale St, Casselman, ON K0A 1M0","postalcode":"K0A 1M0","website":" ","working_hour":"","latitude":"45.3149051","longitude":"-75.0887159"},{"source":"yellow page","service_name":"Hilltop Hair Salon","category":"beauty salon","phone":"6136786002","address":"46 Main E, Vankleek Hill, ON K0B 1R0","postalcode":"K0B 1R0","website":" ","working_hour":"Monday 10:00 am - 7:00 pm   Tuesday 10:00 am - 7:00 pm   Wednesday 10:00 am - 7:00 pm   Thursday 10:00 am - 7:00 pm   Friday 10:00 am - 7:00 pm   Saturday 10:00 am - 6:00 pm","latitude":"45.5193068","longitude":"-74.6509838"},{"source":"yellow page","service_name":"Salon Emeraude","category":"beauty salon","phone":"613-524-2296","address":"4593 Ste-Catherine St, St Isidore, ON K0C 2B0","postalcode":"K0C 2B0","website":" ","working_hour":"Monday 9:00 am - 7:00 pm   Tuesday 9:00 am - 7:00 pm   Wednesday 9:00 am - 7:00 pm   Thursday 9:00 am - 7:00 pm   Friday 9:00 am - 7:00 pm","latitude":"45.382394","longitude":"-74.903605"},{"source":"yellow page","service_name":"Above & Beyond Medi-Wellness And BeautySpa","category":"beauty salon","phone":"613-764-3456","address":"683 Principale, Casselman, ON K0A 1M0","postalcode":"K0A 1M0","website":" ","working_hour":"","latitude":"45.322542","longitude":"-75.11165"},{"source":"yellow page","service_name":"Salon Dany","category":"beauty salon","phone":"819-427-6635","address":"283 Car Ste-Angélique, Papineauville, QC J0V 1R0","postalcode":"J0V 1R0","website":" ","working_hour":"","latitude":"45.6166123","longitude":"-75.0185784"},{"source":"yellow page","service_name":"Salon De Coiffure Bella","category":"beauty salon","phone":"613-487-9609","address":"3834 ch Champlain, Bourget, ON K0A 1E0","postalcode":"K0A 1E0","website":" ","working_hour":"Monday 10:00 am - 7:00 pm   Tuesday 10:00 am - 7:00 pm   Wednesday 10:00 am - 7:00 pm   Thursday 10:00 am - 7:00 pm   Friday 10:00 am - 7:00 pm   Saturday 10:00 am - 6:00 pm","latitude":"45.462913","longitude":"-75.164286"},{"source":"yellow page","service_name":"Salon Zaphiro Unisex","category":"beauty salon","phone":"613-524-3003","address":"4593 Ste-Catherine, St Isidore, ON K0C 2B0","postalcode":"K0C 2B0","website":" ","working_hour":"","latitude":"45.388508","longitude":"-74.879222"},{"source":"yellow page","service_name":"Salon Creation Chantal","category":"beauty salon","phone":"6136794323","address":"475 St-Philippe, Alfred, ON K0B 1A0","postalcode":"K0B 1A0","website":" ","working_hour":"Monday 10:00 am - 7:00 pm   Tuesday 10:00 am - 7:00 pm   Wednesday 10:00 am - 7:00 pm   Thursday 10:00 am - 7:00 pm   Friday 10:00 am - 7:00 pm   Saturday 10:00 am - 6:00 pm","latitude":"45.5571626","longitude":"-74.8852964"},{"source":"yellow page","service_name":"Salon Joanne","category":"beauty salon","phone":"613-487-3488","address":"11 Maisonneuve, Bourget, ON K0A 1E0","postalcode":"K0A 1E0","website":" ","working_hour":"Monday 10:00 am - 7:00 pm   Tuesday 10:00 am - 7:00 pm   Wednesday 10:00 am - 7:00 pm   Thursday 10:00 am - 7:00 pm   Friday 10:00 am - 7:00 pm   Saturday 10:00 am - 6:00 pm","latitude":"45.4354017","longitude":"-75.1605701"},{"source":"yellow page","service_name":"Salon Andrée-France","category":"beauty salon","phone":"613-764-0440","address":"741 Principale, Casselman, ON K0A 1M0","postalcode":"K0A 1M0","website":" ","working_hour":"Monday 10:00 am - 7:00 pm   Tuesday 10:00 am - 7:00 pm   Wednesday 10:00 am - 7:00 pm   Thursday 10:00 am - 7:00 pm   Friday 10:00 am - 7:00 pm   Saturday 10:00 am - 6:00 pm","latitude":"45.3138158","longitude":"-75.0875268"},{"source":"yellow page","service_name":"Salon Attraction Esthétique","category":"beauty salon","phone":"613-443-3400","address":"2107 Route 700 W, St Albert, ON K0A 3C0","postalcode":"K0A 3C0","website":" ","working_hour":"","latitude":"45.2665996","longitude":"-75.1983541"},{"source":"yellow page","service_name":"Esthétique Électrolyse l'Excellence","category":"beauty salon","phone":"613-675-0448","address":"1053 B Rue King, L'Orignal, K0B 1K0","postalcode":"K0B 1K0","website":" ","working_hour":"Monday 8:00 am - 8:00 pm   Tuesday 8:00 am - 8:00 pm   Wednesday 8:00 am - 8:00 pm   Thursday 8:00 am - 8:00 pm   Friday 8:00 am - 8:00 pm   Appointment Only","latitude":"45.590043","longitude":"-74.801821"},{"source":"yellow page","service_name":"Bay Street Salon & Spa","category":"beauty salon","phone":"6134437700","address":"170 Bay St RR 3, Embrun, ON K0A 1W1","postalcode":"K0A 1W1","website":"http://www.baystreetsalonandspa.ca","working_hour":"","latitude":"45.2690953","longitude":"-75.3055318"},{"source":"yellow page","service_name":"Tesoro Professional Hair & Esthetic","category":"beauty salon","phone":"613-443-2472","address":"975 Notre Dame, Embrun, ON K0A 1W0","postalcode":"K0A 1W0","website":" ","working_hour":"Monday 10:00 am - 7:00 pm   Tuesday 10:00 am - 7:00 pm   Wednesday 10:00 am - 7:00 pm   Thursday 10:00 am - 7:00 pm   Friday 10:00 am - 7:00 pm   Saturday 10:00 am - 6:00 pm","latitude":"45.2722923","longitude":"-75.2808676"},{"source":"yellow page","service_name":"Tammy's Hair And Tanning Studio","category":"beauty salon","phone":"6134483674","address":"7 Industrial Dr, Chesterville, ON K0C 1H0","postalcode":"K0C 1H0","website":" ","working_hour":"","latitude":"45.1021761","longitude":"-75.2383191"},{"source":"yellow page","service_name":"Main Street Syling Saloon","category":"beauty salon","phone":"613-774-4419","address":"574 Winchester Main, Winchester, ON K0C 2K0","postalcode":"K0C 2K0","website":" ","working_hour":"Monday 10:00 am - 7:00 pm   Tuesday 10:00 am - 7:00 pm   Wednesday 10:00 am - 7:00 pm   Thursday 10:00 am - 7:00 pm   Friday 10:00 am - 7:00 pm   Saturday 10:00 am - 6:00 pm","latitude":"45.071436","longitude":"-75.310447"},{"source":"yellow page","service_name":"Salon Le Ciseau D'Or","category":"beauty salon","phone":"6134432230","address":"10 Dignard St RR 3, Embrun, ON K0A 1W1","postalcode":"K0A 1W1","website":" ","working_hour":"Tuesday 9:00 am - 8:00 pm   Wednesday 9:00 am - 8:00 pm   Thursday 9:00 am - 8:00 pm   Friday 9:00 am - 6:00 pm   Saturday 8:00 am - 12:00 pm","latitude":"45.2721144","longitude":"-75.2923807"},{"source":"yellow page","service_name":"First Choice Haircutters","category":"beauty salon","phone":"6134439472","address":"767 Notre Dame St, Embrun, ON K0A 1W1","postalcode":"K0A 1W1","website":" ","working_hour":"","latitude":"45.2674491","longitude":"-75.3016779"},{"source":"yellow page","service_name":"Double Beauty Esthetics & Hairstyling","category":"beauty salon","phone":"6137743111","address":"464 1/2 Main E, Winchester, ON K0C 2K0","postalcode":"K0C 2K0","website":" ","working_hour":"Tuesday 9:30 am - 5:00 pm   Wednesday 9:30 am - 5:00 pm   Thursday 9:30 am - 5:00 pm   Friday 9:30 am - 5:00 pm   Saturday 8:00 am - 1:30 pm","latitude":"45.071436","longitude":"-75.310447"},{"source":"yellow page","service_name":"Casselman Hair Salon","category":"beauty salon","phone":"613-764-1062","address":"751 Principale, Casselman, ON K0A 1M0","postalcode":"K0A 1M0","website":" ","working_hour":"Monday 10:00 am - 7:00 pm   Tuesday 10:00 am - 7:00 pm   Wednesday 10:00 am - 7:00 pm   Thursday 10:00 am - 7:00 pm   Friday 10:00 am - 7:00 pm   Saturday 10:00 am - 6:00 pm","latitude":"45.3142031","longitude":"-75.0879473"},{"source":"yellow page","service_name":"Clinique Beauté Santé L'Optimum","category":"beauty salon","phone":"6136790108","address":"39 Larocque, Alfred, ON K0B 1A0","postalcode":"K0B 1A0","website":" ","working_hour":"Monday 9:00 am - 2:00 pm   Tuesday 9:00 am - 8:00 pm   Wednesday 9:00 am - 4:00 pm   Thursday 9:00 am - 8:00 pm   Friday 9:00 am - 2:00 pm   Appointment Only","latitude":"45.608845","longitude":"-74.801391"},{"source":"yellow page","service_name":"Brian's Place","category":"beauty salon","phone":"613-678-2135","address":"34 Jay, Vankleek Hill, ON K0B 1R0","postalcode":"K0B 1R0","website":" ","working_hour":"Monday 10:00 am - 7:00 pm   Tuesday 10:00 am - 7:00 pm   Wednesday 10:00 am - 7:00 pm   Thursday 10:00 am - 7:00 pm   Friday 10:00 am - 7:00 pm   Saturday 10:00 am - 6:00 pm","latitude":"45.5175085","longitude":"-74.6463707"},{"source":"yellow page","service_name":"Velvet Skin Laser","category":"beauty salon","phone":"613-443-0958","address":"793 Notre Dame, Embrun, ON K0A 1W1","postalcode":"K0A 1W1","website":"http://velvetskin.ca","working_hour":"","latitude":"45.2675295","longitude":"-75.3000645"},{"source":"yellow page","service_name":"Extension de cils","category":"beauty salon","phone":"6134430994","address":"31 rue Daze, Embrun, ON K0A 1W0","postalcode":"K0A 1W0","website":" ","working_hour":"","latitude":"45.2794363","longitude":"-75.276592"},{"source":"yellow page","service_name":"Studio Lux","category":"beauty salon","phone":"613-487-1919","address":"900 Colette St, Bourget, ON K0A 1E0","postalcode":"K0A 1E0","website":" ","working_hour":"Monday 9:00 am - 5:00 pm   Tuesday 9:00 am - 5:00 pm   Wednesday 9:00 am - 5:00 pm   Thursday 9:00 am - 5:00 pm   Friday 9:00 am - 5:00 pm","latitude":"45.4406791","longitude":"-75.1774253"},{"source":"yellow page","service_name":"Cut & Go Barber Shop Men's & Ladies","category":"beauty salon","phone":"613-443-3579","address":"1200 St-Augustin, Embrun, ON K0A 1W1","postalcode":"K0A 1W1","website":" ","working_hour":"Monday 10:00 am - 7:00 pm   Tuesday 10:00 am - 7:00 pm   Wednesday 10:00 am - 7:00 pm   Thursday 10:00 am - 7:00 pm   Friday 10:00 am - 7:00 pm   Saturday 10:00 am - 6:00 pm","latitude":"45.2865547","longitude":"-75.2817621"},{"source":"yellow page","service_name":"Coiffure Annick Hairstyling","category":"beauty salon","phone":"613-448-3096","address":"767 rue Notre Dame RR 3, Embrun, ON K0A 1W1","postalcode":"K0A 1W1","website":"http://ottawabeautysalondirectory.com","working_hour":"","latitude":"45.2674491","longitude":"-75.3016779"},{"source":"yellow page","service_name":"The Hair Den","category":"beauty salon","phone":"613-445-3336","address":"91 Rue Mill, Russell, ON K4R 1E1","postalcode":"K4R 1E1","website":"http://thehairden.salonpages.ca","working_hour":"","latitude":"45.2567535","longitude":"-75.357716"},{"source":"yellow page","service_name":"Salon de Coiffure Genie","category":"beauty salon","phone":"613-443-2936","address":"940 Notre Dame, Embrun, ON K0A 1W0","postalcode":"K0A 1W0","website":"http://ottawabeautysalondirectory.com","working_hour":"","latitude":"45.2716865","longitude":"-75.284068"},{"source":"yellow page","service_name":"Chez Suzanne Hair Fashions","category":"beauty salon","phone":"613-445-1119","address":"12 2nd Ave, Russell, ON K4R 1E2","postalcode":"K4R 1E2","website":" ","working_hour":"","latitude":"45.2591916","longitude":"-75.3572827"},{"source":"yellow page","service_name":"The Country Stylist","category":"beauty salon","phone":"613-989-2697","address":"2435 Development Rd, Mountain, ON K0E 1S0","postalcode":"K0E 1S0","website":" ","working_hour":"Monday 9:00 am - 8:00 pm   Wednesday 9:00 am - 8:00 pm   Thursday 9:00 am - 8:00 pm   Friday 9:00 am - 5:00 pm","latitude":"45.037287","longitude":"-75.444029"},{"source":"yellow page","service_name":"Unik Hair Studio","category":"beauty salon","phone":"6134452664","address":"182 Castor St, Russell, ON K4R 1C7","postalcode":"K4R 1C7","website":" ","working_hour":"","latitude":"45.2567655","longitude":"-75.3604114"},{"source":"yellow page","service_name":"Sharon's Beauty Salon","category":"beauty salon","phone":"613-538-2248","address":"16325 County Rd 9, Moose Creek, ON K0C 1W0","postalcode":"K0C 1W0","website":" ","working_hour":"","latitude":"45.216702","longitude":"-75.0210812"},{"source":"yellow page","service_name":"B & C Hair Add-Ons","category":"beauty salon","phone":"6134435953","address":"54 Dignard St RR 3, Embrun, ON K0A 1W1","postalcode":"K0A 1W1","website":" ","working_hour":"","latitude":"45.272085","longitude":"-75.2907849"},{"source":"yellow page","service_name":"Wendy's Country Hair Salon","category":"beauty salon","phone":"613-774-4280","address":"561 Main St, North Dundas, ON","postalcode":"","website":" ","working_hour":"","latitude":"45.0909865","longitude":"-75.3594411"},{"source":"yellow page","service_name":"Pat's Hair Studio","category":"beauty salon","phone":"6139249273","address":"2 Main W, Athens, ON K0E 1B0","postalcode":"K0E 1B0","website":" ","working_hour":"Tuesday 9:00 am - 5:00 pm   Wednesday 9:00 am - 5:00 pm   Thursday 9:00 am - 5:00 pm   Friday 9:00 am - 5:00 pm   Saturday 9:00 am - 1:00 pm","latitude":"44.616589","longitude":"-75.9532"},{"source":"yellow page","service_name":"Hair Facts Salon","category":"beauty salon","phone":"613-382-2280","address":"495 King St E, Gananoque, ON K7G 1G9","postalcode":"K7G 1G9","website":" ","working_hour":"Monday 9:00 am - 5:00 pm   Tuesday 1:00 pm - 9:00 pm   Wednesday 9:00 am - 5:00 pm   Thursday 1:00 pm - 9:00 pm   Friday 9:00 am - 5:00 pm","latitude":"44.334445","longitude":"-76.154898"},{"source":"yellow page","service_name":"Silk Salon & Esthetics","category":"beauty salon","phone":"613-382-3827","address":"174 King St E, Gananoque, ON K7G 1G2","postalcode":"K7G 1G2","website":"http://ontariotownsdirectory.com","working_hour":"Monday 10:00 am - 7:00 pm   Tuesday 10:00 am - 7:00 pm   Wednesday 10:00 am - 7:00 pm   Thursday 10:00 am - 7:00 pm   Friday 10:00 am - 7:00 pm   Saturday 10:00 am - 6:00 pm","latitude":"44.3304725","longitude":"-76.1611257"},{"source":"yellow page","service_name":"Cutz & Styz","category":"beauty salon","phone":"613-498-0145","address":"15B Buell St, Brockville, ON K6V 4X9","postalcode":"K6V 4X9","website":" ","working_hour":"","latitude":"44.589025","longitude":"-75.686403"},{"source":"yellow page","service_name":"Absolutely Hair & Spa","category":"beauty salon","phone":"613-382-1142","address":"123 King St E, Gananoque, ON K7G 1G3","postalcode":"K7G 1G3","website":" ","working_hour":"","latitude":"44.3298917","longitude":"-76.1620162"},{"source":"yellow page","service_name":"First Choice Haircutters","category":"beauty salon","phone":"6133422500","address":"329 Stewart Blvd, Brockville, ON K6V 4W8","postalcode":"K6V 4W8","website":"http://www.firstchoice.com","working_hour":"","latitude":"44.6006579","longitude":"-75.70451"},{"source":"yellow page","service_name":"Town & Country Beauty Salon","category":"beauty salon","phone":"613-342-0348","address":"28 Perth St, Brockville, ON K6V 5C2","postalcode":"K6V 5C2","website":" ","working_hour":"","latitude":"44.587959","longitude":"-75.689954"},{"source":"yellow page","service_name":"Artistic Hair Gallery","category":"beauty salon","phone":"6133423798","address":"47 Broad St, Brockville, ON K6V 4T9","postalcode":"K6V 4T9","website":" ","working_hour":"Monday 9:00 am - 5:00 pm   Tuesday 1:00 pm - 8:00 pm   Wednesday 9:00 am - 5:00 pm   Thursday 9:00 am - 8:00 pm   Friday 9:00 am - 5:00 pm   Saturday 9:00 am - 2:00 pm","latitude":"44.5890267","longitude":"-75.6836534"},{"source":"yellow page","service_name":"Esthetic Treatment Centre","category":"beauty salon","phone":"613-345-5017","address":"17 Halliday St, Brockville, ON K6V 3N8","postalcode":"K6V 3N8","website":" ","working_hour":"Monday 10:00 am - 7:00 pm   Tuesday 10:00 am - 7:00 pm   Wednesday 10:00 am - 7:00 pm   Thursday 10:00 am - 7:00 pm   Friday 10:00 am - 7:00 pm   Saturday 10:00 am - 6:00 pm","latitude":"44.587107","longitude":"-75.6868808"},{"source":"yellow page","service_name":"First Choice Haircutters","category":"beauty salon","phone":"6133821635","address":"711 King E, Gananoque, ON K7G 1H4","postalcode":"K7G 1H4","website":" ","working_hour":"","latitude":"44.3382533","longitude":"-76.1487427"},{"source":"yellow page","service_name":"Pat's Country Salon","category":"beauty salon","phone":"613-342-4543","address":"4078 Hwy 29, Brockville, ON K6V 5T4","postalcode":"K6V 5T4","website":" ","working_hour":"Monday 10:00 am - 7:00 pm   Tuesday 10:00 am - 7:00 pm   Wednesday 10:00 am - 7:00 pm   Thursday 10:00 am - 7:00 pm   Friday 10:00 am - 7:00 pm   Saturday 10:00 am - 6:00 pm","latitude":"44.6241775","longitude":"-75.7743921"},{"source":"yellow page","service_name":"Corner Stone Stylists","category":"beauty salon","phone":"6133827736","address":"117 King St E, Gananoque, ON K7G 1G3","postalcode":"K7G 1G3","website":" ","working_hour":"Monday 8:00 am - 6:30 pm   Tuesday 8:00 am - 6:30 pm   Wednesday 8:00 am - 6:30 pm   Thursday 8:00 am - 6:30 pm   Friday 8:00 am - 6:30 pm   Saturday 8:00 am - 4:00 pm","latitude":"44.3298263","longitude":"-76.1621208"},{"source":"yellow page","service_name":"Lion's Den Hairstyling","category":"beauty salon","phone":"6136594000","address":"1081 Prince St, Leeds and the Thousand Islands, ON","postalcode":"","website":" ","working_hour":"","latitude":"44.4041056","longitude":"-76.0180704"},{"source":"yellow page","service_name":"Lisa's Place Family Hair Care","category":"beauty salon","phone":"613-923-1705","address":"4 Quabbin, Mallorytown, ON K0E 1R0","postalcode":"K0E 1R0","website":" ","working_hour":"Monday 10:00 am - 7:00 pm   Tuesday 10:00 am - 7:00 pm   Wednesday 10:00 am - 7:00 pm   Thursday 10:00 am - 7:00 pm   Friday 10:00 am - 7:00 pm   Saturday 10:00 am - 6:00 pm","latitude":"44.4435378","longitude":"-75.9821227"},{"source":"yellow page","service_name":"Total Image Family Hair Care Aesthetics & Tanning","category":"beauty salon","phone":"613-342-2442","address":"7-7712 Kent Blvd, Brockville, ON K6V 7H6","postalcode":"K6V 7H6","website":" ","working_hour":"","latitude":"44.5996205","longitude":"-75.7065822"},{"source":"yellow page","service_name":"Dad's Barbershop","category":"beauty salon","phone":"613-345-7301","address":"4502 Debruge Rd, Elizabethtown, ON K6T 1A2","postalcode":"K6T 1A2","website":" ","working_hour":"","latitude":"44.621883","longitude":"-75.766775"},{"source":"yellow page","service_name":"Tory Deschamps Hair Studio","category":"beauty salon","phone":"613-345-8679","address":"158 Perth St, Brockville, ON K6V 5E5","postalcode":"K6V 5E5","website":" ","working_hour":"Monday 12:00 pm - 8:00 pm   Tuesday 8:00 am - 8:00 pm   Wednesday 8:00 am - 8:00 pm   Thursday 8:00 am - 6:30 pm   Friday 8:00 am - 7:00 pm   Saturday 8:00 am - 2:00 pm","latitude":"44.592444","longitude":"-75.693688"},{"source":"yellow page","service_name":"Genev Beauty Lounge","category":"beauty salon","phone":"6133425808","address":"106 King St W, Brockville, ON K6V 3P9","postalcode":"K6V 3P9","website":" ","working_hour":"Monday 10:00 am - 4:00 pm   Tuesday 9:00 am - 5:00 pm   Wednesday 9:00 am - 5:00 pm   Thursday 9:00 am - 5:00 pm   Friday 9:00 am - 5:00 pm   Saturday 9:00 am - 4:00 pm   Sunday 12:00 pm - 4:00 pm   Open Later Upon Request","latitude":"44.588837","longitude":"-75.68553"},{"source":"yellow page","service_name":"Flair FX Hair Studio","category":"beauty salon","phone":"613-345-3524","address":"221 King St W, Brockville, ON K6V 3R7","postalcode":"K6V 3R7","website":"http://flairfx.com","working_hour":"Tuesday 9:00 am - 5:00 pm   Wednesday 9:00 am - 5:00 pm   Thursday 9:00 am - 7:00 pm   Friday 9:00 am - 5:00 pm   Saturday 9:00 am - 1:00 pm","latitude":"44.5871921","longitude":"-75.6887503"},{"source":"yellow page","service_name":"Hunt Melanie","category":"beauty salon","phone":"613-342-9792","address":"6201 Graham Lake Rd, Brockville, ON K6V 5T4","postalcode":"K6V 5T4","website":" ","working_hour":"","latitude":"44.602622","longitude":"-75.728561"},{"source":"yellow page","service_name":"Fresh Hair","category":"beauty salon","phone":"613-376-3562","address":"4423 George, Sydenham, ON K0H 2T0","postalcode":"K0H 2T0","website":" ","working_hour":"Monday 12:00 pm - 8:00 pm   Tuesday 8:00 am - 8:00 pm   Wednesday 8:00 am - 8:00 pm   Thursday 12:00 pm - 8:00 pm   Friday 8:00 am - 8:00 pm   Saturday 8:00 am - 5:00 pm","latitude":"44.4117921","longitude":"-76.5956566"},{"source":"yellow page","service_name":"Countrystyle Hair","category":"beauty salon","phone":"613-387-2000","address":"106 Drynan Way, Seeleys Bay, ON K0H 2N0","postalcode":"K0H 2N0","website":"http://seeleysbaychiropractic.ca","working_hour":"Tuesday 9:00 am - 6:00 pm   Wednesday 9:00 am - 6:00 pm   Thursday 12:00 pm - 9:00 pm   Friday 9:00 am - 6:00 pm   Saturday 9:00 am - 5:00 pm","latitude":"44.4738336","longitude":"-76.2386229"},{"source":"yellow page","service_name":"Clip It Hair Salon","category":"beauty salon","phone":"6132792802","address":"1045-1045 Village Woods Dr, Sharbot Lake, ON K0H 2P0","postalcode":"K0H 2P0","website":"http://www.cliphairsalon.ca/","working_hour":"Tuesday 9:00 am - 5:00 pm   Wednesday 9:00 am - 5:00 pm   Thursday 9:00 am - 5:00 pm   Friday 9:00 am - 5:00 pm   Saturday 9:00 am - 5:00 pm   Sunday 9:00 am - 5:00 pm","latitude":"44.790496","longitude":"-76.680137"},{"source":"yellow page","service_name":"E-Clips","category":"beauty salon","phone":"613-376-3635","address":"4397 George St, Sydenham, ON K0H 2T0","postalcode":"K0H 2T0","website":"http://myeclips.ca","working_hour":"","latitude":"44.4115867","longitude":"-76.5958943"},{"source":"yellow page","service_name":"Blaney Salon","category":"beauty salon","phone":"6135493369","address":"180 Montreal St, Kingston, ON K7K 3G4","postalcode":"K7K 3G4","website":" ","working_hour":"Monday 10:00 am - 7:00 pm   Tuesday 10:00 am - 7:00 pm   Wednesday 10:00 am - 7:00 pm   Thursday 10:00 am - 7:00 pm   Friday 10:00 am - 7:00 pm   Saturday 10:00 am - 6:00 pm","latitude":"44.237091","longitude":"-76.485117"},{"source":"yellow page","service_name":"Kris' Hair Port Unisex Salon","category":"beauty salon","phone":"613-374-2579","address":"1281 Oak Flats, Verona, ON K0H 1T0","postalcode":"K0H 1T0","website":" ","working_hour":"","latitude":"44.554456","longitude":"-76.622985"},{"source":"yellow page","service_name":"First Choice Haircutters","category":"beauty salon","phone":"6135446438","address":"900 Montreal St, Kingston, ON K7K 2P9","postalcode":"K7K 2P9","website":" ","working_hour":"","latitude":"44.256553","longitude":"-76.483023"},{"source":"yellow page","service_name":"Mane Attraction","category":"beauty salon","phone":"613-273-7376","address":"Westport, ON K0G 1X0","postalcode":"K0G 1X0","website":" ","working_hour":"Monday 8:30 am - 6:00 pm   Thursday 8:30 am - 6:00 pm   Friday 8:30 am - 6:00 pm   Saturday 8:30 am - 12:00 pm","latitude":"44.571678","longitude":"-76.425403"},{"source":"yellow page","service_name":"Hair & Beyond Salon","category":"beauty salon","phone":"613-374-1333","address":"6168 Revell, Verona, ON K0H 2W0","postalcode":"K0H 2W0","website":" ","working_hour":"Monday 10:00 am - 7:00 pm   Tuesday 10:00 am - 7:00 pm   Wednesday 10:00 am - 7:00 pm   Thursday 10:00 am - 7:00 pm   Friday 10:00 am - 7:00 pm   Saturday 10:00 am - 6:00 pm","latitude":"44.4854464","longitude":"-76.6963265"},{"source":"yellow page","service_name":"Dolce Bella Spa","category":"beauty salon","phone":"6135441166","address":"8 Cataraqui St, Kingston, ON K7K 1Z7","postalcode":"K7K 1Z7","website":"http://www.dolcebellaspa.com","working_hour":"Tuesday 9:00 am - 5:00 pm   Wednesday 9:00 am - 6:00 pm   Thursday 9:00 am - 8:00 pm   Friday 9:00 am - 6:00 pm   Saturday 9:00 am - 5:00 am","latitude":"44.242117","longitude":"-76.481429"},{"source":"yellow page","service_name":"Cannex Barber Shop","category":"beauty salon","phone":"613-546-6820","address":"29 Niagara Park Dr, Kingston, ON K7K 7B4","postalcode":"K7K 7B4","website":" ","working_hour":"","latitude":"44.2398552","longitude":"-76.4552888"},{"source":"yellow page","service_name":"Ozzie's Hair Design Salon","category":"beauty salon","phone":"613-549-6147","address":"109 Jean Worrell Cres, Kingston, ON K7K 6T5","postalcode":"K7K 6T5","website":" ","working_hour":"Monday 9:00 am - 7:00 pm   Tuesday 9:00 am - 7:00 pm   Wednesday 9:00 am - 7:00 pm   Thursday 9:00 am - 7:00 pm   Friday 9:00 am - 7:00 pm","latitude":"44.2653286","longitude":"-76.4847401"},{"source":"yellow page","service_name":"Harmony Garden Day Spa","category":"beauty salon","phone":"613-484-2170","address":"4679 Rosedale Rd, Sydenham, ON K0H 2T0","postalcode":"K0H 2T0","website":"http://www.harmonygardendayspa.com","working_hour":"","latitude":"44.4238082","longitude":"-76.590274"},{"source":"yellow page","service_name":"Hair-I-Go","category":"beauty salon","phone":"6135497286","address":"141 McMichael St, Kingston, ON K7M 1N1","postalcode":"K7M 1N1","website":"http://haircarekingston.com","working_hour":"Tuesday 9:00 am - 4:00 pm   Wednesday 9:00 am - 4:00 pm   Thursday 9:00 am - 4:00 pm   Friday 9:00 am - 4:00 pm   Saturday 9:00 am - 12:00 pm","latitude":"44.252481","longitude":"-76.525532"},{"source":"yellow page","service_name":"Luce Hair Studio-East","category":"beauty salon","phone":"6135314697","address":"235 Gore Rd, Kingston, ON K7L 5H6","postalcode":"K7L 5H6","website":" ","working_hour":"Monday 10:00 am - 7:00 pm   Tuesday 10:00 am - 7:00 pm   Wednesday 10:00 am - 7:00 pm   Thursday 10:00 am - 7:00 pm   Friday 10:00 am - 7:00 pm   Saturday 10:00 am - 6:00 pm","latitude":"44.259541","longitude":"-76.45601"},{"source":"yellow page","service_name":"Eikon Device Inc","category":"beauty salon","phone":"613-384-4588","address":"689 Innovation Dr, Kingston, ON K7K 7E6","postalcode":"K7K 7E6","website":" ","working_hour":"","latitude":"44.2719021","longitude":"-76.4418372"},{"source":"yellow page","service_name":"Lorna's Cut'N Curl","category":"beauty salon","phone":"6132674618","address":"77 Foster St, Perth, ON K7H 1R9","postalcode":"K7H 1R9","website":" ","working_hour":"Monday 9:00 am - 5:00 pm   Tuesday 9:00 am - 5:30 pm   Wednesday 9:00 am - 5:30 pm   Thursday 9:00 am - 7:00 pm   Friday 9:00 am - 5:30 pm   Saturday 8:00 am - 1:00 pm","latitude":"44.900564","longitude":"-76.252375"},{"source":"yellow page","service_name":"La Bella Vita","category":"beauty salon","phone":"613-417-1252","address":"285 Montreal St, Kingston, ON K7K 3G9","postalcode":"K7K 3G9","website":"https://www.facebook.com/285montrealstreet.ca/","working_hour":"","latitude":"44.239632","longitude":"-76.486128"},{"source":"yellow page","service_name":"Advanced Therapeutic Skin Care Centre DivModernElectrolysis Inc","category":"beauty salon","phone":"6139000339","address":"308 Wellington St., Kingston, ON K7K 7A8","postalcode":"K7K 7A8","website":"http://www.advancedtherapeuticskincarecentre.com","working_hour":"Tuesday 11:30 am - 4:30 pm   Wednesday 9:00 am - 6:00 pm   Thursday 10:00 am - 6:00 pm   Friday 9:00 am - 7:00 pm   Saturday 10:00 am - 3:00 pm","latitude":"44.2350172","longitude":"-76.4813415"},{"source":"yellow page","service_name":"First Choice Haircutters","category":"beauty salon","phone":"6135312632","address":"472 Division St, Kingston, ON K7K 4B1","postalcode":"K7K 4B1","website":" ","working_hour":"","latitude":"44.242223","longitude":"-76.495613"},{"source":"yellow page","service_name":"Gypsies Hair Design","category":"beauty salon","phone":"613-530-2919","address":"321 Grandtrunk Ave E, Kingston, ON K7M 9E2","postalcode":"K7M 9E2","website":" ","working_hour":"Monday 10:00 am - 7:00 pm   Tuesday 10:00 am - 7:00 pm   Wednesday 10:00 am - 7:00 pm   Thursday 10:00 am - 7:00 pm   Friday 10:00 am - 7:00 pm   Saturday 10:00 am - 6:00 pm","latitude":"44.254817","longitude":"-76.546496"},{"source":"yellow page","service_name":"In Harmony Salon and Spa","category":"beauty salon","phone":"6133840022","address":"1135 Clyde Crt, Kingston, ON K7P 2E4","postalcode":"K7P 2E4","website":" ","working_hour":"Monday 8:00 am - 7:00 pm   Tuesday 8:00 am - 7:00 pm   Wednesday 8:00 am - 7:00 pm   Thursday 8:00 am - 7:00 pm   Friday 8:00 am - 5:00 pm","latitude":"44.266043","longitude":"-76.562933"},{"source":"yellow page","service_name":"Hot Stone Gallery & Aesthetics","category":"beauty salon","phone":"6135450505","address":"1283 Princess St, Kingston, ON K7M 3E1","postalcode":"K7M 3E1","website":" ","working_hour":"","latitude":"44.247753","longitude":"-76.525622"},{"source":"yellow page","service_name":"Silhouette","category":"beauty salon","phone":"613-544-1977","address":"477 MacDonnell St, Kingston, ON K7K 4W5","postalcode":"K7K 4W5","website":" ","working_hour":"Monday 10:00 am - 7:00 pm   Tuesday 10:00 am - 7:00 pm   Wednesday 10:00 am - 7:00 pm   Thursday 10:00 am - 7:00 pm   Friday 10:00 am - 7:00 pm   Saturday 10:00 am - 6:00 pm","latitude":"44.239275","longitude":"-76.505705"},{"source":"yellow page","service_name":"Chatters Salon","category":"beauty salon","phone":"613-389-1088","address":"945 Gardiners Rd","postalcode":"","website":" ","working_hour":"","latitude":"44.256425","longitude":"-76.568771"},{"source":"yellow page","service_name":"First Choice Haircutters","category":"beauty salon","phone":"6136343396","address":"2555 Princess St, Kingston, ON K7P 2W8","postalcode":"K7P 2W8","website":" ","working_hour":"","latitude":"44.258028","longitude":"-76.569798"},{"source":"yellow page","service_name":"Christine Dufault Cosmetics","category":"beauty salon","phone":"6133899608","address":"945 Gardiners Rd, Kingston, ON K7M 7H4","postalcode":"K7M 7H4","website":" ","working_hour":"Monday 9:00 am - 9:00 pm   Tuesday 9:00 am - 9:00 pm   Wednesday 9:00 am - 9:00 pm   Thursday 9:00 am - 9:00 pm   Friday 9:00 am - 9:00 pm   Saturday 9:30 am - 6:00 pm","latitude":"44.256425","longitude":"-76.568771"},{"source":"yellow page","service_name":"Magicuts","category":"beauty salon","phone":"6135445990","address":"1006 Princess St, Kingston, ON K7L 1H2","postalcode":"K7L 1H2","website":" ","working_hour":"","latitude":"44.242426","longitude":"-76.51502"},{"source":"yellow page","service_name":"Conz Cutz","category":"beauty salon","phone":"613-396-3994","address":"294 Mowbray's, Deseronto, ON K0K 1X0","postalcode":"K0K 1X0","website":" ","working_hour":"Monday 10:00 am - 7:00 pm   Tuesday 10:00 am - 7:00 pm   Wednesday 10:00 am - 7:00 pm   Thursday 10:00 am - 7:00 pm   Friday 10:00 am - 7:00 pm   Saturday 10:00 am - 6:00 pm","latitude":"44.2195255","longitude":"-77.0779722"},{"source":"yellow page","service_name":"Styles","category":"beauty salon","phone":"613-354-4000","address":"8300 County Road 2, Napanee, ON K7R 3K6","postalcode":"K7R 3K6","website":" ","working_hour":"","latitude":"44.2500468","longitude":"-76.9350016"},{"source":"yellow page","service_name":"Divine Hair Studio And Aesthetics","category":"beauty salon","phone":"6133546235","address":"9 Dundas St W, Napanee, ON K7R 1Z3","postalcode":"K7R 1Z3","website":" ","working_hour":"","latitude":"44.2471493","longitude":"-76.9508513"},{"source":"yellow page","service_name":"Glow Hair Designs","category":"beauty salon","phone":"6133938991","address":"106 Bloomfield Main St, Bloomfield, ON K0K 1G0","postalcode":"K0K 1G0","website":" ","working_hour":"Monday 10:00 am - 7:00 pm   Tuesday 10:00 am - 7:00 pm   Wednesday 10:00 am - 7:00 pm   Thursday 10:00 am - 7:00 pm   Friday 10:00 am - 7:00 pm   Saturday 10:00 am - 6:00 pm","latitude":"43.9897084","longitude":"-77.2156595"},{"source":"yellow page","service_name":"Joy's Hair & Wellness Company","category":"beauty salon","phone":"613-352-3536","address":"385 Main St, Bath, ON K0H 1G0","postalcode":"K0H 1G0","website":" ","working_hour":"","latitude":"44.182139","longitude":"-76.777465"},{"source":"yellow page","service_name":"Monna's Beauty Salon","category":"beauty salon","phone":"613-966-1040","address":"94 Dundas St E, Belleville, ON K8N 1C1","postalcode":"K8N 1C1","website":" ","working_hour":"Monday 10:00 am - 7:00 pm   Tuesday 10:00 am - 7:00 pm   Wednesday 10:00 am - 7:00 pm   Thursday 10:00 am - 7:00 pm   Friday 10:00 am - 7:00 pm   Saturday 10:00 am - 6:00 pm","latitude":"44.1619488","longitude":"-77.377386"},{"source":"yellow page","service_name":"The Cutting Edge Beauty Salon","category":"beauty salon","phone":"6137711130","address":"444 Dundas St E, Belleville, ON K8N 1E9","postalcode":"K8N 1E9","website":" ","working_hour":"","latitude":"44.1669417","longitude":"-77.3553409"},{"source":"yellow page","service_name":"Quattro Hair Designs","category":"beauty salon","phone":"6139683022","address":"Bayview Mall, Belleville, ON K8N 1G2","postalcode":"K8N 1G2","website":"http://www.quattrohairdesign.com","working_hour":"Monday 9:00 am - 5:30 pm   Tuesday 9:00 am - 5:30 pm   Wednesday 9:00 am - 5:30 pm   Thursday 9:00 am - 5:30 pm   Friday 9:00 am - 5:30 pm   Saturday 9:00 am - 5:00 pm","latitude":"44.163549","longitude":"-77.364776"},{"source":"yellow page","service_name":"Komosis Hair Studio","category":"beauty salon","phone":"6139665545","address":"215 Herchimer Ave, Belleville, ON K8N 4G9","postalcode":"K8N 4G9","website":"http://www.komosishairstudio.com/","working_hour":"Tuesday 9:00 am - 5:30 pm   Wednesday 9:00 am - 7:30 pm   Thursday 9:00 am - 7:30 pm   Friday 9:00 am - 6:00 pm   Saturday 8:30 am - 3:30 pm","latitude":"44.1702314","longitude":"-77.3576825"},{"source":"yellow page","service_name":"Lyn's Classic Cuts","category":"beauty salon","phone":"6139625845","address":"415 Bridge St E, Belleville, ON K8N 1P7","postalcode":"K8N 1P7","website":" ","working_hour":"","latitude":"44.169604","longitude":"-77.3580733"},{"source":"yellow page","service_name":"Star Nails","category":"beauty salon","phone":"613-961-1731","address":"26-470 Dundas St E, Belleville, ON K8N 1G1","postalcode":"K8N 1G1","website":" ","working_hour":"Monday 9:30 am - 6:00 pm   Tuesday 9:30 am - 6:00 pm   Wednesday 9:30 am - 6:00 pm   Thursday 9:30 am - 7:30 pm   Friday 9:30 am - 7:30 pm   Saturday 9:30 am - 6:00 pm","latitude":"44.1673611","longitude":"-77.3536373"},{"source":"yellow page","service_name":"The Hair Care Company","category":"beauty salon","phone":"6134762276","address":"300 Picton Main St, Picton, ON K0K 2T0","postalcode":"K0K 2T0","website":"http://www.thehaircarecompany.org/","working_hour":"Monday 10:00 am - 7:00 pm   Tuesday 10:00 am - 7:00 pm   Wednesday 10:00 am - 7:00 pm   Thursday 10:00 am - 7:00 pm   Friday 10:00 am - 7:00 pm   Saturday 10:00 am - 6:00 pm","latitude":"44.0084836","longitude":"-77.1394398"},{"source":"yellow page","service_name":"Beauty Lotus Nails & Spa","category":"beauty salon","phone":"613-354-8844","address":"113 Richmond Blvd, Napanee, ON K7R 3Z8","postalcode":"K7R 3Z8","website":" ","working_hour":"Monday 10:00 am - 7:00 pm   Tuesday 10:00 am - 7:00 pm   Wednesday 10:00 am - 7:00 pm   Thursday 10:00 am - 7:00 pm   Friday 10:00 am - 7:00 pm   Saturday 10:00 am - 6:00 pm","latitude":"44.2631876","longitude":"-76.956646"},{"source":"yellow page","service_name":"Peytan's Place","category":"beauty salon","phone":"613-396-5360","address":"501 Dundas, ON K0K 1X0","postalcode":"K0K 1X0","website":"http://peytansplace.com","working_hour":"Monday 10:00 am - 5:00 pm   Tuesday 10:00 am - 5:00 pm   Wednesday 10:00 am - 5:00 pm   Thursday 10:00 am - 5:00 pm   Friday 10:00 am - 5:00 pm   Saturday 10:00 am - 5:00 pm   Sunday 11:00 am - 5:00 pm","latitude":"44.202229","longitude":"-77.06923"},{"source":"yellow page","service_name":"Classic Cuts And More","category":"beauty salon","phone":"613-354-2218","address":"450 Centre St N, Napanee, ON K7R 1P8","postalcode":"K7R 1P8","website":" ","working_hour":"Monday 9:00 am - 5:30 pm   Tuesday 9:00 am - 5:30 pm   Wednesday 9:00 am - 5:30 pm   Thursday 9:00 am - 7:00 pm   Friday 9:00 am - 7:00 pm   Saturday 9:00 am - 4:00 pm","latitude":"44.259143","longitude":"-76.9623527"},{"source":"yellow page","service_name":"Hair Revolution","category":"beauty salon","phone":"613-476-6814","address":"172 Picton Main, Picton, ON K0K 2T0","postalcode":"K0K 2T0","website":" ","working_hour":"Monday 10:00 am - 7:00 pm   Tuesday 10:00 am - 7:00 pm   Wednesday 10:00 am - 7:00 pm   Thursday 10:00 am - 7:00 pm   Friday 10:00 am - 7:00 pm   Saturday 10:00 am - 6:00 pm","latitude":"44.0067819","longitude":"-77.1428508"},{"source":"yellow page","service_name":"It's All About Me Beauty Salon","category":"beauty salon","phone":"6134711408","address":"393 County Road 8 RR 9, Picton, ON K0K 2T0","postalcode":"K0K 2T0","website":" ","working_hour":"Monday 9:00 am - 5:00 pm   Tuesday 9:00 am - 5:00 pm   Wednesday 9:00 am - 5:00 pm   Thursday 9:00 am - 5:00 pm   Friday 9:00 am - 5:00 pm   Saturday 9:00 am - 5:00 pm","latitude":"44.006086","longitude":"-77.1147392"},{"source":"yellow page","service_name":"Susan Nurse CPE Advanced Electrolysis LASER","category":"beauty salon","phone":"6139668691","address":"65 Dundas St E, Belleville, ON K8N 1B9","postalcode":"K8N 1B9","website":"http://www.advancedelectrolysis.ca","working_hour":"Monday 9:30 am - 6:00 pm   Tuesday 9:30 am - 6:00 pm   Wednesday 9:30 am - 6:00 pm   Thursday 9:30 am - 6:00 pm   Friday 9:30 am - 6:00 pm","latitude":"44.1615129","longitude":"-77.3796591"},{"source":"yellow page","service_name":"The Cutting Room","category":"beauty salon","phone":"613-633-8116","address":"46 Main, Pembroke, ON K0J 1K0","postalcode":"K0J 1K0","website":" ","working_hour":"Monday 10:00 am - 9:00 pm   Wednesday 10:00 am - 9:00 pm   Thursday 10:00 am - 5:30 pm   Friday 10:00 am - 2:00 pm","latitude":"45.602805","longitude":"-76.87183"},{"source":"yellow page","service_name":"The Finishing Touch","category":"beauty salon","phone":"6134767786","address":"7 Paul St, Picton, ON K0K 2T0","postalcode":"K0K 2T0","website":" ","working_hour":"Monday 10:00 am - 7:00 pm   Tuesday 10:00 am - 7:00 pm   Wednesday 10:00 am - 7:00 pm   Thursday 10:00 am - 7:00 pm   Friday 10:00 am - 7:00 pm   Saturday 10:00 am - 6:00 pm","latitude":"44.0097814","longitude":"-77.1400057"},{"source":"yellow page","service_name":"A Cut Above","category":"beauty salon","phone":"613-354-0200","address":"113 Richmond Blvd, Napanee, ON K7R 3Z8","postalcode":"K7R 3Z8","website":" ","working_hour":"Monday 10:00 am - 7:00 pm   Tuesday 10:00 am - 7:00 pm   Wednesday 10:00 am - 7:00 pm   Thursday 10:00 am - 7:00 pm   Friday 10:00 am - 7:00 pm   Saturday 10:00 am - 6:00 pm","latitude":"44.2631876","longitude":"-76.956646"},{"source":"yellow page","service_name":"Blondies Hair Nails Tanning & Supplies","category":"beauty salon","phone":"613-628-1666","address":"148 John, Eganville, ON K0J 1T0","postalcode":"K0J 1T0","website":" ","working_hour":"Monday 9:00 am - 5:00 pm   Tuesday 9:00 am - 5:00 pm   Wednesday 9:00 am - 5:00 pm   Thursday 9:00 am - 5:00 pm   Friday 9:00 am - 5:00 pm   Saturday 9:00 am - 12:00 pm","latitude":"45.536777","longitude":"-77.096166"},{"source":"yellow page","service_name":"Earthy Essentials","category":"beauty salon","phone":"613-401-6713","address":"40 Crawford St, Cobden, ON K0J 1K0","postalcode":"K0J 1K0","website":" ","working_hour":"","latitude":"45.627111","longitude":"-76.882929"},{"source":"yellow page","service_name":"New Image Beauty Salon","category":"beauty salon","phone":"613-625-2774","address":"Highway 60, Golden Lake, ON K0J 1X0","postalcode":"K0J 1X0","website":" ","working_hour":"Monday 9:00 am - 7:00 pm   Tuesday 9:00 am - 7:00 pm   Wednesday 9:00 am - 7:00 pm   Thursday 9:00 am - 7:00 pm   Friday 9:00 am - 7:00 pm","latitude":"45.580605","longitude":"-77.329557"},{"source":"yellow page","service_name":"Great Lengths Hair Studio","category":"beauty salon","phone":"6136286632","address":"71 Bonnechere E, Eganville, ON K0J 1T0","postalcode":"K0J 1T0","website":" ","working_hour":"","latitude":"45.5397061","longitude":"-77.0936043"},{"source":"yellow page","service_name":"Ellen's Beauty Salon","category":"beauty salon","phone":"613-582-3820","address":"1783 Beachburg Rd, Beachburg, ON K0J 1C0","postalcode":"K0J 1C0","website":" ","working_hour":"Monday 10:00 am - 7:00 pm   Tuesday 10:00 am - 7:00 pm   Wednesday 10:00 am - 7:00 pm   Thursday 10:00 am - 7:00 pm   Friday 10:00 am - 7:00 pm   Saturday 10:00 am - 6:00 pm","latitude":"45.7331967","longitude":"-76.856589"},{"source":"yellow page","service_name":"Nu Era","category":"beauty salon","phone":"613-735-0384","address":"102 Bess St, Pembroke, ON K8B 1B5","postalcode":"K8B 1B5","website":"http://www.nuera.com/","working_hour":"Monday 10:00 am - 7:00 pm   Tuesday 10:00 am - 7:00 pm   Wednesday 10:00 am - 7:00 pm   Thursday 10:00 am - 7:00 pm   Friday 10:00 am - 7:00 pm   Saturday 10:00 am - 6:00 pm","latitude":"45.808248","longitude":"-77.081137"},{"source":"yellow page","service_name":"Cookie's Unisex Hair Design","category":"beauty salon","phone":"613-735-2793","address":"199 Market St, Pembroke, ON K8A 8P1","postalcode":"K8A 8P1","website":" ","working_hour":"Monday 10:00 am - 7:00 pm   Tuesday 10:00 am - 7:00 pm   Wednesday 10:00 am - 7:00 pm   Thursday 10:00 am - 7:00 pm   Friday 10:00 am - 7:00 pm   Saturday 10:00 am - 6:00 pm","latitude":"45.8120735","longitude":"-77.1058884"},{"source":"yellow page","service_name":"A Touch Of Piaz Image Center","category":"beauty salon","phone":"613-735-2451","address":"615 Weston St, Pembroke, ON K8A 8M1","postalcode":"K8A 8M1","website":"http://touchofpiaz.com/","working_hour":"Monday 10:00 am - 7:00 pm   Tuesday 10:00 am - 7:00 pm   Wednesday 10:00 am - 7:00 pm   Thursday 10:00 am - 7:00 pm   Friday 10:00 am - 7:00 pm   Saturday 10:00 am - 6:00 pm","latitude":"45.8066147","longitude":"-77.1214721"},{"source":"yellow page","service_name":"Ryan's Studio","category":"beauty salon","phone":"613-732-8075","address":"911 River Rd, Pembroke, ON K8A 1B1","postalcode":"K8A 1B1","website":" ","working_hour":"","latitude":"45.8115344","longitude":"-77.1126802"},{"source":"yellow page","service_name":"Norm's House Of Hair","category":"beauty salon","phone":"613-628-3728","address":"79 Bonnechere W, Eganville, ON K0J 1T0","postalcode":"K0J 1T0","website":" ","working_hour":"Monday 10:00 am - 7:00 pm   Tuesday 10:00 am - 7:00 pm   Wednesday 10:00 am - 7:00 pm   Thursday 10:00 am - 7:00 pm   Friday 10:00 am - 7:00 pm   Saturday 10:00 am - 6:00 pm","latitude":"45.437717","longitude":"-77.213428"},{"source":"yellow page","service_name":"Village Hair Works","category":"beauty salon","phone":"613-646-2782","address":"59 Main, Cobden, ON K0J 1K0","postalcode":"K0J 1K0","website":" ","working_hour":"Monday 10:00 am - 7:00 pm   Tuesday 10:00 am - 7:00 pm   Wednesday 10:00 am - 7:00 pm   Thursday 10:00 am - 7:00 pm   Friday 10:00 am - 7:00 pm   Saturday 10:00 am - 6:00 pm","latitude":"45.602805","longitude":"-76.87183"},{"source":"yellow page","service_name":"Bettye Maves Hairstyling","category":"beauty salon","phone":"613-585-0269","address":"295 Morris St, Pembroke, ON K8A 2L4","postalcode":"K8A 2L4","website":" ","working_hour":"","latitude":"45.8167963","longitude":"-77.1053032"},{"source":"yellow page","service_name":"Colleen's Hair Salon","category":"beauty salon","phone":"6137350333","address":"635 Joe St, Pembroke, ON K8A 6S9","postalcode":"K8A 6S9","website":" ","working_hour":"Monday 10:00 am - 7:00 pm   Tuesday 10:00 am - 7:00 pm   Wednesday 10:00 am - 7:00 pm   Thursday 10:00 am - 7:00 pm   Friday 10:00 am - 7:00 pm   Saturday 10:00 am - 6:00 pm","latitude":"45.819797","longitude":"-77.140721"},{"source":"yellow page","service_name":"The Head Shed","category":"beauty salon","phone":"6134010799","address":"116 Mud Lake Rd, Pembroke, ON K8A 6W4","postalcode":"K8A 6W4","website":"http://www.headshed.ca/en/","working_hour":"Monday 10:00 am - 9:00 pm   Tuesday 10:00 am - 9:00 pm   Wednesday 10:00 am - 9:00 pm   Thursday 10:00 am - 9:00 pm   Friday 10:00 am - 9:00 pm   Saturday 10:00 am - 9:00 pm   Sunday 12:00 pm - 6:00 pm","latitude":"45.7899252","longitude":"-77.0974493"},{"source":"yellow page","service_name":"Wanda's Beauty Salon","category":"beauty salon","phone":"6135823651","address":"1786 Beachburg Rd RR 1, Beachburg, ON K0J 1C0","postalcode":"K0J 1C0","website":" ","working_hour":"","latitude":"45.733401","longitude":"-76.856838"},{"source":"yellow page","service_name":"Cynthia's Beauty Salon","category":"beauty salon","phone":"6137324813","address":"626 Boundary Rd, Pembroke, ON K8A 6M8","postalcode":"K8A 6M8","website":" ","working_hour":"","latitude":"45.821105","longitude":"-77.137264"},{"source":"yellow page","service_name":"JLB Style","category":"beauty salon","phone":"6136295527","address":"622 Bruham Ave, Pembroke, ON K8A 4Z7","postalcode":"K8A 4Z7","website":" ","working_hour":"Monday 9:00 am - 5:00 pm   Tuesday 9:00 am - 5:00 pm   Wednesday 9:00 am - 5:00 pm   Thursday 9:00 am - 5:00 pm   Friday 9:00 am - 5:00 pm   Saturday 9:00 am - 5:00 pm   Sunday 10:00 am - 4:00 pm","latitude":"45.818145","longitude":"-77.137349"},{"source":"yellow page","service_name":"Enviro Trends","category":"beauty salon","phone":"6137353429","address":"1100 Pembroke St E, Pembroke, ON K8A 6Y7","postalcode":"K8A 6Y7","website":"http://www.envirotrends.ca","working_hour":"Monday 9:30 am - 9:00 pm   Tuesday 9:30 am - 9:00 pm   Wednesday 9:30 am - 9:00 pm   Thursday 9:30 am - 9:00 pm   Friday 9:30 am - 9:00 pm   Saturday 9:30 am - 6:00 pm","latitude":"45.8185632","longitude":"-77.0781994"},{"source":"yellow page","service_name":"Jennifer's Hair Design Studio","category":"beauty salon","phone":"705-657-3473","address":"Hwy 36, Buckhorn, ON K0L 1J0","postalcode":"K0L 1J0","website":" ","working_hour":"Monday 10:00 am - 7:00 pm   Tuesday 10:00 am - 7:00 pm   Wednesday 10:00 am - 7:00 pm   Thursday 10:00 am - 7:00 pm   Friday 10:00 am - 7:00 pm   Saturday 10:00 am - 6:00 pm","latitude":"44.808152","longitude":"-78.354424"},{"source":"yellow page","service_name":"Tammy's Family Hair Care","category":"beauty salon","phone":"6133323032","address":"105 HastingsN, Bancroft, ON K0L 1C0","postalcode":"K0L 1C0","website":" ","working_hour":"Monday 10:00 am - 7:00 pm   Tuesday 10:00 am - 7:00 pm   Wednesday 10:00 am - 7:00 pm   Thursday 10:00 am - 7:00 pm   Friday 10:00 am - 7:00 pm   Saturday 10:00 am - 6:00 pm","latitude":"45.0598177","longitude":"-77.8551873"},{"source":"yellow page","service_name":"Gary & Di's Hair Salon","category":"beauty salon","phone":"613-332-3021","address":"68 Cleak Ave, Bancroft, ON K0L 1C0","postalcode":"K0L 1C0","website":" ","working_hour":"Monday 8:30 am - 5:00 pm   Tuesday 8:30 am - 5:00 pm   Wednesday 8:30 am - 5:00 pm   Thursday 8:30 am - 5:00 pm   Friday 8:30 am - 5:00 pm   Saturday 8:30 am - 5:00 pm   Sunday 8:30 am - 5:00 pm","latitude":"45.0624917","longitude":"-77.8551055"},{"source":"yellow page","service_name":"Head Inn Hair Styling","category":"beauty salon","phone":"8448321105","address":"62 Water, Minden, ON K0M 2K0","postalcode":"K0M 2K0","website":"http://www.headinnhairstyling.ca/","working_hour":"Tuesday 9:00 am - 5:00 pm   Wednesday 9:00 am - 5:00 pm   Thursday 9:00 am - 5:00 pm   Friday 9:00 am - 5:00 pm   Saturday 9:00 am - 1:00 pm   Thursdays - Open Till 7 Pm By Appointment","latitude":"44.9304066","longitude":"-78.720096"},{"source":"yellow page","service_name":"Monica Vos Hair Salon","category":"beauty salon","phone":"7056563177","address":"211 Burleigh, Apsley, ON K0L 1A0","postalcode":"K0L 1A0","website":"http://mvhs.ca","working_hour":"","latitude":"44.7576718","longitude":"-78.0876246"},{"source":"yellow page","service_name":"Lady C's","category":"beauty salon","phone":"6137562790","address":"120 Dunn St, Barry's Bay, ON K0J 1B0","postalcode":"K0J 1B0","website":" ","working_hour":"","latitude":"45.483702","longitude":"-77.68138"},{"source":"yellow page","service_name":"Brown's Hair Design Studio","category":"beauty salon","phone":"613-332-6662","address":"178 Hastings N, Bancroft, ON K0L 1C0","postalcode":"K0L 1C0","website":" ","working_hour":"Monday 9:30 am - 6:00 pm   Tuesday 9:30 am - 6:00 pm   Wednesday 9:30 am - 6:00 pm   Thursday 9:30 am - 6:00 pm   Friday 9:30 am - 6:00 pm   Saturday 9:00 am - 5:00 pm","latitude":"45.036374","longitude":"-77.824645"},{"source":"yellow page","service_name":"Terra Sun Hair Design","category":"beauty salon","phone":"6133324298","address":"15 Bridge W, Bancroft, ON K0L 1C0","postalcode":"K0L 1C0","website":" ","working_hour":"Appointment only","latitude":"45.0557193","longitude":"-77.8563821"},{"source":"yellow page","service_name":"Razors Edge","category":"beauty salon","phone":"613-332-5353","address":"57 Hastings N, Bancroft, ON K0L 1C0","postalcode":"K0L 1C0","website":" ","working_hour":"","latitude":"45.036374","longitude":"-77.824645"},{"source":"yellow page","service_name":"Sleeper S","category":"beauty salon","phone":"6133325396","address":"RR 1, L'Amable, ON K0L 2L0","postalcode":"K0L 2L0","website":" ","working_hour":"Monday 10:00 am - 7:00 pm   Tuesday 10:00 am - 7:00 pm   Wednesday 10:00 am - 7:00 pm   Thursday 10:00 am - 7:00 pm   Friday 10:00 am - 7:00 pm   Saturday 10:00 am - 7:00 pm   Sunday 10:00 am - 7:00 pm","latitude":"44.993389","longitude":"-77.700145"},{"source":"yellow page","service_name":"Hair Emporium Unisex Hair Designing","category":"beauty salon","phone":"705-457-3008","address":"13500 Hwy 118 RR 3, Haliburton, ON K0M 1S0","postalcode":"K0M 1S0","website":"http://hairemporium.ca/","working_hour":"Monday 9:00 am - 7:00 pm   Tuesday 9:00 am - 7:00 pm   Wednesday 9:00 am - 7:00 pm   Thursday 9:00 am - 7:00 pm   Friday 9:00 am - 7:00 pm","latitude":"45.20493","longitude":"-78.559656"},{"source":"yellow page","service_name":"Teaser's Family Hair Care Salon Linda","category":"beauty salon","phone":"705-657-2531","address":"1915 Lakehurst Rd, Buckhorn, ON K0L 1J0","postalcode":"K0L 1J0","website":" ","working_hour":"","latitude":"44.808152","longitude":"-78.354424"},{"source":"yellow page","service_name":"Tam's Family Hair Salon","category":"beauty salon","phone":"613-637-2003","address":"142 Hay Creek Rd, Whitney, ON","postalcode":"","website":" ","working_hour":"","latitude":"","longitude":""},{"source":"yellow page","service_name":"Ommmh Beauty Boutique","category":"beauty salon","phone":"705-286-4444","address":"136 Bobcaygeon, ON K0M 2K0","postalcode":"K0M 2K0","website":"http://www.ommmhbeautyboutique.com","working_hour":"Monday 11:00 am - 5:00 pm   Tuesday 10:00 am - 8:00 pm   Wednesday 10:00 am - 8:00 pm   Thursday 10:00 am - 7:00 pm   Friday 10:00 am - 7:00 pm   Saturday 9:00 am - 3:00 pm","latitude":"45.031977","longitude":"-78.629891"},{"source":"yellow page","service_name":"Gracies Nails & Aesthetics","category":"beauty salon","phone":"613-334-7449","address":"3 Hastings N, Bancroft, ON K0L 1C0","postalcode":"K0L 1C0","website":" ","working_hour":"","latitude":"45.0562853","longitude":"-77.8531275"},{"source":"yellow page","service_name":"Bancroft Creative Hairstyling","category":"beauty salon","phone":"613-332-5585","address":"67 Cleak, Bancroft, ON K0L 1C0","postalcode":"K0L 1C0","website":" ","working_hour":"Monday 9:00 am - 7:00 pm   Tuesday 9:00 am - 7:00 pm   Wednesday 9:00 am - 7:00 pm   Thursday 9:00 am - 7:00 pm   Friday 9:00 am - 7:00 pm","latitude":"45.0625161","longitude":"-77.8550921"},{"source":"yellow page","service_name":"JC's Cuts & More","category":"beauty salon","phone":"705-488-1148","address":"3718 County Road 121, ON K0M 2A0","postalcode":"K0M 2A0","website":" ","working_hour":"","latitude":"44.777978","longitude":"-78.547947"},{"source":"yellow page","service_name":"Sonya's Unisex Hairstyling","category":"beauty salon","phone":"705-286-6696","address":"12281 35Hwy, Minden, ON K0M 2K0","postalcode":"K0M 2K0","website":" ","working_hour":"Monday 8:00 am - 4:00 pm   Tuesday 8:00 am - 4:00 pm   Wednesday 8:00 am - 4:00 pm   Thursday 8:00 am - 4:00 pm   Friday 8:00 am - 4:00 pm   Saturday 8:00 am - 12:00 pm","latitude":"44.9163724","longitude":"-78.7226954"},{"source":"yellow page","service_name":"Robin's Nest Hair Studio and Creation","category":"beauty salon","phone":"705-286-2621","address":"138 Bobcaygeon Rd, Minden, ON K0M 2K0","postalcode":"K0M 2K0","website":" ","working_hour":"","latitude":"44.926561","longitude":"-78.7260861"},{"source":"yellow page","service_name":"Lynn's Hair Styling","category":"beauty salon","phone":"705-286-1554","address":"1175 Spring Valley Rd RR 3, Minden, ON K0M 2K0","postalcode":"K0M 2K0","website":" ","working_hour":"","latitude":"44.912664","longitude":"-78.7343197"},{"source":"yellow page","service_name":"Heads Up Hair Stylists","category":"beauty salon","phone":"705-457-2263","address":"15 Cedar, Haliburton, ON K0M 1S0","postalcode":"K0M 1S0","website":" ","working_hour":"","latitude":"44.6569099","longitude":"-78.7432938"},{"source":"yellow page","service_name":"Electrolysis By Tiffany","category":"beauty salon","phone":"705-308-0816","address":"23 Fire Route 126, Bobcaygeon, ON K0M 1A0","postalcode":"K0M 1A0","website":"http://electrolysisbytiffany.webs.com/","working_hour":"","latitude":"44.583994","longitude":"-78.472544"},{"source":"yellow page","service_name":"Ranaje Hair Design","category":"beauty salon","phone":"705-738-6851","address":"E 71 Bolton, Bobcaygeon, ON K0M 1A0","postalcode":"K0M 1A0","website":" ","working_hour":"Monday 10:00 am - 7:00 pm   Tuesday 10:00 am - 7:00 pm   Wednesday 10:00 am - 7:00 pm   Thursday 10:00 am - 7:00 pm   Friday 10:00 am - 7:00 pm   Saturday 10:00 am - 6:00 pm","latitude":"44.583994","longitude":"-78.472544"},{"source":"yellow page","service_name":"La Belle Coiffures","category":"beauty salon","phone":"705-454-8196","address":"Grandy, Coboconk, ON K0M 1K0","postalcode":"K0M 1K0","website":" ","working_hour":"","latitude":"44.704407","longitude":"-78.8085"},{"source":"yellow page","service_name":"Cloud Nine","category":"beauty salon","phone":"6137480165","address":"2087 Montreal Rd, Gloucester, ON K1J 6M6","postalcode":"K1J 6M6","website":"http://www.cloudproduction.ca","working_hour":"","latitude":"45.44789","longitude":"-75.593074"},{"source":"yellow page","service_name":"Serenity Hair Design & Spa","category":"beauty salon","phone":"613-748-7642","address":"1661 Montreal Rd, Gloucester, ON K1J 9B7","postalcode":"K1J 9B7","website":"http://serenityhairdesign.ca","working_hour":"","latitude":"45.446387","longitude":"-75.613598"},{"source":"yellow page","service_name":"Toan Sang Inc","category":"beauty salon","phone":"6139166363","address":"5-1459 Ogilvie Rd, Ottawa, ON K1J 8K6","postalcode":"K1J 8K6","website":" ","working_hour":"","latitude":"45.431955","longitude":"-75.617298"},{"source":"yellow page","service_name":"Hair Kraft Salon","category":"beauty salon","phone":"613-422-8801","address":"641 Bathgate Dr, Ottawa, ON K1K 3Y3","postalcode":"K1K 3Y3","website":" ","working_hour":"","latitude":"45.446487","longitude":"-75.625193"},{"source":"yellow page","service_name":"Gissoo Studio","category":"beauty salon","phone":"613-744-7457","address":"2061 Meadowbrook Rd, Gloucester, ON K1B 4W7","postalcode":"K1B 4W7","website":" ","working_hour":"Monday 10:00 am - 7:00 pm   Tuesday 10:00 am - 7:00 pm   Wednesday 10:00 am - 7:00 pm   Thursday 10:00 am - 7:00 pm   Friday 10:00 am - 7:00 pm   Saturday 10:00 am - 6:00 pm","latitude":"45.4269512","longitude":"-75.6012321"},{"source":"yellow page","service_name":"The Bliss","category":"beauty salon","phone":"613-741-5411","address":"1-877 Shefford Rd, Gloucester, ON K1J 8H9","postalcode":"K1J 8H9","website":" ","working_hour":"Monday 10:00 am - 7:00 pm   Tuesday 10:00 am - 7:00 pm   Wednesday 10:00 am - 7:00 pm   Thursday 10:00 am - 7:00 pm   Friday 10:00 am - 7:00 pm   Saturday 10:00 am - 6:00 pm","latitude":"45.453732","longitude":"-75.590153"},{"source":"yellow page","service_name":"Marthou Beauty Salon Spa","category":"beauty salon","phone":"613-745-7878","address":"654 Montreal Rd, Ottawa, ON K1K 0T3","postalcode":"K1K 0T3","website":" ","working_hour":"","latitude":"45.443136","longitude":"-75.640493"},{"source":"yellow page","service_name":"Oasis Unisex Hair Studio","category":"beauty salon","phone":"6137458945","address":"876 Montreal Rd, Ottawa, ON K1K 4L3","postalcode":"K1K 4L3","website":" ","working_hour":"Tuesday 9:00 am - 9:00 pm   Wednesday 9:00 am - 9:00 pm   Thursday 9:00 am - 9:00 pm   Friday 9:00 am - 9:00 pm   Saturday 9:00 am - 6:00 pm   Emergency appointments available","latitude":"45.446305","longitude":"-75.630514"},{"source":"yellow page","service_name":"Hair Affordables","category":"beauty salon","phone":"6137458804","address":"876 Montreal Rd, Ottawa, ON K1K 4L3","postalcode":"K1K 4L3","website":" ","working_hour":"","latitude":"45.446305","longitude":"-75.630514"},{"source":"yellow page","service_name":"Creation Gaetan Unisex","category":"beauty salon","phone":"613-740-0700","address":"2126 Montreal Rd, Gloucester, ON K1J 6M7","postalcode":"K1J 6M7","website":" ","working_hour":"","latitude":"45.4485968","longitude":"-75.5911672"},{"source":"yellow page","service_name":"My Beauty Salon","category":"beauty salon","phone":"613-824-9558","address":"96 Glen Park Dr, Gloucester, ON K1B 3Z2","postalcode":"K1B 3Z2","website":" ","working_hour":"","latitude":"45.4287564","longitude":"-75.5657723"},{"source":"yellow page","service_name":"The Total Look","category":"beauty salon","phone":"613-744-7944","address":"101-1675 Cyrville Rd, Gloucester, ON K1B 3L7","postalcode":"K1B 3L7","website":" ","working_hour":"Monday 10:00 am - 7:00 pm   Tuesday 10:00 am - 7:00 pm   Wednesday 10:00 am - 7:00 pm   Thursday 10:00 am - 7:00 pm   Friday 10:00 am - 7:00 pm   Saturday 10:00 am - 6:00 pm","latitude":"45.4175132","longitude":"-75.6072605"},{"source":"yellow page","service_name":"Studio Jade","category":"beauty salon","phone":"6138308899","address":"110 Bearbrook Rd, Gloucester, ON K1B 5R2","postalcode":"K1B 5R2","website":"http://www.studiojade.ca/","working_hour":"Monday 10:00 am - 7:00 pm   Tuesday 10:00 am - 7:00 pm   Wednesday 10:00 am - 7:00 pm   Thursday 10:00 am - 7:00 pm   Friday 10:00 am - 7:00 pm   Saturday 10:00 am - 6:00 pm","latitude":"45.432145","longitude":"-75.564778"},{"source":"yellow page","service_name":"Minu Siddique","category":"beauty salon","phone":"613-302-9356","address":"1661 Montreal Rd, Gloucester, ON K1J 9B7","postalcode":"K1J 9B7","website":" ","working_hour":"","latitude":"45.446387","longitude":"-75.613598"},{"source":"yellow page","service_name":"Salon Unique","category":"beauty salon","phone":"613-695-8444","address":"2200 Montreal Rd, Gloucester, ON K1J 6M5","postalcode":"K1J 6M5","website":" ","working_hour":"","latitude":"45.450262","longitude":"-75.587074"},{"source":"yellow page","service_name":"Romeo Hair Design Inc","category":"beauty salon","phone":"613-745-1010","address":"1948 Montreal Rd, Gloucester, ON K1J 6N2","postalcode":"K1J 6N2","website":"http://ottawabeautysalondirectory.com","working_hour":"","latitude":"45.4459945","longitude":"-75.5970797"},{"source":"yellow page","service_name":"Hair Alive Beauty Salon","category":"beauty salon","phone":"613-824-1172","address":"205 Glen Park Dr, Gloucester, ON K1B 5B8","postalcode":"K1B 5B8","website":" ","working_hour":"","latitude":"45.430959","longitude":"-75.564158"},{"source":"yellow page","service_name":"Salon Toujours Inc","category":"beauty salon","phone":"613-749-3940","address":"1661 Montreal Rd, Gloucester, ON K1J 9B7","postalcode":"K1J 9B7","website":" ","working_hour":"Monday 11:00 am - 7:00 pm   Tuesday 11:00 am - 7:00 pm   Wednesday 11:00 am - 7:00 pm   Thursday 11:00 am - 7:00 pm   Friday 11:00 am - 7:00 pm","latitude":"45.446387","longitude":"-75.613598"},{"source":"yellow page","service_name":"First Choice Hair Salon","category":"beauty salon","phone":"613-744-7725","address":"2187 Ogilvie Rd, Gloucester, ON K1J 8Y7","postalcode":"K1J 8Y7","website":" ","working_hour":"","latitude":"45.4426651","longitude":"-75.5973485"},{"source":"yellow page","service_name":"Romeo Coiffure Hair Design Inc","category":"beauty salon","phone":"6137451010","address":"1948 Montreal Rd, Gloucester, ON K1J 6N2","postalcode":"K1J 6N2","website":"http://ottawabeautysalondirectory.com","working_hour":"","latitude":"45.4459945","longitude":"-75.5970797"},{"source":"yellow page","service_name":"Deticut Hairdressing","category":"beauty salon","phone":"613-807-4440","address":"1795 Windflower Way, Orleans, ON K1C 5Z2","postalcode":"K1C 5Z2","website":" ","working_hour":"","latitude":"45.448028","longitude":"-75.537129"},{"source":"yellow page","service_name":"Mane Soulutions","category":"beauty salon","phone":"613-834-7457","address":"6105 Oak Meadows Dr, Orleans, ON K1C 7G6","postalcode":"K1C 7G6","website":" ","working_hour":"Monday 10:00 am - 7:00 pm   Tuesday 10:00 am - 7:00 pm   Wednesday 10:00 am - 7:00 pm   Thursday 10:00 am - 7:00 pm   Friday 10:00 am - 7:00 pm   Saturday 10:00 am - 6:00 pm","latitude":"45.451146","longitude":"-75.53275"},{"source":"yellow page","service_name":"Sylvie's Hair Studio","category":"beauty salon","phone":"613-837-4788","address":"1600 Promenade Forest Valley, Ottawa, ON K1C 6X7","postalcode":"K1C 6X7","website":"http://ottawabeautysalondirectory.com","working_hour":"","latitude":"45.448921","longitude":"-75.536869"},{"source":"yellow page","service_name":"Princess beauty","category":"beauty salon","phone":"613-402-4933","address":"1998 Summerfields Cres, Ottawa, ON K1C 7B4","postalcode":"K1C 7B4","website":" ","working_hour":"","latitude":"45.4491177","longitude":"-75.5321616"},{"source":"yellow page","service_name":"Kool World Hair Design Karyne","category":"beauty salon","phone":"6138349901","address":"1999 St. Joseph Blvd, Orleans, ON K1C 1E5","postalcode":"K1C 1E5","website":" ","working_hour":"","latitude":"45.464556","longitude":"-75.539265"},{"source":"yellow page","service_name":"Lashes by Damara","category":"beauty salon","phone":"613-614-0114","address":"1080 St- Jovite Ridge, Ottawa, ON K1C 1Y7","postalcode":"K1C 1Y7","website":" ","working_hour":"","latitude":"45.474623","longitude":"-75.536206"},{"source":"yellow page","service_name":"Aka Beauty Concepts","category":"beauty salon","phone":"613-424-6109","address":"2586 St. Joseph Blvd, Orleans, ON K1C 1G3","postalcode":"K1C 1G3","website":" ","working_hour":"","latitude":"45.471009","longitude":"-75.524853"},{"source":"yellow page","service_name":"Liora Hair And Esthetics","category":"beauty salon","phone":"613-830-5378","address":"2441 St. Joseph Blvd, Orleans, ON K1C 1E9","postalcode":"K1C 1E9","website":" ","working_hour":"Monday 11:00 am - 7:00 pm   Tuesday 10:00 am - 4:00 pm   Wednesday 10:00 am - 5:00 pm   Thursday 8:00 am - 6:00 pm   Friday 9:00 am - 5:00 pm","latitude":"45.469512","longitude":"-75.528228"},{"source":"yellow page","service_name":"Supercuts","category":"beauty salon","phone":"6138304128","address":"108-1615 Orleans Blvd, Orleans, ON K1C 7E2","postalcode":"K1C 7E2","website":"http://supercuts.com","working_hour":"","latitude":"45.460444","longitude":"-75.525577"},{"source":"yellow page","service_name":"Alternative Hair Design","category":"beauty salon","phone":"613-841-4247","address":"3-1439 Youville Dr, Orleans, ON K1C 4M8","postalcode":"K1C 4M8","website":"http://www.totalbodylaser.com","working_hour":"","latitude":"45.4654991","longitude":"-75.5453048"},{"source":"yellow page","service_name":"Sylrinaz Hair Studio","category":"beauty salon","phone":"613-834-7482","address":"2142 St. Joseph Blvd, Orleans, ON K1C 1E6","postalcode":"K1C 1E6","website":" ","working_hour":"Monday 9:00 am - 5:00 pm   Tuesday 9:00 am - 5:00 pm   Wednesday 9:00 am - 5:00 pm   Thursday 9:00 am - 5:00 pm   Friday 9:00 am - 5:00 pm","latitude":"45.466633","longitude":"-75.534647"},{"source":"yellow page","service_name":"Dollhouse Hair","category":"beauty salon","phone":"613-834-3947","address":"2208 St. Joseph Blvd, Orleans, ON K1C 1E8","postalcode":"K1C 1E8","website":" ","working_hour":"","latitude":"45.467575","longitude":"-75.532579"},{"source":"yellow page","service_name":"Gaia Esthetic Studio","category":"beauty salon","phone":"343-887-8802","address":"15-1439 Youville Dr, Orleans, ON K1C 4M8","postalcode":"K1C 4M8","website":" ","working_hour":"","latitude":"45.4654991","longitude":"-75.5453048"},{"source":"yellow page","service_name":"Cindy Unisex Beauty Salon","category":"beauty salon","phone":"6138309543","address":"2054 St. Joseph Blvd, Orleans, ON K1C 1E6","postalcode":"K1C 1E6","website":"http://cindyunisexbeautysalon.ca/","working_hour":"Monday 9:00 am - 6:00 pm   Tuesday 9:00 am - 6:00 pm   Wednesday 9:00 am - 6:00 pm   Thursday 9:00 am - 9:00 pm   Friday 9:00 am - 9:00 pm   Saturday 9:00 am - 4:00 pm","latitude":"45.465625","longitude":"-75.536866"},{"source":"yellow page","service_name":"Yvette Aesthetics & Electrolysis","category":"beauty salon","phone":"613-834-8664","address":"6801 Notre Dame St, Orleans, ON K1C 1H4","postalcode":"K1C 1H4","website":" ","working_hour":"Monday 10:00 am - 7:00 pm   Tuesday 10:00 am - 7:00 pm   Wednesday 10:00 am - 7:00 pm   Thursday 10:00 am - 7:00 pm   Friday 10:00 am - 7:00 pm   Saturday 10:00 am - 6:00 pm","latitude":"45.466962","longitude":"-75.531173"},{"source":"yellow page","service_name":"Ideal Hair Salon","category":"beauty salon","phone":"6138346482","address":"1194 Orleans Blvd, Orleans, ON K1C 2W1","postalcode":"K1C 2W1","website":" ","working_hour":"Wednesday 10:00 am - 9:00 pm   Thursday 10:00 am - 9:00 pm   Friday 10:00 am - 9:00 pm   Saturday 10:00 am - 9:00 pm","latitude":"45.4772359","longitude":"-75.536704"},{"source":"yellow page","service_name":"Studio Fuzion","category":"beauty salon","phone":"6138412288","address":"2288 St. Joseph Blvd, Orleans, ON K1C 1E8","postalcode":"K1C 1E8","website":"http://studiofuzion.net","working_hour":"","latitude":"45.468193","longitude":"-75.531301"},{"source":"yellow page","service_name":"Lynn's Hair Design","category":"beauty salon","phone":"613-824-1882","address":"2813 St. Joseph Blvd, Orleans, ON K1C 1G6","postalcode":"K1C 1G6","website":" ","working_hour":"Monday 10:00 am - 7:00 pm   Tuesday 10:00 am - 7:00 pm   Wednesday 10:00 am - 7:00 pm   Thursday 10:00 am - 7:00 pm   Friday 10:00 am - 7:00 pm   Saturday 10:00 am - 6:00 pm","latitude":"45.4734897","longitude":"-75.520316"},{"source":"yellow page","service_name":"First Choice Hair Salon","category":"beauty salon","phone":"613-837-7942","address":"5929 Jeanne D'Arc, Orléans, ON K1C 6V8","postalcode":"K1C 6V8","website":" ","working_hour":"","latitude":"45.465166","longitude":"-75.541095"},{"source":"yellow page","service_name":"Edith Brisson","category":"beauty salon","phone":"613-834-4157","address":"7016 Notre Dame St, Orleans, ON K1C 1H7","postalcode":"K1C 1H7","website":" ","working_hour":"","latitude":"45.470223","longitude":"-75.522546"},{"source":"yellow page","service_name":"Venus Hair Design","category":"beauty salon","phone":"613-590-0455","address":"6565 Richer Dr, Orleans, ON K1C 3G5","postalcode":"K1C 3G5","website":" ","working_hour":"","latitude":"45.466742","longitude":"-75.526511"},{"source":"yellow page","service_name":"Elies Hairstylists","category":"beauty salon","phone":"6138341101","address":"2432 St. Joseph Blvd, Orleans, ON K1C 1G1","postalcode":"K1C 1G1","website":" ","working_hour":"","latitude":"45.469621","longitude":"-75.527978"},{"source":"yellow page","service_name":"Champion Nails","category":"beauty salon","phone":"613-830-8837","address":"110-2208 St. Joseph Blvd, Orleans, ON K1C 1E8","postalcode":"K1C 1E8","website":" ","working_hour":"","latitude":"45.467575","longitude":"-75.532579"},{"source":"yellow page","service_name":"Liaisons Hair Studio","category":"beauty salon","phone":"613-837-8887","address":"105-210 Centrum Blvd, Orleans, ON K1E 3V7","postalcode":"K1E 3V7","website":" ","working_hour":"","latitude":"45.479201","longitude":"-75.512449"},{"source":"yellow page","service_name":"Trandee Hair Studio","category":"beauty salon","phone":"6135902288","address":"385 Tompkins Av, Orléans, ON K1E 3H4","postalcode":"K1E 3H4","website":" ","working_hour":"","latitude":"45.477089","longitude":"-75.498209"},{"source":"yellow page","service_name":"O Paradis Esthetique Ltd","category":"beauty salon","phone":"6138306910","address":"210 Centrum Blvd, Orleans, ON K1E 3V7","postalcode":"K1E 3V7","website":"http://oparadisesthetique.com","working_hour":"Tuesday 9:00 am - 5:00 pm   Wednesday 9:00 am - 5:00 pm   Thursday 9:00 am - 5:00 pm   Friday 9:00 am - 5:00 pm   Saturday 9:00 am - 5:00 pm   Sunday 9:00 am - 5:00 pm","latitude":"45.479201","longitude":"-75.512449"},{"source":"yellow page","service_name":"First Choice Haircutters","category":"beauty salon","phone":"6138341660","address":"250 Centrum Blvd, Orléans, ON K1E 3J1","postalcode":"K1E 3J1","website":"http://firstchoice.com","working_hour":"","latitude":"45.480177","longitude":"-75.511154"},{"source":"yellow page","service_name":"First Choice Haircutters","category":"beauty salon","phone":"6135907725","address":"15-2013 10Th Line Rd, Orleans, ON K4A 4C5","postalcode":"K4A 4C5","website":" ","working_hour":"","latitude":"45.459555","longitude":"-75.486982"},{"source":"yellow page","service_name":"Bettys Hair Brading Express","category":"beauty salon","phone":"613-890-4401","address":"1552 Thurlow St, Orleans, ON K4A 2K9","postalcode":"K4A 2K9","website":" ","working_hour":"","latitude":"45.478145","longitude":"-75.494785"},{"source":"yellow page","service_name":"Regis Salons","category":"beauty salon","phone":"6138343444","address":"110 place d'Orléans Dr, Orléans, ON K1C 2L9","postalcode":"K1C 2L9","website":" ","working_hour":"","latitude":"45.479578","longitude":"-75.51685"},{"source":"yellow page","service_name":"Melonhead","category":"beauty salon","phone":"6138451020","address":"0588-110 place d'Orléans Dr, Orléans, ON K1C 2L9","postalcode":"K1C 2L9","website":" ","working_hour":"","latitude":"45.479578","longitude":"-75.51685"},{"source":"yellow page","service_name":"Trendy Nails 2","category":"beauty salon","phone":"6138414724","address":"2023 10th Line Rd, Ottawa, ON K4A 4C5","postalcode":"K4A 4C5","website":"http://trendynail.com","working_hour":"","latitude":"45.460336","longitude":"-75.487034"},{"source":"yellow page","service_name":"Salon Alta Moda","category":"beauty salon","phone":"613-837-0999","address":"2866 St Joseph Blvd, Ottawa, ON","postalcode":"","website":" ","working_hour":"Monday 10:00 am - 7:00 pm   Tuesday 10:00 am - 7:00 pm   Wednesday 10:00 am - 7:00 pm   Thursday 10:00 am - 7:00 pm   Friday 10:00 am - 7:00 pm   Saturday 10:00 am - 6:00 pm","latitude":"45.474228","longitude":"-75.518908"},{"source":"yellow page","service_name":"Les Mains D'or Hair & Esthetics","category":"beauty salon","phone":"6138304224","address":"1675 10th Line Rd, Ottawa, ON K1E 3P6","postalcode":"K1E 3P6","website":" ","working_hour":"Monday 9:30 am - 7:00 pm   Tuesday 9:30 am - 7:00 pm   Wednesday 9:30 am - 8:00 pm   Thursday 9:30 am - 8:00 pm   Friday 9:30 am - 6:00 pm   Saturday 9:00 am - 3:00 pm","latitude":"45.468809","longitude":"-75.492399"},{"source":"yellow page","service_name":"Charisma Hair Design","category":"beauty salon","phone":"613-834-8985","address":"110 Place D'Orléans Dr, Orléans, ON K1C 2L9","postalcode":"K1C 2L9","website":" ","working_hour":"Monday 9:30 am - 9:00 pm   Tuesday 9:30 am - 9:00 pm   Wednesday 9:30 am - 9:00 pm   Thursday 9:30 am - 9:00 pm   Friday 9:30 am - 9:00 pm   Saturday 9:30 am - 9:00 pm   Sunday 11:00 am - 6:00 pm","latitude":"45.479578","longitude":"-75.51685"},{"source":"yellow page","service_name":"Onano Beauty","category":"beauty salon","phone":"6134248770","address":"306 Pintail Terr, Orleans, ON K1E 2A1","postalcode":"K1E 2A1","website":" ","working_hour":"Tuesday 9:00 am - 6:00 pm   Wednesday 9:00 am - 6:00 pm   Thursday 9:00 am - 6:00 pm   Friday 9:00 am - 6:00 pm   Saturday 10:00 am - 4:00 pm","latitude":"45.484811","longitude":"-75.507999"},{"source":"yellow page","service_name":"Magicuts","category":"beauty salon","phone":"613-834-2731","address":"470 Charlemagne Blvd, Orleans, ON K4A 1S2","postalcode":"K4A 1S2","website":"http://www.magicutssalons.com/","working_hour":"","latitude":"45.467678","longitude":"-75.489952"},{"source":"yellow page","service_name":"Expressions Hair Design","category":"beauty salon","phone":"613-841-8939","address":"375 des Epinettes Ave, Orleans, ON K1E 3E6","postalcode":"K1E 3E6","website":" ","working_hour":"","latitude":"45.465768","longitude":"-75.495287"},{"source":"yellow page","service_name":"Mane Attraction","category":"beauty salon","phone":"613-830-8668","address":"8154 Jeanne D'Arc Blvd N, Orleans, ON K1E 2H5","postalcode":"K1E 2H5","website":" ","working_hour":"","latitude":"45.4831698","longitude":"-75.5236687"},{"source":"yellow page","service_name":"Ambrida Salon","category":"beauty salon","phone":"6138371020","address":"110 place d'Orléans Drive, Orléans, ON K1C 2L9","postalcode":"K1C 2L9","website":" ","working_hour":"","latitude":"45.479578","longitude":"-75.51685"},{"source":"yellow page","service_name":"Elmvale Beauty Salon","category":"beauty salon","phone":"6137331531","address":"3-1910 St. Laurent Blvd, Ottawa, ON K1G 1A4","postalcode":"K1G 1A4","website":"http://www.ottawabarberdirectory.com","working_hour":"","latitude":"45.400051","longitude":"-75.62371"},{"source":"yellow page","service_name":"Roz Hair Design","category":"beauty salon","phone":"6136954247","address":"2401 Bank St, Ottawa, ON K1V 8R9","postalcode":"K1V 8R9","website":" ","working_hour":"","latitude":"45.354571","longitude":"-75.649422"},{"source":"yellow page","service_name":"Uppakuttz Beauty Salon","category":"beauty salon","phone":"613-526-2226","address":"1598 Walkley Rd, Ottawa, ON K1V 6P5","postalcode":"K1V 6P5","website":"http://ottawabeautysalondirectory.com","working_hour":"","latitude":"45.3773361","longitude":"-75.646114"},{"source":"yellow page","service_name":"Fadi's Hair Design","category":"beauty salon","phone":"6137370700","address":"15-2450 Lancaster Rd, Ottawa, ON K1B 5N3","postalcode":"K1B 5N3","website":" ","working_hour":"","latitude":"45.401781","longitude":"-75.619273"},{"source":"yellow page","service_name":"Hair Motion Spa","category":"beauty salon","phone":"6135260713","address":"7-1600 Walkley Rd, Ottawa, ON K1V 6P5","postalcode":"K1V 6P5","website":"http://hairmotionspa.wixsite.com/","working_hour":"","latitude":"45.3773631","longitude":"-75.6460483"},{"source":"yellow page","service_name":"Ebony Beauty Store","category":"beauty salon","phone":"6137338671","address":"32-1910 St. Laurent Blvd, Ottawa, ON K1G 1A4","postalcode":"K1G 1A4","website":" ","working_hour":"","latitude":"45.400051","longitude":"-75.62371"},{"source":"yellow page","service_name":"Shahla Hossein","category":"beauty salon","phone":"613-736-0007","address":"13 Taj Crt, Ottawa, ON K1G 5K7","postalcode":"K1G 5K7","website":"http://distinctive-designs.com","working_hour":"","latitude":"45.373546","longitude":"-75.60861"},{"source":"yellow page","service_name":"Alfonso Hair Creation & Esthetic","category":"beauty salon","phone":"613-737-7050","address":"1799 Kilborn Ave, Ottawa, ON K1H 6N1","postalcode":"K1H 6N1","website":" ","working_hour":"Tuesday 9:00 am - 6:00 pm   Wednesday 9:00 am - 6:00 pm   Thursday 9:00 am - 6:00 pm   Friday 9:00 am - 6:00 pm   Saturday 9:00 am - 5:00 pm","latitude":"45.3878852","longitude":"-75.6449471"},{"source":"yellow page","service_name":"Jasper Beauty Salon","category":"beauty salon","phone":"6132471309","address":"3190 Hawthorne Rd, Ottawa, ON K1G 5H5","postalcode":"K1G 5H5","website":" ","working_hour":"","latitude":"45.383999","longitude":"-75.602788"},{"source":"yellow page","service_name":"Heavenly Beauty Electrolysis","category":"beauty salon","phone":"6137945255","address":"1761 Bellmanor Crt, Ottawa, ON K1T 2V6","postalcode":"K1T 2V6","website":"http://www.heavenlybeautyelectrolysis.com","working_hour":"Monday 9:00 am - 5:00 pm   Tuesday 9:00 am - 5:00 pm   Wednesday 9:00 am - 5:00 pm   Thursday 9:00 am - 5:00 pm   Friday 9:00 am - 5:00 pm   Saturday 9:00 am - 5:00 pm","latitude":"45.350879","longitude":"-75.622537"},{"source":"yellow page","service_name":"Helen's Nail Spa And Unisex Hair Care","category":"beauty salon","phone":"6132860684","address":"2430 Bank St, Ottawa, ON K1V 0T7","postalcode":"K1V 0T7","website":" ","working_hour":"Tuesday 10:00 am - 7:00 pm   Wednesday 10:00 am - 7:00 pm   Thursday 10:00 am - 7:00 pm   Friday 10:00 am - 7:00 pm   Saturday 9:00 am - 5:00 pm   We Welcome Group And Private Parties. Please Call Us For Details.","latitude":"45.353997","longitude":"-75.648712"},{"source":"yellow page","service_name":"First Choice Haircutters","category":"beauty salon","phone":"6135264962","address":"4-2515 Bank St, Ottawa, ON K1V 8R9","postalcode":"K1V 8R9","website":" ","working_hour":"","latitude":"45.3539244","longitude":"-75.6439227"},{"source":"yellow page","service_name":"Euro Image Hair Studio","category":"beauty salon","phone":"613-733-3269","address":"2D-2895 Bank St, Gloucester, ON K1T 1N2","postalcode":"K1T 1N2","website":"http://ottawabeautysalondirectory.com","working_hour":"","latitude":"45.348714","longitude":"-75.627128"},{"source":"yellow page","service_name":"Vivaldi's Hair Design","category":"beauty salon","phone":"6137375557","address":"4000 Bridle Path Dr, Gloucester, ON K1T 2C4","postalcode":"K1T 2C4","website":" ","working_hour":"Monday 9:00 am - 5:00 pm   Tuesday 9:00 am - 5:00 pm   Wednesday 9:00 am - 5:00 pm   Thursday 9:00 am - 7:00 pm   Friday 9:00 am - 7:00 pm   Saturday 9:00 am - 5:00 pm","latitude":"45.348404","longitude":"-75.645425"},{"source":"yellow page","service_name":"Merio's Hair Designs","category":"beauty salon","phone":"6137373872","address":"2527 2527 Bank, Gloucester, ON K1T 1M8","postalcode":"K1T 1M8","website":" ","working_hour":"Monday 9:00 am - 6:00 pm   Tuesday 9:00 am - 6:00 pm   Wednesday 9:00 am - 6:00 pm   Thursday 9:00 am - 9:00 pm   Friday 9:00 am - 9:00 pm   Saturday 8:00 am - 4:00 pm","latitude":"45.354169","longitude":"-75.64185"},{"source":"yellow page","service_name":"Northern Lights Hair Salon","category":"beauty salon","phone":"6132490502","address":"2821 Bank St, Gloucester, ON K1T 1N2","postalcode":"K1T 1N2","website":" ","working_hour":"Monday 10:00 am - 9:00 pm   Tuesday 10:00 am - 9:00 pm   Wednesday 10:00 am - 9:00 pm   Thursday 10:00 am - 9:00 pm   Friday 10:00 am - 9:00 pm   Saturday 10:00 am - 6:00 pm","latitude":"45.350154","longitude":"-75.629642"},{"source":"yellow page","service_name":"Tony's Hair Studio","category":"beauty salon","phone":"6137388629","address":"2-3761 Albion Rd, Gloucester, ON K1T 1A6","postalcode":"K1T 1A6","website":" ","working_hour":"Monday 10:00 am - 7:00 pm   Tuesday 10:00 am - 7:00 pm   Wednesday 10:00 am - 7:00 pm   Thursday 10:00 am - 7:00 pm   Friday 10:00 am - 7:00 pm   Saturday 10:00 am - 6:00 pm","latitude":"45.346436","longitude":"-75.638746"},{"source":"yellow page","service_name":"Luika's Hair Design","category":"beauty salon","phone":"6137381420","address":"3-25 Tapiola Cres, Ottawa, ON K1T 2J7","postalcode":"K1T 2J7","website":" ","working_hour":"Monday 9:00 am - 6:00 pm   Tuesday 9:00 am - 6:00 pm   Wednesday 9:00 am - 7:30 pm   Thursday 9:00 am - 8:00 pm   Friday 9:00 am - 8:00 pm   Saturday 8:00 am - 4:00 pm","latitude":"45.363886","longitude":"-75.647422"},{"source":"yellow page","service_name":"First Choice Haircutters","category":"beauty salon","phone":"6132602681","address":"1910 St. Laurent Blvd, Ottawa, ON K1G 1A4","postalcode":"K1G 1A4","website":" ","working_hour":"","latitude":"45.400051","longitude":"-75.62371"},{"source":"yellow page","service_name":"Sirena's Day Spa & Salon","category":"beauty salon","phone":"6135232500","address":"2277 Riverside Dr, Ottawa, ON K1H 7X6","postalcode":"K1H 7X6","website":"http://www.sirenasspa.ca","working_hour":"","latitude":"45.3867005","longitude":"-75.6799921"},{"source":"yellow page","service_name":"Supreme Hair Design & Esthetics","category":"beauty salon","phone":"3437001099","address":"2269 Riverside Dr, Ottawa, ON K1H 8K2","postalcode":"K1H 8K2","website":" ","working_hour":"Monday 9:00 am - 9:00 pm   Tuesday 9:00 am - 9:00 pm   Wednesday 9:00 am - 9:00 pm   Thursday 9:00 am - 9:00 pm   Friday 9:00 am - 9:00 pm   Saturday 9:00 am - 6:00 pm   Sunday 11:00 am - 5:00 pm","latitude":"45.3867478","longitude":"-75.6797883"},{"source":"yellow page","service_name":"First Choice Haircutters","category":"beauty salon","phone":"6135231727","address":"1717 Bank St, Ottawa, ON K1V 7Z5","postalcode":"K1V 7Z5","website":" ","working_hour":"","latitude":"45.374606","longitude":"-75.665473"},{"source":"yellow page","service_name":"Supreme Hair Design","category":"beauty salon","phone":"613-731-1072","address":"2277 Riverside Dr, Ottawa, ON K1H 7X6","postalcode":"K1H 7X6","website":" ","working_hour":"Monday 9:30 am - 9:00 pm   Tuesday 9:30 am - 9:00 pm   Wednesday 9:30 am - 9:00 pm   Thursday 9:30 am - 9:00 pm   Friday 9:30 am - 9:00 pm   Saturday 9:30 am - 6:00 pm   Sunday 11:00 am - 5:00 pm","latitude":"45.3867005","longitude":"-75.6799921"},{"source":"yellow page","service_name":"Andre's Hair Design","category":"beauty salon","phone":"6135260888","address":"1724 Bank St, Ottawa, ON K1V 7Y6","postalcode":"K1V 7Y6","website":"http://andrehairdesign.com","working_hour":"","latitude":"45.37448","longitude":"-75.665405"},{"source":"yellow page","service_name":"Trendy Nails","category":"beauty salon","phone":"613-260-2300","address":"2277 Riverside Dr, Ottawa, ON K1H 7X6","postalcode":"K1H 7X6","website":"http://www.trendynail.com","working_hour":"","latitude":"45.3867005","longitude":"-75.6799921"},{"source":"yellow page","service_name":"Maxime Beauty Salon","category":"beauty salon","phone":"613-737-5779","address":"2702 Alta Vista Dr, Ottawa, ON K1V 7T4","postalcode":"K1V 7T4","website":" ","working_hour":"Monday 9:00 am - 7:00 pm   Tuesday 9:00 am - 7:00 pm   Wednesday 9:00 am - 7:00 pm   Thursday 9:00 am - 7:00 pm   Friday 9:00 am - 7:00 pm   Saturday 10:00 am - 7:00 pm","latitude":"45.372963","longitude":"-75.663991"},{"source":"yellow page","service_name":"New Beauty Trends","category":"beauty salon","phone":"613-979-8548","address":"1800 Bank St, Ottawa, ON K1V 0W3","postalcode":"K1V 0W3","website":" ","working_hour":"","latitude":"45.372229","longitude":"-75.664258"},{"source":"yellow page","service_name":"Precision Styling","category":"beauty salon","phone":"6135236594","address":"2277 Riverside Dr, Ottawa, ON K1H 7X6","postalcode":"K1H 7X6","website":"http://precisionstyling.ca","working_hour":"","latitude":"45.3867005","longitude":"-75.6799921"},{"source":"yellow page","service_name":"Fluid Colour Concepts Salon","category":"beauty salon","phone":"613-237-1109","address":"1171 Bank St, Ottawa, ON K1S 3X7","postalcode":"K1S 3X7","website":" ","working_hour":"","latitude":"45.392217","longitude":"-75.6818118"},{"source":"yellow page","service_name":"Sawma Haute Coiffure","category":"beauty salon","phone":"6133216425","address":"2277 Riverside Dr, Ottawa, ON K1H 7X6","postalcode":"K1H 7X6","website":"http://sawmahautecoiffure.com","working_hour":"","latitude":"45.3867005","longitude":"-75.6799921"},{"source":"yellow page","service_name":"Signature Hair Gallery","category":"beauty salon","phone":"613-733-1330","address":"1183 Bank St, Ottawa, ON K1S 3X7","postalcode":"K1S 3X7","website":" ","working_hour":"Monday 9:30 am - 6:00 pm   Tuesday 9:30 am - 6:00 pm   Wednesday 9:30 am - 6:00 pm   Thursday 9:30 am - 6:00 pm   Friday 9:00 am - 4:00 pm","latitude":"45.3920861","longitude":"-75.6816557"},{"source":"yellow page","service_name":"The Hair Boutique","category":"beauty salon","phone":"6135263656","address":"2277 Riverside Dr, Ottawa, ON K1H 7X6","postalcode":"K1H 7X6","website":"http://www.hairboutique.com","working_hour":"","latitude":"45.3867005","longitude":"-75.6799921"},{"source":"yellow page","service_name":"Select One Nails","category":"beauty salon","phone":"613-526-9811","address":"2673 Alta Vista Dr, Ottawa, ON K1V 7T5","postalcode":"K1V 7T5","website":"http://www.selectonenails.com/","working_hour":"Monday 10:00 am - 7:00 pm   Tuesday 10:00 am - 7:00 pm   Wednesday 10:00 am - 7:00 pm   Thursday 10:00 am - 7:00 pm   Friday 10:00 am - 8:00 pm   Saturday 10:00 am - 6:00 pm   Sunday 12:00 pm - 5:00 pm","latitude":"45.3731672","longitude":"-75.6633065"},{"source":"yellow page","service_name":"May's Motion","category":"beauty salon","phone":"613-737-2009","address":"1800 Rue Bank, Ottawa, ON K1V 0W3","postalcode":"K1V 0W3","website":" ","working_hour":"","latitude":"45.372229","longitude":"-75.664258"},{"source":"yellow page","service_name":"Canterbury Beauty Salon","category":"beauty salon","phone":"6137315529","address":"2205 Arch St, Ottawa, ON K1G 2H5","postalcode":"K1G 2H5","website":" ","working_hour":"Tuesday 9:00 am - 5:00 pm   Wednesday 9:00 am - 6:00 pm   Thursday 9:00 am - 8:00 pm   Friday 9:00 am - 5:00 pm   Saturday 9:00 am - 2:00 pm","latitude":"45.3905573","longitude":"-75.6307423"},{"source":"yellow page","service_name":"Estephan Hair Design","category":"beauty salon","phone":"6137331549","address":"1846 Bank St, Ottawa, ON K1V 7Y6","postalcode":"K1V 7Y6","website":" ","working_hour":"","latitude":"45.3709875","longitude":"-75.6636815"},{"source":"yellow page","service_name":"Miss Gails Hair","category":"beauty salon","phone":"613-789-3000","address":"1245 Walkley Rd, Ottawa, ON K1V 9S5","postalcode":"K1V 9S5","website":" ","working_hour":"","latitude":"45.371421","longitude":"-75.660759"},{"source":"yellow page","service_name":"Modern Hairstyling Shop","category":"beauty salon","phone":"6137300105","address":"1148 Bank St, Ottawa, ON K1S 3X6","postalcode":"K1S 3X6","website":" ","working_hour":"Monday 12:00 pm - 5:00 pm   Tuesday 12:00 pm - 5:00 pm   Wednesday 12:00 pm - 5:00 pm   Thursday 12:00 pm - 5:00 pm   Friday 9:00 am - 6:00 pm   Saturday 9:00 am - 4:00 pm","latitude":"45.3930136","longitude":"-75.6826199"},{"source":"yellow page","service_name":"Sonia Beauty","category":"beauty salon","phone":"6138060806","address":"1196 Bank St, Ottawa, ON K1S 3Y1","postalcode":"K1S 3Y1","website":" ","working_hour":"Tuesday 10:00 am - 6:00 pm   Wednesday 10:00 am - 6:00 pm   Thursday 10:00 am - 6:00 pm   Friday 10:00 am - 6:00 pm   Saturday 10:00 am - 6:00 pm","latitude":"45.3917453","longitude":"-75.681273"},{"source":"yellow page","service_name":"First Choice Haircutters","category":"beauty salon","phone":"6137455986","address":"355 Montreal Rd, Vanier, ON K1L 6B1","postalcode":"K1L 6B1","website":" ","working_hour":"","latitude":"45.438342","longitude":"-75.655224"},{"source":"yellow page","service_name":"Lafleur Des Antilles","category":"beauty salon","phone":"613-741-1753","address":"351 Montreal Rd, Vanier, ON K1L 6B1","postalcode":"K1L 6B1","website":" ","working_hour":"","latitude":"45.438119","longitude":"-75.655882"},{"source":"yellow page","service_name":"Studio Deux Filles","category":"beauty salon","phone":"819-600-3005","address":"827, rue Saint-Louis, Gatineau, QC J8T 2S7","postalcode":"J8T 2S7","website":" ","working_hour":"","latitude":"45.4692583","longitude":"-75.6846178"},{"source":"yellow page","service_name":"Hair Choice Unisex","category":"beauty salon","phone":"6137489292","address":"217 Montreal Rd, Vanier, ON K1L 6C8","postalcode":"K1L 6C8","website":" ","working_hour":"","latitude":"45.4355981","longitude":"-75.662863"},{"source":"yellow page","service_name":"Medjo-Da Hair Cutting","category":"beauty salon","phone":"613-749-2522","address":"113 Beechwood Ave, Ottawa, ON K1M 1L6","postalcode":"K1M 1L6","website":" ","working_hour":"Monday 10:00 am - 7:00 pm   Tuesday 10:00 am - 7:00 pm   Wednesday 10:00 am - 7:00 pm   Thursday 10:00 am - 7:00 pm   Friday 10:00 am - 7:00 pm   Saturday 10:00 am - 6:00 pm","latitude":"45.441451","longitude":"-75.673059"},{"source":"yellow page","service_name":"Blush Beauty Boutique","category":"beauty salon","phone":"613-617-6632","address":"184 Laval Street, Ottawa, ON K1L 7Z4","postalcode":"K1L 7Z4","website":" ","working_hour":"Monday 10:00 am - 5:00 pm   Tuesday 10:00 am - 5:00 pm   Wednesday 10:00 am - 5:00 pm   Thursday 10:00 am - 7:00 pm   Friday 10:00 am - 7:00 pm   Saturday 10:00 am - 4:00 pm   Sunday 10:00 am - 4:00 pm","latitude":"45.441461","longitude":"-75.670466"},{"source":"yellow page","service_name":"Kim'z Salon","category":"beauty salon","phone":"613-740-0523","address":"617 St. Laurent Blvd, Ottawa, ON K1K 3A3","postalcode":"K1K 3A3","website":" ","working_hour":"","latitude":"45.44018","longitude":"-75.646246"},{"source":"yellow page","service_name":"Touch Of Style","category":"beauty salon","phone":"613-746-0858","address":"310 Montreal Rd, Vanier, ON K1L 6B5","postalcode":"K1L 6B5","website":" ","working_hour":"Monday 9:00 am - 7:00 pm   Tuesday 9:00 am - 7:00 pm   Wednesday 9:00 am - 7:00 pm   Thursday 9:00 am - 7:00 pm   Friday 9:00 am - 7:00 pm","latitude":"45.437548","longitude":"-75.657654"},{"source":"yellow page","service_name":"Caroline Esthetics and Hair","category":"beauty salon","phone":"6137448313","address":"106-1090 Kristin Way, Ottawa, ON K1K 4B6","postalcode":"K1K 4B6","website":" ","working_hour":"","latitude":"45.443744","longitude":"-75.64329"},{"source":"yellow page","service_name":"Casino Coiffure","category":"beauty salon","phone":"819-243-8086","address":"42, rue Raoul, Gatineau, QC J8T 2H1","postalcode":"J8T 2H1","website":" ","working_hour":"","latitude":"45.466939","longitude":"-75.689067"},{"source":"yellow page","service_name":"Thi Beechwood Oasis Spa","category":"beauty salon","phone":"613-746-6777","address":"64 Beechwood Ave, Vanier, ON K1L 8B2","postalcode":"K1L 8B2","website":"http://www.beechwoodoasis.com","working_hour":"","latitude":"45.440261","longitude":"-75.675252"},{"source":"yellow page","service_name":"New Edinburgh Hairstyling & Spa","category":"beauty salon","phone":"6137492116","address":"131 Crichton St, Ottawa, ON K1M 1V8","postalcode":"K1M 1V8","website":" ","working_hour":"Tuesday 9:00 am - 7:00 pm   Wednesday 9:00 am - 7:00 pm   Thursday 9:00 am - 7:00 pm   Friday 9:00 am - 7:00 pm   Saturday 9:00 am - 4:00 pm   Hair services offered evenings by appointment","latitude":"45.4405981","longitude":"-75.6862565"},{"source":"yellow page","service_name":"Euro-Spa Hair & Esthetics","category":"beauty salon","phone":"6137412894","address":"285 Palace St, Vanier, ON K1L 7V5","postalcode":"K1L 7V5","website":"http://euro-spa.ca","working_hour":"","latitude":"45.43353","longitude":"-75.66701"},{"source":"yellow page","service_name":"Salon Selectrive","category":"beauty salon","phone":"613-741-2497","address":"515 St. Laurent Blvd, Ottawa, ON K1K 3X5","postalcode":"K1K 3X5","website":" ","working_hour":"Monday 10:00 am - 7:00 pm   Tuesday 10:00 am - 7:00 pm   Wednesday 10:00 am - 7:00 pm   Thursday 10:00 am - 7:00 pm   Friday 10:00 am - 7:00 pm   Saturday 10:00 am - 7:00 pm","latitude":"45.44404","longitude":"-75.648511"},{"source":"yellow page","service_name":"Salon Bernard Unisexe","category":"beauty salon","phone":"613-741-9996","address":"Hillside Plaza, Ottawa, ON K1K 4K3","postalcode":"K1K 4K3","website":" ","working_hour":"","latitude":"45.442434","longitude":"-75.643412"},{"source":"yellow page","service_name":"Coiffure du Progrès","category":"beauty salon","phone":"8192814185","address":"90 Rue du Progrès, Ottawa-Gatineau Metro Area, QC J8T 2C4","postalcode":"J8T 2C4","website":" ","working_hour":"Tuesday 9:00 am - 5:30 pm   Wednesday 9:00 am - 5:30 pm   Thursday 9:00 am - 8:30 pm   Friday 9:00 am - 7:00 pm   Saturday 9:00 am - 3:30 pm","latitude":"45.467758","longitude":"-75.690098"},