{"table":[{"source":"yellow page","service_name":"Mj's Kitchen And Bath Co","category":"cabinet","phone":"613-623-2626","address":"53 James St, Arnprior, ON K7S 1C9","postalcode":"K7S 1C9","website":" ","working_hour":"","latitude":"45.427205","longitude":"-76.356532"},{"source":"yellow page","service_name":"The Korner Hutch","category":"cabinet","phone":"613-432-9324","address":"176 Raglan St S, Renfrew, ON K7V 1R1","postalcode":"K7V 1R1","website":"http://www.kornerhutch.com","working_hour":"Monday 7:30 am - 4:00 pm   Tuesday 7:30 am - 4:00 pm   Wednesday 7:30 am - 4:00 pm   Thursday 7:30 am - 4:00 pm   Friday 7:30 am - 4:00 pm","latitude":"45.472174","longitude":"-76.684411"},{"source":"yellow page","service_name":"Deslaurier Custom Cabinets","category":"cabinet","phone":"613-432-3781","address":"550 Hall Ave E, Renfrew, ON K7V 2S9","postalcode":"K7V 2S9","website":" ","working_hour":"","latitude":"45.47606","longitude":"-76.669568"},{"source":"yellow page","service_name":"Sandy Beach Cabinetry","category":"cabinet","phone":"613-623-0576","address":"68 Carlea Rd, Braeside, ON K0A 1G0","postalcode":"K0A 1G0","website":" ","working_hour":"","latitude":"45.461878","longitude":"-76.415908"},{"source":"yellow page","service_name":"Stay On Deck","category":"cabinet","phone":"613-832-9000","address":"3976 Hwy 17, Kinburn, ON K0A 2H0","postalcode":"K0A 2H0","website":"http://stayondeck.com","working_hour":"Monday 9:00 am - 5:00 pm   Tuesday 9:00 am - 5:00 pm   Wednesday 9:00 am - 5:00 pm   Thursday 9:00 am - 5:00 pm   Friday 9:00 am - 5:00 pm","latitude":"45.374022","longitude":"-76.236338"},{"source":"yellow page","service_name":"Calabogie Rustic Furniture","category":"cabinet","phone":"6137521150","address":"5258 Murphy Rd RR 2, Calabogie, ON K0J 1H0","postalcode":"K0J 1H0","website":" ","working_hour":"","latitude":"45.315591","longitude":"-76.726555"},{"source":"yellow page","service_name":"The Square Nail","category":"cabinet","phone":"613-408-6245","address":"402 Lower Spruce Hedge Rd, Burnstown, ON K0J 1G0","postalcode":"K0J 1G0","website":" ","working_hour":"","latitude":"45.372244","longitude":"-76.590742"},{"source":"yellow page","service_name":"Delauriers Custom Cabinets","category":"cabinet","phone":"6134339383","address":"1 Innovation Dr, Renfrew, ON K7V 3Z4","postalcode":"K7V 3Z4","website":"http://deslaurier.ca","working_hour":"Monday 9:00 am - 5:00 pm   Tuesday 9:00 am - 5:00 pm   Wednesday 9:00 am - 5:00 pm   Thursday 9:00 am - 8:00 pm   Friday 9:00 am - 5:00 pm   Saturday 10:00 am - 4:00 pm","latitude":"45.485124","longitude":"-76.560318"},{"source":"yellow page","service_name":"Wooden Wheel Workshop","category":"cabinet","phone":"613-256-3357","address":"2250 Peter Robinson Rd RR 4, Carp, ON K0A 1L0","postalcode":"K0A 1L0","website":" ","working_hour":"","latitude":"45.3042711","longitude":"-76.1477471"},{"source":"yellow page","service_name":"Bosa's Cabinets","category":"cabinet","phone":"1-844-330-5932","address":"198 Russett Dr, Arnprior, ON K7S 3G8","postalcode":"K7S 3G8","website":" ","working_hour":"Monday 9:00 am - 5:00 pm   Tuesday 9:00 am - 5:00 pm   Wednesday 9:00 am - 5:00 pm   Thursday 9:00 am - 5:00 pm   Friday 9:00 am - 5:00 pm   Appointment Only","latitude":"45.420997","longitude":"-76.386323"},{"source":"yellow page","service_name":"Beck Glen","category":"cabinet","phone":"613-623-0213","address":"2322 Galetta Side Rd RR 1, Fitzroy Harbour, ON K0A 1X0","postalcode":"K0A 1X0","website":" ","working_hour":"Monday 9:00 am - 5:00 pm   Tuesday 9:00 am - 5:00 pm   Wednesday 9:00 am - 5:00 pm   Thursday 9:00 am - 5:00 pm   Friday 9:00 am - 5:00 pm","latitude":"45.461538","longitude":"-76.195189"},{"source":"yellow page","service_name":"garyandronskitchens.com","category":"cabinet","phone":"613-646-2006","address":"11 Crawford, Cobden, ON K0J 1K0","postalcode":"K0J 1K0","website":" ","working_hour":"Monday 8:00 am - 5:00 pm   Tuesday 8:00 am - 5:00 pm   Wednesday 8:00 am - 5:00 pm   Thursday 8:00 am - 5:00 pm   Friday 8:00 am - 3:00 pm","latitude":"45.602805","longitude":"-76.87183"},{"source":"yellow page","service_name":"Eagle Creek Cabinet Co","category":"cabinet","phone":"613-623-0213","address":"2322 Galetta Side Rd, Fitzroy Harbour, ON K0A 1X0","postalcode":"K0A 1X0","website":"http://www.eaglecreekcabinetcompany.com/","working_hour":"Monday 9:00 am - 5:00 pm   Tuesday 9:00 am - 5:00 pm   Wednesday 9:00 am - 5:00 pm   Thursday 9:00 am - 5:00 pm   Friday 9:00 am - 5:00 pm","latitude":"45.461538","longitude":"-76.195189"},{"source":"yellow page","service_name":"McPhail & Perkins Furniture","category":"cabinet","phone":"613-432-4442","address":"142 Raglan St S, Renfrew, ON K7V 1R1","postalcode":"K7V 1R1","website":"http://www.mandpfurniture.ca","working_hour":"","latitude":"45.472679","longitude":"-76.685049"},{"source":"yellow page","service_name":"Bode's Custom Cabinets","category":"cabinet","phone":"613-622-1221","address":"49 Jackson Lane, Arnprior, ON K7S 3G8","postalcode":"K7S 3G8","website":" ","working_hour":"Monday 7:00 am - 4:30 pm   Tuesday 7:00 am - 4:30 pm   Wednesday 7:00 am - 4:30 pm   Thursday 7:00 am - 4:30 pm   Friday 7:00 am - 12:00 pm","latitude":"45.431675","longitude":"-76.391616"},{"source":"yellow page","service_name":"Antiques Etcetera","category":"cabinet","phone":"6136220611","address":"28 Elgin St W, Arnprior, ON K7S 1N3","postalcode":"K7S 1N3","website":"http://www.antiquesetc.ca","working_hour":"Monday 10:00 am - 5:00 pm   Tuesday 10:00 am - 5:00 pm   Wednesday 10:00 am - 5:00 pm   Thursday 10:00 am - 5:00 pm   Friday 10:00 am - 5:00 pm   Saturday 10:00 am - 5:00 pm   Sunday 10:00 am - 5:00 pm","latitude":"45.433239","longitude":"-76.3540591"},{"source":"yellow page","service_name":"Robertson's Furniture","category":"cabinet","phone":"613-623-2370","address":"137 John St N, Arnprior, ON K7S 2N5","postalcode":"K7S 2N5","website":" ","working_hour":"","latitude":"45.4342216","longitude":"-76.3536758"},{"source":"yellow page","service_name":"The Store Next Door","category":"cabinet","phone":"613-646-9888","address":"49 Main, Cobden, ON K0J 1K0","postalcode":"K0J 1K0","website":"http://www.storenextdoor.com/","working_hour":"","latitude":"45.602805","longitude":"-76.87183"},{"source":"yellow page","service_name":"Acre Edge Cabinet","category":"cabinet","phone":"613-312-7409","address":"3024 Queensline Rd, Foresters Falls, ON K0J 1V0","postalcode":"K0J 1V0","website":" ","working_hour":"Monday 9:00 am - 5:00 pm   Tuesday 9:00 am - 5:00 pm   Wednesday 9:00 am - 5:00 pm   Thursday 9:00 am - 5:00 pm   Friday 9:00 am - 5:00 pm   Appointment Only","latitude":"45.629425","longitude":"-76.766581"},{"source":"yellow page","service_name":"Muskoka Cabinet Company","category":"cabinet","phone":"6136794360","address":"4983 County Road 17 RR 1, Alfred, ON K0B 1A0","postalcode":"K0B 1A0","website":"http://www.muskokacabco.com","working_hour":"Monday 10:00 pm - 4:00 pm   Tuesday 10:00 pm - 4:00 pm   Wednesday 10:00 pm - 4:00 pm   Thursday 10:00 pm - 4:00 pm   Friday 10:00 pm - 4:00 pm   Appointments available: Saturday.","latitude":"45.5521248","longitude":"-74.9036691"},{"source":"yellow page","service_name":"Cusson Woodworker","category":"cabinet","phone":"613-675-4441","address":"135 Longueuil, L'Orignal, ON K0B 1K0","postalcode":"K0B 1K0","website":" ","working_hour":"24 hours a day - 7 days a week","latitude":"45.590043","longitude":"-74.801821"},{"source":"yellow page","service_name":"F Roussin Refinition de Meuble","category":"cabinet","phone":"8199235847","address":"1004 Côte du Front, Montebello, QC J0V 1L0","postalcode":"J0V 1L0","website":" ","working_hour":"Monday 9:00 am - 5:00 pm   Tuesday 9:00 am - 5:00 pm   Wednesday 9:00 am - 5:00 pm   Thursday 9:00 am - 5:00 pm   Friday 9:00 am - 5:00 pm   Appointment Only   Emergency Appointments Available","latitude":"45.6514724","longitude":"-74.9117052"},{"source":"yellow page","service_name":"Brandsource Home Furnishings","category":"cabinet","phone":"613-525-3692","address":"369 Alexandria Main N, Alexandria, ON K0C 1A0","postalcode":"K0C 1A0","website":"http://www.brandsource.ca/","working_hour":"","latitude":"45.356868","longitude":"-74.605001"},{"source":"yellow page","service_name":"Les Armoires Séguin","category":"cabinet","phone":"613-679-4646","address":"505 St-Philippe, Alfred, ON K0B 1A0","postalcode":"K0B 1A0","website":"http://www.lesarmoiresseguin.com/","working_hour":"Monday 9:00 am - 5:00 pm   Tuesday 9:00 am - 5:00 pm   Wednesday 9:00 am - 5:00 pm   Thursday 9:00 am - 5:00 pm   Friday 9:00 am - 5:00 pm","latitude":"45.556892","longitude":"-74.886208"},{"source":"yellow page","service_name":"Casselman Wood Craft","category":"cabinet","phone":"613-764-2059","address":"682 Montcalm St, Casselman, ON K0A 1M0","postalcode":"K0A 1M0","website":" ","working_hour":"Appointment Only","latitude":"45.3151541","longitude":"-75.0908284"},{"source":"yellow page","service_name":"Gemini Projects","category":"cabinet","phone":"6134872138","address":"3474 ch Bouvier RR 1, Bourget, ON K0A 1E0","postalcode":"K0A 1E0","website":"http://www.geminiprojects.ca","working_hour":"","latitude":"45.462913","longitude":"-75.164286"},{"source":"yellow page","service_name":"Louis L'Artisan","category":"cabinet","phone":"613-487-2264","address":"26 Lavigne, Bourget, ON K0A 1E0","postalcode":"K0A 1E0","website":"http://www.louislartisan.com","working_hour":"Monday 7:00 am - 5:00 pm   Tuesday 7:00 am - 5:00 pm   Wednesday 7:00 am - 5:00 pm   Thursday 7:00 am - 5:00 pm   Friday 7:00 am - 3:00 pm","latitude":"45.4355084","longitude":"-75.1633681"},{"source":"yellow page","service_name":"Meuble Home Furniture","category":"cabinet","phone":"1-877-955-0755","address":"4507 Ste-Catherine Street, St Isidore, ON K0C 2B0","postalcode":"K0C 2B0","website":"http://www.homefurniture.ca","working_hour":"Monday 9:00 am - 5:30 pm   Tuesday 9:00 am - 5:30 pm   Wednesday 9:00 am - 5:30 pm   Thursday 9:00 am - 8:00 pm   Friday 9:00 am - 5:30 pm   Saturday 9:00 am - 4:00 pm","latitude":"45.388508","longitude":"-74.879222"},{"source":"yellow page","service_name":"Les Armoiries Seguin","category":"cabinet","phone":"613-679-4646","address":"505 St-Philippe, ON K0B 1A0","postalcode":"K0B 1A0","website":" ","working_hour":"","latitude":"45.608845","longitude":"-74.801391"},{"source":"yellow page","service_name":"Arbotech Enr","category":"cabinet","phone":"8194278341","address":"1755-148 Route, Papineauville, QC J0V 1R0","postalcode":"J0V 1R0","website":" ","working_hour":"","latitude":"45.613916","longitude":"-75.05508"},{"source":"yellow page","service_name":"Atelier du Meuble Rustique","category":"cabinet","phone":"819-427-5995","address":"1600-148 Rte RR 1, Papineauville, QC J0V 1R0","postalcode":"J0V 1R0","website":"http://www.ateliermeublerustique.com","working_hour":"","latitude":"45.613916","longitude":"-75.05508"},{"source":"yellow page","service_name":"Cabinet d'assurance Hébert et Fils","category":"cabinet","phone":"819-427-6717","address":"1-216 Henri-Bourassa, Papineauville, QC J0V 1R0","postalcode":"J0V 1R0","website":" ","working_hour":"","latitude":"45.621213","longitude":"-75.016671"},{"source":"yellow page","service_name":"L.A. Forgues Woodwork","category":"cabinet","phone":"1-844-206-6299","address":"17094 McLean Rd, Moose Creek, ON K0C 1W0","postalcode":"K0C 1W0","website":" ","working_hour":"Monday 7:30 am - 4:30 pm   Tuesday 7:30 am - 4:30 pm   Wednesday 7:30 am - 4:30 pm   Thursday 7:30 am - 4:30 pm   Friday 7:30 am - 4:30 pm","latitude":"45.2621958728","longitude":"-74.9697290645"},{"source":"yellow page","service_name":"Home Furniture","category":"cabinet","phone":"1-855-565-0238","address":"4507 St-Catherine Street, St Isidore, ON K0C 2B0","postalcode":"K0C 2B0","website":"http://www.homefurniture.ca","working_hour":"Monday 9:00 am - 5:30 pm   Tuesday 9:00 am - 5:30 pm   Wednesday 9:00 am - 5:30 pm   Thursday 9:00 am - 8:00 pm   Friday 9:00 am - 5:30 pm   Saturday 9:00 am - 4:00 pm","latitude":"45.388508","longitude":"-74.879222"},{"source":"yellow page","service_name":"St Isidore Kitchens","category":"cabinet","phone":"613-524-5282","address":"11 St Denis, St Isidore, ON K0C 2B0","postalcode":"K0C 2B0","website":"http://stisidorekitchens.ca","working_hour":"","latitude":"45.3822414","longitude":"-74.9016978"},{"source":"yellow page","service_name":"Accent Meubles Levac Furniture","category":"cabinet","phone":"613-306-2294","address":"5676 Hwy 34, Vankleek Hill, ON K0B 1R0","postalcode":"K0B 1R0","website":" ","working_hour":"Monday 8:30 am - 5:30 pm   Tuesday 8:30 am - 5:30 pm   Wednesday 8:30 am - 5:30 pm   Thursday 8:30 am - 7:00 pm   Friday 8:30 am - 8:00 pm   Saturday 8:30 am - 4:00 pm","latitude":"45.5252862","longitude":"-74.6491302"},{"source":"yellow page","service_name":"The Cabinet Guy","category":"cabinet","phone":"613-913-1703","address":"18192 Conc Rd 16, Maxville, ON K0C 1T0","postalcode":"K0C 1T0","website":" ","working_hour":"Monday 8:00 am - 5:00 pm   Tuesday 8:00 am - 5:00 pm   Wednesday 8:00 am - 5:00 pm   Thursday 8:00 am - 5:00 pm   Friday 8:00 am - 5:00 pm","latitude":"45.261934","longitude":"-74.87893"},{"source":"yellow page","service_name":"Bois Hobby Lumber","category":"cabinet","phone":"819-423-5823","address":"121 Principale, Fassett, QC J0V 1H0","postalcode":"J0V 1H0","website":"http://www.boishobbylumber.com","working_hour":"Appointment Only","latitude":"45.6432861","longitude":"-74.8611287"},{"source":"yellow page","service_name":"Harbers Millwork","category":"cabinet","phone":"613-802-8206","address":"2695 Charters St, Metcalfe, ON K0A 2P0","postalcode":"K0A 2P0","website":" ","working_hour":"","latitude":"45.234501","longitude":"-75.469302"},{"source":"yellow page","service_name":"Cedar Ridge Designs Inc","category":"cabinet","phone":"1-844-254-5248","address":"18331 Kenyon Conc Rd 8, Maxville, ON K0C 1T0","postalcode":"K0C 1T0","website":"http://www.cedarridgedesigns.ca","working_hour":"Monday 8:00 am - 5:00 pm   Tuesday 8:00 am - 5:00 pm   Wednesday 8:00 am - 5:00 pm   Thursday 8:00 am - 5:00 pm   Friday 8:00 am - 5:00 pm","latitude":"45.317155","longitude":"-74.864147"},{"source":"yellow page","service_name":"Hamilton Customs Cabinets","category":"cabinet","phone":"613-989-1162","address":"10480 Pleasant Valley Rd RR 1, South Mountain, ON K0E 1W0","postalcode":"K0E 1W0","website":" ","working_hour":"","latitude":"44.959731","longitude":"-75.44042"},{"source":"yellow page","service_name":"Clear Cut Installations","category":"cabinet","phone":"1-800-561-4206","address":"10616 Main St, South Mountain, ON","postalcode":"","website":"http://www.clearcutinstallations.com","working_hour":"Monday 7:00 am - 5:00 pm   Tuesday 7:00 am - 5:00 pm   Wednesday 7:00 am - 5:00 pm   Thursday 7:00 am - 5:00 pm   Friday 7:00 am - 5:00 pm   Saturday 9:00 am - 2:00 pm","latitude":"44.9911592","longitude":"-75.4493381"},{"source":"yellow page","service_name":"CFC Custom Finish & Cabinets","category":"cabinet","phone":"613-321-1768","address":"6441 Bank St RR 3, Metcalfe, ON K0A 2P0","postalcode":"K0A 2P0","website":" ","working_hour":"","latitude":"45.250599","longitude":"-75.535139"},{"source":"yellow page","service_name":"Morrisburg Building Centre","category":"cabinet","phone":"1-855-220-9665","address":"12445 County Rd 2 E, Morrisburg, ON K0C 1X0","postalcode":"K0C 1X0","website":"http://www.yourbuildingcentre.com","working_hour":"Monday 7:30 am - 5:00 pm   Tuesday 7:30 am - 5:00 pm   Wednesday 7:30 am - 5:00 pm   Thursday 7:30 am - 5:00 pm   Friday 7:30 am - 5:00 pm   Saturday 8:00 am - 4:00 pm","latitude":"44.936041","longitude":"-75.200671"},{"source":"yellow page","service_name":"Clear Cut Installations","category":"cabinet","phone":"343-700-3942","address":"10616 Main St, South Mountain, ON K0E 1W0","postalcode":"K0E 1W0","website":"http://www.clearcutinstallations.com","working_hour":"Monday 7:00 am - 5:00 pm   Tuesday 7:00 am - 5:00 pm   Wednesday 7:00 am - 5:00 pm   Thursday 7:00 am - 5:00 pm   Friday 7:00 am - 5:00 pm   Saturday 9:00 am - 2:00 pm","latitude":"44.9911592","longitude":"-75.4493381"},{"source":"yellow page","service_name":"Claro Cabinet Manufacturing","category":"cabinet","phone":"613-448-2755","address":"13-13260 County Rd, Winchester, ON K0C 2K0","postalcode":"K0C 2K0","website":" ","working_hour":"","latitude":"45.071436","longitude":"-75.310447"},{"source":"yellow page","service_name":"Stripall","category":"cabinet","phone":"613-534-8494","address":"16460 County Rd 36, Long Sault, ON K0C 1P0","postalcode":"K0C 1P0","website":"http://www.stripall.com","working_hour":"","latitude":"45.048067","longitude":"-74.852689"},{"source":"yellow page","service_name":"Castor River Woodworks","category":"cabinet","phone":"613-795-0023","address":"3007 9th Line Rd, Metcalfe, ON K0A 2P0","postalcode":"K0A 2P0","website":" ","working_hour":"","latitude":"45.240439","longitude":"-75.413115"},{"source":"yellow page","service_name":"Sawmill Oak Kitchen Custom Doors Inc","category":"cabinet","phone":"613-258-7409","address":"17 Precision Dr RR 3, Kemptville, ON K0G 1J0","postalcode":"K0G 1J0","website":"http://www.sawmilloak.com","working_hour":"","latitude":"45.03585","longitude":"-75.5842634"},{"source":"yellow page","service_name":"Casselman Kitchen","category":"cabinet","phone":"6137641797","address":"1315 Route 500 W, Casselman, ON K0A 1W0","postalcode":"K0A 1W0","website":" ","working_hour":"","latitude":"45.3116884","longitude":"-75.1470636"},{"source":"yellow page","service_name":"Harpstone Kitchens Inc","category":"cabinet","phone":"613-258-4657","address":"430 South Gower, Kemptville, ON K0G 1J0","postalcode":"K0G 1J0","website":" ","working_hour":"","latitude":"44.996875","longitude":"-75.5542703"},{"source":"yellow page","service_name":"Maheu Meubles/Furniture","category":"cabinet","phone":"613-443-2191","address":"1027 Notre Dame, Embrun, ON K0A 1W0","postalcode":"K0A 1W0","website":"http://www.maheufurniture.com","working_hour":"","latitude":"45.2738785","longitude":"-75.2753918"},{"source":"yellow page","service_name":"LRD Cabinetry","category":"cabinet","phone":"6134645959","address":"1481 Stagecoach Rd, Greely, ON K4P 1G4","postalcode":"K4P 1G4","website":" ","working_hour":"Monday 9:00 am - 5:00 pm   Tuesday 9:00 am - 5:00 pm   Wednesday 9:00 am - 5:00 pm   Thursday 9:00 am - 5:00 pm   Friday 9:00 am - 5:00 pm","latitude":"45.246727","longitude":"-75.58806"},{"source":"yellow page","service_name":"Excel Woodwork","category":"cabinet","phone":"613-443-0505","address":"103 rue Clement SS 4, Vars, ON K0A 3H0","postalcode":"K0A 3H0","website":" ","working_hour":"","latitude":"45.3296307","longitude":"-75.3514706"},{"source":"yellow page","service_name":"Kemptville Windows & Kitchens","category":"cabinet","phone":"1-844-381-6936","address":"2 Industrial Rd, Kemptville, ON K0G 1J0","postalcode":"K0G 1J0","website":" ","working_hour":"Monday 9:00 am - 5:00 pm   Tuesday 9:00 am - 5:00 pm   Wednesday 9:00 am - 5:00 pm   Thursday 9:00 am - 5:00 pm   Friday 9:00 am - 4:30 pm   Saturday 9:00 am - 1:00 pm","latitude":"45.0380932","longitude":"-75.5916628"},{"source":"yellow page","service_name":"Terlin Construction Ltd","category":"cabinet","phone":"6138210838","address":"6961 McKeown Dr, Greely, ON K4P 1A2","postalcode":"K4P 1A2","website":"http://www.terlin.ca","working_hour":"","latitude":"45.261458","longitude":"-75.57141"},{"source":"yellow page","service_name":"Leon's Furniture & Appliances","category":"cabinet","phone":"613-345-4889","address":"260 King St W, Brockville, ON K6V 3S1","postalcode":"K6V 3S1","website":"http://www.leons.ca","working_hour":"","latitude":"44.586155","longitude":"-75.690562"},{"source":"yellow page","service_name":"West Wind Design Group","category":"cabinet","phone":"613-345-5556","address":"4501 South, ON K6T 1A8","postalcode":"K6T 1A8","website":" ","working_hour":"","latitude":"44.6217517","longitude":"-75.7669922"},{"source":"yellow page","service_name":"Athens Ace Hardware","category":"cabinet","phone":"613-924-2228","address":"18 Main St E, Athens, ON K0E 1B0","postalcode":"K0E 1B0","website":"http://www.athensacehardware.com","working_hour":"","latitude":"44.616589","longitude":"-75.9532"},{"source":"yellow page","service_name":"La Cuisine Kitchen & Bath","category":"cabinet","phone":"613-387-2878","address":"RR3 Seeley's Bay, Inverary, ON K0H 1H0","postalcode":"K0H 1H0","website":"http://www.lacuisine.ca","working_hour":"","latitude":"44.420829","longitude":"-76.35055"},{"source":"yellow page","service_name":"Custom Home Improvements & Custom Kitchens","category":"cabinet","phone":"1-888-867-7802","address":"133 Cronkwoods Rd, Mallorytown, ON K0E 1R0","postalcode":"K0E 1R0","website":"http://grahamscustomkitchens.com","working_hour":"","latitude":"44.446645","longitude":"-75.984446"},{"source":"yellow page","service_name":"River Stone Surfaces","category":"cabinet","phone":"6133417842","address":"3502 County Road 27, Brockville, ON K0E 1M0","postalcode":"K0E 1M0","website":" ","working_hour":"","latitude":"44.5989179","longitude":"-75.7455478"},{"source":"yellow page","service_name":"West Connections","category":"cabinet","phone":"613-530-1139","address":"1818 Sydenham Rd, Kingston, ON K7L 4V4","postalcode":"K7L 4V4","website":"http://westconnectionscabinets.ca","working_hour":"Monday 8:00 am - 8:00 pm   Tuesday 8:00 am - 8:00 pm   Wednesday 8:00 am - 8:00 pm   Thursday 8:00 am - 8:00 pm   Friday 8:00 am - 8:00 pm   Saturday 8:00 am - 8:00 pm","latitude":"44.278405","longitude":"-76.476594"},{"source":"yellow page","service_name":"Tim Soper Wood Working","category":"cabinet","phone":"613-650-1512","address":"12 Cataraqui St, Kingston, ON K7K 1Z7","postalcode":"K7K 1Z7","website":" ","working_hour":"","latitude":"44.24186","longitude":"-76.482812"},{"source":"yellow page","service_name":"Ballycanoe Cabinets","category":"cabinet","phone":"613-923-5493","address":"51 Ballycanoe Rd RR 4, Mallorytown, ON K0E 1R0","postalcode":"K0E 1R0","website":"http://ballycanoe-cabinets.on.ontariox.com/","working_hour":"","latitude":"44.5290244","longitude":"-75.9306685"},{"source":"yellow page","service_name":"Creative Kitchens","category":"cabinet","phone":"9058512581","address":"ON","postalcode":"","website":" ","working_hour":"","latitude":"44.543404","longitude":"-75.748292"},{"source":"yellow page","service_name":"Ncdd Woodworking","category":"cabinet","phone":"613-353-7603","address":"3806 Davidson RR 1, Inverary, ON K0H 1X0","postalcode":"K0H 1X0","website":" ","working_hour":"","latitude":"44.3757046","longitude":"-76.4773345"},{"source":"yellow page","service_name":"Roy's Woodland","category":"cabinet","phone":"613-539-1195","address":"280A Montreal St, Kingston, ON K7K 3H1","postalcode":"K7K 3H1","website":" ","working_hour":"Monday 9:00 am - 5:00 pm   Tuesday 9:00 am - 5:00 pm   Wednesday 9:00 am - 5:00 pm   Thursday 9:00 am - 5:00 pm   Friday 9:00 am - 5:00 pm","latitude":"44.2394851","longitude":"-76.4860602"},{"source":"yellow page","service_name":"Seaway Cabinets & Flooring","category":"cabinet","phone":"613-349-9407","address":"1868 Merwin Lane, Prescott, ON K0E 1T0","postalcode":"K0E 1T0","website":"http://www.seawaycabinetsandflooring.com","working_hour":"Please Contact Us For Details","latitude":"44.7107009","longitude":"-75.5373417"},{"source":"yellow page","service_name":"Burchell O'Brien Custom Kitchens","category":"cabinet","phone":"613-345-3300","address":"3011 County Rd 29, Brockville, ON K6V 5T4","postalcode":"K6V 5T4","website":" ","working_hour":"","latitude":"44.610504","longitude":"-75.7338137"},{"source":"yellow page","service_name":"The Brick","category":"cabinet","phone":"613-345-6586","address":"491 Stewart Blvd, Brockville, ON K6V 7E8","postalcode":"K6V 7E8","website":"http://www1.thebrick.com","working_hour":"","latitude":"44.603219","longitude":"-75.712308"},{"source":"yellow page","service_name":"Corell Custom Cabinetry","category":"cabinet","phone":"613-704-3563","address":"170 Lake St RR 4, Mallorytown, ON K0E 1R0","postalcode":"K0E 1R0","website":"http://www.corellcustomcabinetry.com","working_hour":"","latitude":"44.5773054","longitude":"-75.8492084"},{"source":"yellow page","service_name":"Dacosta Millwork","category":"cabinet","phone":"613-542-2157","address":"671 Montreal St, Kingston, ON K7K 3J3","postalcode":"K7K 3J3","website":" ","working_hour":"","latitude":"44.249391","longitude":"-76.48616"},{"source":"yellow page","service_name":"Ashley HomeStore","category":"cabinet","phone":"6139151160","address":"707 Lawrence St, Prescott, ON K0E 1T0","postalcode":"K0E 1T0","website":"https://stores.ashleyfurniturehomestore.com/store/CA/on/prescott/707-lawrence-st?cmpid=ls-superpages&utm_source=Local&utm_medium=LocalSEO&utm_campaign=superpages","working_hour":"Monday 10:00 am - 7:00 pm   Tuesday 10:00 am - 7:00 pm   Wednesday 10:00 am - 7:00 pm   Thursday 10:00 am - 7:00 pm   Friday 10:00 am - 7:00 pm   Saturday 9:30 am - 6:00 pm   Sunday 11:00 am - 5:00 pm","latitude":"44.7100787","longitude":"-75.5235203"},{"source":"yellow page","service_name":"Barr-Mclean","category":"cabinet","phone":"613-531-0763","address":"12 Cataraqui St, Kingston, ON K7K 1Z7","postalcode":"K7K 1Z7","website":" ","working_hour":"","latitude":"44.24186","longitude":"-76.482812"},{"source":"yellow page","service_name":"Countrywide Kitchens","category":"cabinet","phone":"6135498650","address":"110-1407 John Counter Blvd, Kingston, ON K7K 6A9","postalcode":"K7K 6A9","website":"http://www.countrywidekitchens.com","working_hour":"Monday 8:30 am - 5:00 pm   Tuesday 8:30 am - 5:00 pm   Wednesday 8:30 am - 5:00 pm   Thursday 8:30 am - 5:00 pm   Friday 8:30 am - 5:00 pm   After Hour Appointments Available Upon Request","latitude":"44.258999","longitude":"-76.518231"},{"source":"yellow page","service_name":"Lyons Goodfellow Furniture","category":"cabinet","phone":"6132732064","address":"51 Concession, Westport, ON K0G 1X0","postalcode":"K0G 1X0","website":"http://www.lyonsgoodfellowfurniture.com/","working_hour":"Friday 9:00 am - 5:30 pm   Saturday 9:00 am - 4:00 pm","latitude":"44.675561","longitude":"-76.398438"},{"source":"yellow page","service_name":"D T Splinter Custom Kitchens","category":"cabinet","phone":"613-384-1712","address":"1136 Clyde Crt, Kingston, ON K7P 2E4","postalcode":"K7P 2E4","website":" ","working_hour":"Monday 8:00 am - 5:00 pm   Tuesday 8:00 am - 5:00 pm   Wednesday 8:00 am - 5:00 pm   Thursday 8:00 am - 5:00 pm   Friday 8:00 am - 5:00 pm   Saturday 9:00 am - 1:00 pm   Outside Business Hours Available By Appointment","latitude":"44.266709","longitude":"-76.562976"},{"source":"yellow page","service_name":"Progressive Kitchens","category":"cabinet","phone":"613-389-4467","address":"115 Grant Timmins Dr, Kingston, ON K7M 8N3","postalcode":"K7M 8N3","website":"http://www.progressivekitchens.ca/","working_hour":"Monday 9:00 am - 5:00 pm   Tuesday 9:00 am - 5:00 pm   Wednesday 9:00 am - 5:00 pm   Thursday 9:00 am - 5:00 pm   Friday 9:00 am - 4:00 pm","latitude":"44.26781","longitude":"-76.524457"},{"source":"yellow page","service_name":"Kitchen Cabinet Factory Outlet","category":"cabinet","phone":"613-548-0808","address":"102 Duff St, Kingston, ON K7K 2L5","postalcode":"K7K 2L5","website":"http://www.cabinetfactorykingston.ca","working_hour":"Monday 8:00 am - 5:00 pm   Tuesday 8:00 am - 5:00 pm   Wednesday 8:00 am - 5:00 pm   Thursday 8:00 am - 5:00 pm   Friday 8:00 am - 5:00 pm","latitude":"44.247179","longitude":"-76.492136"},{"source":"yellow page","service_name":"Westport Design Centre","category":"cabinet","phone":"613-273-4545","address":"73 Concession St, Westport, ON K0G 1X0","postalcode":"K0G 1X0","website":" ","working_hour":"Monday 10:00 am - 4:00 pm   Tuesday 10:00 am - 4:00 pm   Wednesday 10:00 am - 4:00 pm   Thursday 10:00 am - 4:00 pm   Friday 10:00 am - 4:00 pm   Saturday 10:00 am - 4:00 pm","latitude":"44.6734939","longitude":"-76.3965107"},{"source":"yellow page","service_name":"J Chapman Woodwork Inc","category":"cabinet","phone":"613-542-5325","address":"1274 Princess St, Kingston, ON K7M 3C9","postalcode":"K7M 3C9","website":" ","working_hour":"Appointment Only","latitude":"44.247495","longitude":"-76.52538"},{"source":"yellow page","service_name":"Reid & Siemonsen","category":"cabinet","phone":"613-900-3259","address":"350 Bagot St, Kingston, ON K7K 3B7","postalcode":"K7K 3B7","website":" ","working_hour":"Monday 9:00 am - 5:00 pm   Tuesday 9:00 am - 5:00 pm   Wednesday 9:00 am - 5:00 pm   Thursday 9:00 am - 5:00 pm   Friday 9:00 am - 5:00 pm","latitude":"44.23357","longitude":"-76.483768"},{"source":"yellow page","service_name":"Northland Cabinets","category":"cabinet","phone":"613-375-6285","address":"RR 1, Tichborne, ON K0H 2V0","postalcode":"K0H 2V0","website":" ","working_hour":"Monday 9:00 am - 5:00 pm   Tuesday 9:00 am - 5:00 pm   Wednesday 9:00 am - 5:00 pm   Thursday 9:00 am - 5:00 pm   Friday 9:00 am - 5:00 pm","latitude":"44.664076","longitude":"-76.62134"},{"source":"yellow page","service_name":"Murray's Home Furnishings","category":"cabinet","phone":"6136349267","address":"1353 Midland Ave, Kingston, ON K7P 2W5","postalcode":"K7P 2W5","website":" ","working_hour":"Monday 10:00 am - 6:00 pm   Tuesday 10:00 am - 6:00 pm   Wednesday 10:00 am - 6:00 pm   Thursday 10:00 am - 6:00 pm   Friday 10:00 am - 7:00 pm   Saturday 10:00 am - 3:00 pm","latitude":"44.2736365","longitude":"-76.5741114"},{"source":"yellow page","service_name":"Canadian Kids Furniture Inc","category":"cabinet","phone":"613-549-5437","address":"1187 Princess St, Kingston, ON K7M 3E1","postalcode":"K7M 3E1","website":"http://www.canadiankidsfurniture.ca","working_hour":"","latitude":"44.245905","longitude":"-76.521694"},{"source":"yellow page","service_name":"Prescott Building Centre","category":"cabinet","phone":"613-925-5665","address":"2700 County Road 18 RR 2, Prescott, ON K0E 1T0","postalcode":"K0E 1T0","website":" ","working_hour":"","latitude":"44.7266601","longitude":"-75.5276849"},{"source":"yellow page","service_name":"Showcase","category":"cabinet","phone":"613-384-0420","address":"945 Gardiners Rd, Kingston, ON K7M 7H4","postalcode":"K7M 7H4","website":" ","working_hour":"","latitude":"44.256425","longitude":"-76.568771"},{"source":"yellow page","service_name":"Mattress Mart Ltd","category":"cabinet","phone":"613-548-4881","address":"944 Futures Gate, Kingston, ON K7M 8T5","postalcode":"K7M 8T5","website":"http://www.mattressmart.ca","working_hour":"Monday 10:00 am - 9:00 pm   Tuesday 10:00 am - 9:00 pm   Wednesday 10:00 am - 9:00 pm   Thursday 10:00 am - 9:00 pm   Friday 10:00 am - 9:00 pm   Saturday 9:00 am - 6:00 pm   Sunday 11:00 am - 5:00 pm","latitude":"44.257686","longitude":"-76.554282"},{"source":"yellow page","service_name":"Anthony Cabinetry","category":"cabinet","phone":"6136348933","address":"619 O'Connor Dr, Kingston, ON K7P 1J9","postalcode":"K7P 1J9","website":" ","working_hour":"","latitude":"44.261413","longitude":"-76.5662604"},{"source":"yellow page","service_name":"United Furniture Warehouse","category":"cabinet","phone":"613-547-9700","address":"351 Select Dr, Kingston, ON K7M 8R1","postalcode":"K7M 8R1","website":" ","working_hour":"","latitude":"44.256969","longitude":"-76.554164"},{"source":"yellow page","service_name":"Cataraqui Cabinets","category":"cabinet","phone":"613-389-9295","address":"619 O'Connor Dr, Kingston, ON K7P 1J9","postalcode":"K7P 1J9","website":"http://www.cataraquicabinets.ca/","working_hour":"Monday 9:00 am - 5:00 pm   Tuesday 9:00 am - 5:00 pm   Wednesday 9:00 am - 5:00 pm   Thursday 9:00 am - 5:00 pm   Friday 9:00 am - 5:00 pm","latitude":"44.261413","longitude":"-76.5662604"},{"source":"yellow page","service_name":"Bob's Wooden Wonders & Variety","category":"cabinet","phone":"613-735-6199","address":"608 Boundary Rd, Pembroke, ON K8A 6M7","postalcode":"K8A 6M7","website":" ","working_hour":"","latitude":"45.820015","longitude":"-77.13589"},{"source":"yellow page","service_name":"Bob & Mark's Custom Cabinets","category":"cabinet","phone":"6137329049","address":"282 Shultz Rd, Pembroke, ON K8A 6W8","postalcode":"K8A 6W8","website":" ","working_hour":"","latitude":"45.790465","longitude":"-77.143639"},{"source":"yellow page","service_name":"Sylvestre Peter E & Sons Ltd - Kitchen & Bath Centre","category":"cabinet","phone":"613-732-3431","address":"840 Pembroke St W, Pembroke, ON K8A 5P6","postalcode":"K8A 5P6","website":" ","working_hour":"Monday 8:00 am - 5:00 pm   Tuesday 8:00 am - 5:00 pm   Wednesday 8:00 am - 5:00 pm   Thursday 8:00 am - 5:00 pm   Friday 8:00 am - 5:00 pm","latitude":"45.8264527","longitude":"-77.1337879"},{"source":"yellow page","service_name":"Murray's Custom Woodworking","category":"cabinet","phone":"613-757-2221","address":"15 Cameron, Killaloe, ON K0J 2A0","postalcode":"K0J 2A0","website":" ","working_hour":"","latitude":"45.73363","longitude":"-76.854462"},{"source":"yellow page","service_name":"Sandstone Imports","category":"cabinet","phone":"613-732-1910","address":"421 Boundary Rd E, Pembroke, ON K8A 6K9","postalcode":"K8A 6K9","website":" ","working_hour":"","latitude":"45.8086299","longitude":"-77.1213848"},{"source":"yellow page","service_name":"Delete This One","category":"cabinet","phone":"1-855-441-6632","address":"Pembroke Street West, Pembroke, ON K8A 7N3","postalcode":"K8A 7N3","website":"http://www.ashleyhomestoreselect.ca","working_hour":"Monday 9:00 am - 5:30 pm   Tuesday 9:00 am - 5:30 pm   Wednesday 9:00 am - 5:30 pm   Thursday 9:00 am - 5:30 pm   Friday 9:00 am - 5:30 pm   Saturday 9:00 am - 5:00 pm   Sunday 11:00 am - 4:00 pm","latitude":"45.812503","longitude":"-77.073726"},{"source":"yellow page","service_name":"Canadian Woodwork","category":"cabinet","phone":"613-628-9663","address":"236 Queen, Eganville, ON K0J 1T0","postalcode":"K0J 1T0","website":"http://www.canadianwoodwork.com","working_hour":"","latitude":"45.437717","longitude":"-77.213428"},{"source":"yellow page","service_name":"JDF Kitchens","category":"cabinet","phone":"613-433-4667","address":"5984 Hwy 132 Dacre, Dacre, ON K0J 1N0","postalcode":"K0J 1N0","website":"http://jdfkitchens.com","working_hour":"","latitude":"45.346397","longitude":"-76.911785"},{"source":"yellow page","service_name":"BMR","category":"cabinet","phone":"613-628-3015","address":"329 Bonnechere St W, Eganville, ON K0J 1T0","postalcode":"K0J 1T0","website":" ","working_hour":"Monday 8:00 am - 5:00 pm   Tuesday 8:00 am - 5:00 pm   Wednesday 8:00 am - 5:00 pm   Thursday 8:00 am - 5:00 pm   Friday 8:00 am - 5:00 pm   Saturday 8:00 am - 4:00 pm","latitude":"45.547336","longitude":"-77.108234"},{"source":"yellow page","service_name":"The New Oak Tree","category":"cabinet","phone":"6137329333","address":"1197 Pembroke St W, Pembroke, ON","postalcode":"","website":" ","working_hour":"Monday 10:00 am - 6:00 pm   Tuesday 10:00 am - 6:00 pm   Wednesday 10:00 am - 6:00 pm   Thursday 10:00 am - 6:00 pm   Friday 10:00 am - 6:00 pm   Saturday 9:00 am - 5:00 pm   Sunday 11:00 am - 5:00 pm","latitude":"45.8322485","longitude":"-77.1457467"},{"source":"yellow page","service_name":"Custom Draperies & Blinds Furniture Bedding & Home Decor","category":"cabinet","phone":"1-855-564-2079","address":"76 Pembroke St W, Pembroke, ON K8A 5M6","postalcode":"K8A 5M6","website":" ","working_hour":"Monday 9:00 am - 5:30 pm   Tuesday 9:00 am - 5:30 pm   Wednesday 9:00 am - 5:30 pm   Thursday 9:00 am - 5:30 pm   Friday 9:00 am - 5:30 pm   Saturday 9:00 am - 5:00 pm","latitude":"45.8257847","longitude":"-77.11456"},{"source":"yellow page","service_name":"Wood for You","category":"cabinet","phone":"613-582-3445","address":"499 Finchley Rd, Pembroke, ON K8A 6W2","postalcode":"K8A 6W2","website":"http://www.woodforyou.net/","working_hour":"","latitude":"45.766365","longitude":"-76.997612"},{"source":"yellow page","service_name":"Custom Draperies Blinds Bedding & Home Decor","category":"cabinet","phone":"613-735-0370","address":"76 Pembroke St W, Pembroke, ON K8A 5M6","postalcode":"K8A 5M6","website":" ","working_hour":"","latitude":"45.8257847","longitude":"-77.11456"},{"source":"yellow page","service_name":"Red Bargain Barn Ltd","category":"cabinet","phone":"613-735-6831","address":"1083 Pembroke St W, Pembroke, ON K8A 5R3","postalcode":"K8A 5R3","website":"http://www.redbargainbarn.com/","working_hour":"Tuesday 10:00 am - 5:30 pm   Wednesday 10:00 am - 5:30 pm   Thursday 10:00 am - 5:30 pm   Friday 10:00 am - 5:30 pm","latitude":"45.8308914","longitude":"-77.1413388"},{"source":"yellow page","service_name":"Reiche C A & Sons Ltd","category":"cabinet","phone":"1-866-948-2887","address":"40901 Hwy 41 S, Pembroke, ON K8A 6W5","postalcode":"K8A 6W5","website":" ","working_hour":"Monday 7:00 am - 5:30 pm   Tuesday 7:00 am - 5:30 pm   Wednesday 7:00 am - 5:30 pm   Thursday 7:00 am - 5:30 pm   Friday 7:00 am - 5:30 pm   Saturday 8:00 am - 4:00 pm","latitude":"45.789965","longitude":"-77.128288"},{"source":"yellow page","service_name":"McCully Cabinets","category":"cabinet","phone":"613-354-2266","address":"127 Milligan Lane, Napanee, ON K7R 3Z4","postalcode":"K7R 3Z4","website":"http://www.mccullycabinets.com/","working_hour":"Monday 9:00 am - 5:00 pm   Tuesday 9:00 am - 5:00 pm   Wednesday 9:00 am - 5:00 pm   Thursday 9:00 am - 5:00 pm   Friday 9:00 am - 5:00 pm","latitude":"44.2617003","longitude":"-76.9551355"},{"source":"yellow page","service_name":"Home Furniture","category":"cabinet","phone":"613-354-2155","address":"447 Centre St N, Napanee, ON K7R 3S4","postalcode":"K7R 3S4","website":"http://www.napaneehomefurniture.ca/","working_hour":"","latitude":"44.2590055","longitude":"-76.9622272"},{"source":"yellow page","service_name":"Amity Kitchens","category":"cabinet","phone":"613-388-1139","address":"2274 County Road 11, Selby, ON K0K 2Z0","postalcode":"K0K 2Z0","website":" ","working_hour":"","latitude":"44.2990575","longitude":"-76.9843615"},{"source":"yellow page","service_name":"Tyendinaga Kitchens","category":"cabinet","phone":"613-396-3580","address":"261 Hwy 49, Deseronto, ON K0K 1X0","postalcode":"K0K 1X0","website":" ","working_hour":"Monday 9:00 am - 5:00 pm   Tuesday 9:00 am - 5:00 pm   Wednesday 9:00 am - 5:00 pm   Thursday 9:00 am - 5:00 pm   Friday 9:00 am - 5:00 pm","latitude":"44.202229","longitude":"-77.06923"},{"source":"yellow page","service_name":"Laraby D","category":"cabinet","phone":"613-354-3488","address":"93 Palace Rd, Napanee, ON K7R 3B4","postalcode":"K7R 3B4","website":"http://www.larabyscustomwoodworking.com","working_hour":"Monday 8:00 am - 4:30 pm   Tuesday 8:00 am - 4:30 pm   Wednesday 8:00 am - 4:30 pm   Thursday 8:00 am - 4:30 pm   Friday 8:00 am - 4:30 pm","latitude":"44.2469259","longitude":"-76.9451225"},{"source":"yellow page","service_name":"M W Enterprises","category":"cabinet","phone":"613-902-1752","address":"929 County Road 4, Picton, ON K0K 2T0","postalcode":"K0K 2T0","website":"http://www.mwenterprises.ca","working_hour":"","latitude":"44.0212609","longitude":"-77.1998627"},{"source":"yellow page","service_name":"Gilbert & Lighthall Market Place","category":"cabinet","phone":"6134763131","address":"173 Picton Main St, Picton, ON K0K 2T0","postalcode":"K0K 2T0","website":"http://www.gilbertandlighthall.com","working_hour":"","latitude":"44.0068308","longitude":"-77.1427974"},{"source":"yellow page","service_name":"Rona Building Centre","category":"cabinet","phone":"6133544551","address":"364 Centre St N, Napanee, ON K7R 1P6","postalcode":"K7R 1P6","website":" ","working_hour":"","latitude":"44.2549553","longitude":"-76.9582672"},{"source":"yellow page","service_name":"Picton Home Hardware Building Centre","category":"cabinet","phone":"613-476-7497","address":"13544 Loyalist Pky, Picton, ON K0K 2T0","postalcode":"K0K 2T0","website":" ","working_hour":"","latitude":"43.995241","longitude":"-77.1756811"},{"source":"yellow page","service_name":"Clearview Custom Cabinetry","category":"cabinet","phone":"613-561-8846","address":"975 Lucas Rd, Odessa, ON K0H 2H0","postalcode":"K0H 2H0","website":" ","working_hour":"Monday 8:00 am - 7:00 pm   Tuesday 8:00 am - 7:00 pm   Wednesday 8:00 am - 7:00 pm   Thursday 8:00 am - 7:00 pm   Friday 8:00 am - 7:00 pm   Saturday 8:00 am - 7:00 pm   Sunday 8:00 am - 7:00 pm","latitude":"44.2528369","longitude":"-76.7472308"},{"source":"yellow page","service_name":"United Furniture Warehouse","category":"cabinet","phone":"613-962-6111","address":"315 Pinnacle St, Belleville, ON K8N 3B3","postalcode":"K8N 3B3","website":" ","working_hour":"","latitude":"44.1677082","longitude":"-77.3841831"},{"source":"yellow page","service_name":"Bernhardt Cabintry & Flooring","category":"cabinet","phone":"613-396-5961","address":"64B Seros Rd RR 1, Deseronto, ON K0K 1X0","postalcode":"K0K 1X0","website":" ","working_hour":"Monday 8:00 am - 5:00 pm   Tuesday 8:00 am - 5:00 pm   Wednesday 8:00 am - 5:00 pm   Thursday 8:00 am - 5:00 pm   Friday 8:00 am - 5:00 pm","latitude":"44.1801954","longitude":"-77.0886962"},{"source":"yellow page","service_name":"Accent Furniture","category":"cabinet","phone":"613-352-5734","address":"466 Absalom St, Bath, ON K0H 1G0","postalcode":"K0H 1G0","website":" ","working_hour":"Call For Appointment","latitude":"44.216699","longitude":"-76.7536984"},{"source":"yellow page","service_name":"Rogan Kitchen","category":"cabinet","phone":"613-354-0544","address":"140 Goodyear Rd, Napanee, ON K7R 3L2","postalcode":"K7R 3L2","website":"http://www.rogankitchens.ca/","working_hour":"Monday 8:00 am - 5:00 pm   Tuesday 8:00 am - 5:00 pm   Wednesday 8:00 am - 5:00 pm   Thursday 8:00 am - 5:00 pm   Friday 8:00 am - 5:00 pm   Saturday 9:00 am - 1:00 pm","latitude":"44.2830515","longitude":"-76.9649121"},{"source":"yellow page","service_name":"Woods Custom Construction Solutions","category":"cabinet","phone":"613-477-2470","address":"928 Moneymore Rd, Roslin, ON K0K 2Y0","postalcode":"K0K 2Y0","website":"http://woodscustomconstruction.com","working_hour":"","latitude":"44.3774222","longitude":"-77.2749327"},{"source":"yellow page","service_name":"Ot Group Division Of Dcb Business System","category":"cabinet","phone":"6139661867","address":"141 William St, Belleville, ON K8N 3J8","postalcode":"K8N 3J8","website":" ","working_hour":"","latitude":"44.1629998","longitude":"-77.3761007"},{"source":"yellow page","service_name":"J W Interiors","category":"cabinet","phone":"613-354-3308","address":"115 Kimmett Sideroad, Greater Napanee, ON K7R 3L2","postalcode":"K7R 3L2","website":" ","working_hour":"","latitude":"44.277398","longitude":"-76.960502"},{"source":"yellow page","service_name":"Artistic Custom Display Cabinetmaking","category":"cabinet","phone":"6139627091","address":"100 George St S, Belleville, ON K8N 3G9","postalcode":"K8N 3G9","website":"http://acdcabinetmaking.ca","working_hour":"","latitude":"44.1599516","longitude":"-77.3761795"},{"source":"yellow page","service_name":"Soiree & Stiletto","category":"cabinet","phone":"613-967-6475","address":"390 N Front St, Belleville, ON K8P 3E1","postalcode":"K8P 3E1","website":" ","working_hour":"","latitude":"44.1681773","longitude":"-77.3858737"},{"source":"yellow page","service_name":"Home Building Centre - Home Hardware","category":"cabinet","phone":"613-968-3451","address":"445 Dundas St E, Belleville, ON K8N 1G2","postalcode":"K8N 1G2","website":"http://www.homehardware.ca/en/","working_hour":"","latitude":"44.16359","longitude":"-77.3653716"},{"source":"yellow page","service_name":"Leon's Furniture","category":"cabinet","phone":"613-332-1676","address":"29601 Hwy 62 North, Bancroft, ON K0L 1C0","postalcode":"K0L 1C0","website":"http://www.leons.ca","working_hour":"","latitude":"45.0999026","longitude":"-77.8805096"},{"source":"yellow page","service_name":"Atkin George Custom Cabinetry","category":"cabinet","phone":"705-652-1906","address":"Young's Point Rd, Lakefield, ON K0L 2H0","postalcode":"K0L 2H0","website":" ","working_hour":"","latitude":"44.583732","longitude":"-78.191368"},{"source":"yellow page","service_name":"Designer Kitchen Co","category":"cabinet","phone":"613-332-4766","address":"159 Y Rd RR 2, Bancroft, ON K0L 1C0","postalcode":"K0L 1C0","website":"http://www.designerkitchensontario.ca","working_hour":"","latitude":"45.0969538","longitude":"-77.8919465"},{"source":"yellow page","service_name":"Cottage Hill Furniture & Cabinets Inc","category":"cabinet","phone":"705-448-9610","address":"4025 Loop Rd Hwy 648, Harcourt, ON K0L 3C0","postalcode":"K0L 3C0","website":"http://www.cottagehill.ca","working_hour":"Monday 9:00 am - 6:00 pm   Tuesday 9:00 am - 6:00 pm   Wednesday 9:00 am - 6:00 pm   Thursday 9:00 am - 6:00 pm   Friday 9:00 am - 5:00 pm   Saturday 9:30 am - 1:30 pm","latitude":"45.037081","longitude":"-78.224582"},{"source":"yellow page","service_name":"Mill Line Woodworking","category":"cabinet","phone":"705-639-1049","address":"1541 Mill Line, Norwood, ON K0L 2V0","postalcode":"K0L 2V0","website":"http://milllinewoodworking.ca","working_hour":"","latitude":"44.4379132","longitude":"-77.9893831"},{"source":"yellow page","service_name":"Highland Cabinetry","category":"cabinet","phone":"705-457-2067","address":"140 Industrial Pk, ON K0M 1S0","postalcode":"K0M 1S0","website":" ","working_hour":"","latitude":"45.0509597","longitude":"-78.536228"},{"source":"yellow page","service_name":"Yantha Enterprises Furniture & Appliances","category":"cabinet","phone":"613-756-2542","address":"60 Stafford, Barrys Bay, ON K0J 1B0","postalcode":"K0J 1B0","website":" ","working_hour":"","latitude":"45.485864","longitude":"-77.677315"},{"source":"yellow page","service_name":"The Joinery","category":"cabinet","phone":"705-457-9082","address":"1152 Portage Rd, Haliburton, ON K0M 1S0","postalcode":"K0M 1S0","website":" ","working_hour":"","latitude":"45.048099","longitude":"-78.4010208"},{"source":"yellow page","service_name":"Lockside Trading Company","category":"cabinet","phone":"705-652-3940","address":"2805 River Av, Youngs Points, ON K0L 3G0","postalcode":"K0L 3G0","website":" ","working_hour":"Monday 10:00 am - 5:00 pm   Tuesday 10:00 am - 5:00 pm   Wednesday 10:00 am - 5:00 pm   Thursday 10:00 am - 5:00 pm   Friday 10:00 am - 5:00 pm   Saturday 10:00 am - 5:00 pm   Sunday 10:00 am - 5:00 pm   Please Visit Our Website For More Information","latitude":"44.488772","longitude":"-78.233629"},{"source":"yellow page","service_name":"Lakeland Millwork & Cabinetry","category":"cabinet","phone":"416-427-9050","address":"83 Mallard, ON K0M 1S0","postalcode":"K0M 1S0","website":" ","working_hour":"","latitude":"45.20493","longitude":"-78.559656"},{"source":"yellow page","service_name":"Mike's Custom Kitchens & Baths","category":"cabinet","phone":"613-756-1840","address":"3260 Old Barrys Bay Rd, Barrys Bay, ON K0J 1B0","postalcode":"K0J 1B0","website":" ","working_hour":"","latitude":"45.479102","longitude":"-77.6405"},{"source":"yellow page","service_name":"Cottage County Log Cabin Trading Company","category":"cabinet","phone":"705-754-2285","address":"1141 Kennisis Lake Rd, West Guilford, ON K0M 2S0","postalcode":"K0M 2S0","website":"http://logcabintrading.ca","working_hour":"Monday 9:00 am - 6:00 pm   Tuesday 9:00 am - 6:00 pm   Wednesday 9:00 am - 6:00 pm   Thursday 9:00 am - 6:00 pm   Friday 9:00 am - 6:00 pm   Saturday 9:00 am - 6:00 pm   Sunday 9:00 am - 6:00 pm","latitude":"45.108839","longitude":"-78.601149"},{"source":"yellow page","service_name":"Northern Expressions","category":"cabinet","phone":"705-457-8957","address":"13588 118 Hwy, ON K0M 1S0","postalcode":"K0M 1S0","website":"http://www.northernexpressionscanada.com","working_hour":"","latitude":"45.0596598","longitude":"-78.5192714"},{"source":"yellow page","service_name":"Lifestyle Cabinets","category":"cabinet","phone":"705-778-1590","address":"Fire Road 50 Lot 43 RR 4, Havelock, ON K0L 1Z0","postalcode":"K0L 1Z0","website":"http://lifestylecabinets.com/","working_hour":"Monday 9:00 am - 6:00 pm   Tuesday 9:00 am - 6:00 pm   Wednesday 9:00 am - 6:00 pm   Thursday 9:00 am - 9:00 pm   Friday 9:00 am - 9:00 pm   Saturday 9:00 am - 6:00 pm   Sunday 11:00 am - 6:00 pm","latitude":"44.450725","longitude":"-77.851756"},{"source":"yellow page","service_name":"Cabinetry Concepts & Renovations","category":"cabinet","phone":"7053041168","address":"880 County Rd 48, Havelock, ON K0L 1Z0","postalcode":"K0L 1Z0","website":"http://cabinetryconcepts.ca","working_hour":"Monday 7:00 am - 7:00 pm   Tuesday 7:00 am - 7:00 pm   Wednesday 7:00 am - 7:00 pm   Thursday 7:00 am - 7:00 pm   Friday 7:00 am - 7:00 pm   Saturday 7:00 am - 7:00 pm   Sunday 8:00 am - 7:00 pm","latitude":"44.4587426","longitude":"-77.8267776"},{"source":"yellow page","service_name":"Wilson TIMBER MART","category":"cabinet","phone":"613-332-3424","address":"323 Mill St, Bancroft, ON K0L 1C0","postalcode":"K0L 1C0","website":"http://wilson73.ca","working_hour":"Monday 7:00 am - 5:00 pm   Tuesday 7:00 am - 5:00 pm   Wednesday 7:00 am - 5:00 pm   Thursday 7:00 am - 5:00 pm   Friday 7:00 am - 5:00 pm   Saturday 8:00 am - 3:00 pm","latitude":"45.049344","longitude":"-77.839807"},{"source":"yellow page","service_name":"Russell Creek Kitchens","category":"cabinet","phone":"613-332-3017","address":"25904 Hwy 62 RR 1, L'Amable, ON K0L 2L0","postalcode":"K0L 2L0","website":" ","working_hour":"","latitude":"45.0189151","longitude":"-77.794751"},{"source":"yellow page","service_name":"Riverview Furniture & Appliances Minden","category":"cabinet","phone":"705-286-3167","address":"94 Bobcaygeon Rd, Kinmount, ON K0M 2K0","postalcode":"K0M 2K0","website":" ","working_hour":"Monday 9:00 am - 5:00 pm   Tuesday 9:00 am - 5:00 pm   Wednesday 9:00 am - 5:00 pm   Thursday 9:00 am - 5:00 pm   Friday 9:00 am - 5:00 pm   Saturday 9:00 am - 5:00 pm   Sunday 11:00 am - 3:00 pm","latitude":"44.918738","longitude":"-78.723949"},{"source":"yellow page","service_name":"Rydan Manufacturing Inc","category":"cabinet","phone":"705-778-2219","address":"17 Industrial Dr, Havelock, ON K0L 1Z0","postalcode":"K0L 1Z0","website":" ","working_hour":"","latitude":"44.43282","longitude":"-77.875561"},{"source":"yellow page","service_name":"McCaskie TV & Stereo","category":"cabinet","phone":"613-332-2625","address":"59 Hastings N, Bancroft, ON K0L 1C0","postalcode":"K0L 1C0","website":"http://www.mccaskietv.com/","working_hour":"","latitude":"45.0582475","longitude":"-77.8542997"},{"source":"yellow page","service_name":"Simply Cottage","category":"cabinet","phone":"705-738-6868","address":"79 Bolton, Bobcaygeon, ON K0M 1A0","postalcode":"K0M 1A0","website":"http://www.simplycottage.ca/","working_hour":"","latitude":"44.5360844","longitude":"-78.5439397"},{"source":"yellow page","service_name":"Chaulk Woodworking","category":"cabinet","phone":"705-286-3000","address":"11431 35 Hwy RR 3, Minden, ON K0M 2K0","postalcode":"K0M 2K0","website":" ","working_hour":"Monday 8:00 am - 5:00 pm   Tuesday 8:00 am - 5:00 pm   Wednesday 8:00 am - 5:00 pm   Thursday 8:00 am - 5:00 pm   Friday 8:00 am - 5:00 pm","latitude":"45.2500911","longitude":"-78.8902177"},{"source":"yellow page","service_name":"Kitchen Designs Studios","category":"cabinet","phone":"705-738-2343","address":"239 Main, Bobcaygeon, ON K0M 1A0","postalcode":"K0M 1A0","website":"http://www.kitchendesignstudios.ca","working_hour":"","latitude":"44.5492795","longitude":"-78.5411315"},{"source":"yellow page","service_name":"Quibell's Handcrafted Cabinetry","category":"cabinet","phone":"705-731-0244","address":"100 Irwins Rd RR 4, Bobcaygeon, ON K0M 1A0","postalcode":"K0M 1A0","website":" ","working_hour":"Monday 8:00 am - 5:00 pm   Tuesday 8:00 am - 5:00 pm   Wednesday 8:00 am - 5:00 pm   Thursday 8:00 am - 5:00 pm   Friday 8:00 am - 5:00 pm   Saturday 8:00 am - 5:00 pm   Sunday 8:00 am - 5:00 pm","latitude":"44.5902404","longitude":"-78.5752241"},{"source":"yellow page","service_name":"Red Rock Antiques","category":"cabinet","phone":"705-738-3496","address":"1349 Kawartha Lakes County Rd 8, Fenelon Falls, ON K0M 1N0","postalcode":"K0M 1N0","website":" ","working_hour":"","latitude":"44.630648","longitude":"-78.721855"},{"source":"yellow page","service_name":"Cornerstone Home Furnishings","category":"cabinet","phone":"1-844-744-4290","address":"73 Colborne, Fenelon Falls, ON K0M 1N0","postalcode":"K0M 1N0","website":" ","working_hour":"","latitude":"44.5383369","longitude":"-78.7353088"},{"source":"yellow page","service_name":"Monaco Custom Interiors","category":"cabinet","phone":"6134222565","address":"5450 Canotek Rd, Gloucester, ON K1J 9G5","postalcode":"K1J 9G5","website":" ","working_hour":"","latitude":"45.45884","longitude":"-75.58276"},{"source":"yellow page","service_name":"Jarico Design & Caseworks Inc","category":"cabinet","phone":"6138585509","address":"5509-7 Canotek Rd, Ottawa, ON K1J 9J8","postalcode":"K1J 9J8","website":"http://www.jarico.ca","working_hour":"","latitude":"45.456707","longitude":"-75.58369"},{"source":"yellow page","service_name":"Upper Room Home Furnishings","category":"cabinet","phone":"6138243300","address":"1344 Youville Dr, Orleans, ON K1C 2X8","postalcode":"K1C 2X8","website":"http://upperroomhome.ca","working_hour":"Monday 10:00 am - 9:00 pm   Tuesday 10:00 am - 9:00 pm   Wednesday 10:00 am - 9:00 pm   Thursday 10:00 am - 9:00 pm   Friday 10:00 am - 9:00 pm   Saturday 10:00 am - 6:00 pm   Sunday 10:00 am - 5:00 pm","latitude":"45.462335","longitude":"-75.549606"},{"source":"yellow page","service_name":"La-Z-Boy Furniture Galleries","category":"cabinet","phone":"613-749-0001","address":"1750 Cyrville Road, Gloucester, ON K1B 3L8","postalcode":"K1B 3L8","website":"http://www.la-z-boy.com/","working_hour":"","latitude":"45.416876","longitude":"-75.604569"},{"source":"yellow page","service_name":"Sofa World","category":"cabinet","phone":"613-564-7632","address":"1163 St. Laurent Blvd, Ottawa, ON K1K 3B7","postalcode":"K1K 3B7","website":"http://www.sofaworld.ca","working_hour":"","latitude":"45.423718","longitude":"-75.63694"},{"source":"yellow page","service_name":"Cadieux Ltd","category":"cabinet","phone":"613-745-1230","address":"1280 Old Innes Rd, Ottawa, ON K1B 5M7","postalcode":"K1B 5M7","website":" ","working_hour":"","latitude":"45.410914","longitude":"-75.614695"},{"source":"yellow page","service_name":"Cadieux Interiors","category":"cabinet","phone":"343-700-1238","address":"1280 Old Innes Rd, Ottawa, ON K1B 5M7","postalcode":"K1B 5M7","website":" ","working_hour":"Monday 10:00 am - 6:00 pm   Tuesday 10:00 am - 6:00 pm   Wednesday 10:00 am - 6:00 pm   Thursday 10:00 am - 6:00 pm   Friday 10:00 am - 6:00 pm   Saturday 10:00 am - 4:00 pm","latitude":"45.410914","longitude":"-75.614695"},{"source":"yellow page","service_name":"Pardo's Fine Furniture","category":"cabinet","phone":"6137451616","address":"573 McArthur Ave, Ottawa, ON K1K 1G3","postalcode":"K1K 1G3","website":"http://www.dasilvaupholstering.com","working_hour":"","latitude":"45.4325623","longitude":"-75.6428677"},{"source":"yellow page","service_name":"Innes Kitchen & Bath","category":"cabinet","phone":"613-824-0860","address":"1439 Youville Dr, Orleans, ON K1C 4M8","postalcode":"K1C 4M8","website":"http://www.inneskitchenandbath.com/","working_hour":"Monday 10:00 am - 6:00 pm   Tuesday 10:00 am - 6:00 pm   Wednesday 10:00 am - 6:00 pm   Thursday 10:00 am - 6:00 pm   Friday 10:00 am - 6:00 pm   Saturday 10:00 am - 2:00 pm","latitude":"45.4645816","longitude":"-75.550137"},{"source":"yellow page","service_name":"Showcase","category":"cabinet","phone":"6137443324","address":"1200 St. Laurent Blvd, Ottawa, ON K1K 3B8","postalcode":"K1K 3B8","website":" ","working_hour":"","latitude":"45.423347","longitude":"-75.63691"},{"source":"yellow page","service_name":"Kre-Art Kitchens and Bathrooms","category":"cabinet","phone":"6137429300","address":"1054B Ogilvie Rd, Gloucester, ON K1J 7P8","postalcode":"K1J 7P8","website":" ","working_hour":"Monday 9:00 am - 5:00 pm   Tuesday 9:00 am - 5:00 pm   Wednesday 9:00 am - 5:00 pm   Thursday 9:00 am - 5:00 pm   Friday 9:00 am - 5:00 pm","latitude":"45.4249098","longitude":"-75.6348186"},{"source":"yellow page","service_name":"Armoire Design Gatineau","category":"cabinet","phone":"819-880-1320","address":"Gatineau, QC J8P 1N5","postalcode":"J8P 1N5","website":"https://www.facebook.com/armoiresdesign/?hc_ref=SEARCH&fref=nf","working_hour":"Monday 9:00 am - 5:00 pm   Tuesday 9:00 am - 5:00 pm   Wednesday 9:00 am - 5:00 pm   Thursday 9:00 am - 5:00 pm   Friday 9:00 am - 5:00 pm   Appointment Only","latitude":"45.480744","longitude":"-75.614521"},{"source":"yellow page","service_name":"United Furniture Warehouse","category":"cabinet","phone":"613-746-5500","address":"1901 Cyrville Rd, Ottawa, ON K1B 1A9","postalcode":"K1B 1A9","website":" ","working_hour":"","latitude":"45.414933","longitude":"-75.60147"},{"source":"yellow page","service_name":"Roy Sims Store Display Inc","category":"cabinet","phone":"613-749-7588","address":"11-5360 Canotek Rd, Gloucester, ON K1J 9E4","postalcode":"K1J 9E4","website":"http://www.roysimsdisplay.com","working_hour":"Monday 9:00 am - 5:00 pm   Tuesday 9:00 am - 5:00 pm   Wednesday 9:00 am - 5:00 pm   Thursday 9:00 am - 5:00 pm   Friday 9:00 am - 5:00 pm","latitude":"45.4550042","longitude":"-75.5837825"},{"source":"yellow page","service_name":"Pier 1 Imports","category":"cabinet","phone":"613-749-0407","address":"1163 St Laurent Blvd, Ottawa, ON K1K 3B7","postalcode":"K1K 3B7","website":"http://www.pier1.ca","working_hour":"","latitude":"45.423728","longitude":"-75.636487"},{"source":"yellow page","service_name":"Precision Custom Woodwork","category":"cabinet","phone":"613-842-9561","address":"1351 Labrie Ave, Gloucester, ON K1B 3M2","postalcode":"K1B 3M2","website":" ","working_hour":"","latitude":"45.4204","longitude":"-75.623152"},{"source":"yellow page","service_name":"L'atelier Seguin","category":"cabinet","phone":"613-748-3999","address":"20-5509 Canotek Rd, Gloucester, ON K1J 9J9","postalcode":"K1J 9J9","website":" ","working_hour":"Monday 8:00 am - 5:00 pm   Tuesday 8:00 am - 5:00 pm   Wednesday 8:00 am - 5:00 pm   Thursday 8:00 am - 5:00 pm   Friday 8:00 am - 5:00 pm","latitude":"45.456605","longitude":"-75.583816"},{"source":"yellow page","service_name":"Granite Transformations Ottawa","category":"cabinet","phone":"613-745-9483","address":"1446 Cyrville Rd, Gloucester, ON K1B 3L9","postalcode":"K1B 3L9","website":"http://www.granitetransformations.com/ottawa/","working_hour":"Monday 9:00 am - 5:00 pm   Tuesday 9:00 am - 5:00 pm   Wednesday 9:00 am - 5:00 pm   Thursday 9:00 am - 5:00 pm   Friday 9:00 am - 5:00 pm   Saturday 9:00 am - 4:00 pm","latitude":"45.4207032","longitude":"-75.6199096"},{"source":"yellow page","service_name":"Trudel Law Office","category":"cabinet","phone":"6138372641","address":"103-1803 St-Joseph Blvd, Orleans, ON K1C 6E7","postalcode":"K1C 6E7","website":"http://www.trudellawoffice.com","working_hour":"","latitude":"45.461685","longitude":"-75.547695"},{"source":"yellow page","service_name":"Ridalco Industries Inc.","category":"cabinet","phone":"3437001184","address":"1084 Kenaston Street, Ottawa, ON K1B 3P5","postalcode":"K1B 3P5","website":" ","working_hour":"Monday 7:30 am - 4:00 pm   Tuesday 7:30 am - 4:00 pm   Wednesday 7:30 am - 4:00 pm   Thursday 7:30 am - 4:00 pm   Friday 7:30 am - 4:00 pm","latitude":"45.416129","longitude":"-75.628373"},{"source":"yellow page","service_name":"Aluca Inc","category":"cabinet","phone":"613-282-4145","address":"2555 Blackwell St, Ottawa, ON K1B 4E4","postalcode":"K1B 4E4","website":" ","working_hour":"","latitude":"45.405169","longitude":"-75.60967"},{"source":"yellow page","service_name":"Dimension Cabinet & Millwork Inc","category":"cabinet","phone":"613-749-4154","address":"117-2555 Blackwell St, Ottawa, ON K1B 4E4","postalcode":"K1B 4E4","website":" ","working_hour":"","latitude":"45.405169","longitude":"-75.60967"},{"source":"yellow page","service_name":"Mobile Kitchen & Reno","category":"cabinet","phone":"613-620-2889","address":"2269 Page Rd, Orléans, ON K1C 7K5","postalcode":"K1C 7K5","website":" ","working_hour":"","latitude":"45.447568","longitude":"-75.527854"},{"source":"yellow page","service_name":"Green Belt Cabinets","category":"cabinet","phone":"6137481578","address":"1335 Leeds Ave, Ottawa, ON K1B 5K9","postalcode":"K1B 5K9","website":" ","working_hour":"","latitude":"45.402192","longitude":"-75.605778"},{"source":"yellow page","service_name":"Barrington Construction","category":"cabinet","phone":"613-769-3578","address":"103-2535 Blackwell St, Ottawa, ON K1B 4E4","postalcode":"K1B 4E4","website":" ","working_hour":"","latitude":"45.405776","longitude":"-75.610026"},{"source":"yellow page","service_name":"Eq3 Ltd","category":"cabinet","phone":"613-747-7907","address":"2750 Sheffield Rd, Ottawa, ON K1B 3V9","postalcode":"K1B 3V9","website":" ","working_hour":"","latitude":"45.399747","longitude":"-75.603414"},{"source":"yellow page","service_name":"Creation Unik Inc.","category":"cabinet","phone":"613-824-1238","address":"3891 Innes Rd, Orleans, ON K1C 1T1","postalcode":"K1C 1T1","website":" ","working_hour":"","latitude":"45.4531823","longitude":"-75.5111142"},{"source":"yellow page","service_name":"Bedzzz Sofa World","category":"cabinet","phone":"6138375957","address":"1680 Vimont Crt, Orléans, ON K4A 3M3","postalcode":"K4A 3M3","website":" ","working_hour":"","latitude":"45.490995","longitude":"-75.4844"},{"source":"yellow page","service_name":"JYSK Furniture N Linen","category":"cabinet","phone":"613-824-0023","address":"2085 Tenth Line Rd, Orleans, ON K4A 4C5","postalcode":"K4A 4C5","website":" ","working_hour":"","latitude":"45.461312","longitude":"-75.485545"},{"source":"yellow page","service_name":"Distinctive Bathrooms & Kitchens","category":"cabinet","phone":"613-909-1098","address":"2035 Lanthier Dr, Orleans, ON K4A 3V3","postalcode":"K4A 3V3","website":"http://www.dbkottawa.com","working_hour":"Monday 8:30 am - 6:00 pm   Tuesday 8:30 am - 6:00 pm   Wednesday 8:30 am - 6:00 pm   Thursday 8:30 am - 8:00 pm   Friday 8:30 am - 8:00 pm   Saturday 9:30 am - 4:30 pm","latitude":"45.456878","longitude":"-75.491707"},{"source":"yellow page","service_name":"JYSK","category":"cabinet","phone":"613-824-0700","address":"6-2085 Tenth Line Rd, Orleans, ON K4A 4C5","postalcode":"K4A 4C5","website":"http://jysk.ca","working_hour":"","latitude":"45.458566","longitude":"-75.485126"},{"source":"yellow page","service_name":"Dufresne Furniture Co (Ottawa) Ltd","category":"cabinet","phone":"6138375900","address":"1680 Vimont Ct, Ottawa, ON K4A 3M3","postalcode":"K4A 3M3","website":" ","working_hour":"","latitude":"45.490995","longitude":"-75.4844"},{"source":"yellow page","service_name":"Xavier Collection","category":"cabinet","phone":"613-604-9732","address":"4338 Innes Rd, Orleans, ON K4A 3W3","postalcode":"K4A 3W3","website":"http://armoirexaviercollection.ca","working_hour":"","latitude":"45.45947","longitude":"-75.492462"},{"source":"yellow page","service_name":"FNK Kitchens & Cabinets Inc","category":"cabinet","phone":"613-277-7664","address":"115-2595 Blackwell St, Ottawa, ON K1B 4E4","postalcode":"K1B 4E4","website":" ","working_hour":"","latitude":"45.404168","longitude":"-75.609063"},{"source":"yellow page","service_name":"Raycraft","category":"cabinet","phone":"613-407-9793","address":"1382 Jamison Ave, Ottawa, ON K1E 1J5","postalcode":"K1E 1J5","website":" ","working_hour":"","latitude":"45.474607","longitude":"-75.513627"},{"source":"yellow page","service_name":"Armoires M R","category":"cabinet","phone":"819-663-9663","address":"1755, boul Maloney E, Gatineau, QC J8R 1B4","postalcode":"J8R 1B4","website":" ","working_hour":"","latitude":"45.505321","longitude":"-75.556751"},{"source":"yellow page","service_name":"Cuisines Poirier Kitchens","category":"cabinet","phone":"819-663-8484","address":"1733, rue Atmec, Gatineau, QC J8R 0E7","postalcode":"J8R 0E7","website":"http://www.cuisinespoirier.com","working_hour":"Monday 9:00 am - 5:00 pm   Tuesday 9:00 am - 5:00 pm   Wednesday 9:00 am - 5:00 pm   Thursday 9:00 am - 8:00 pm   Friday 9:00 am - 4:00 pm   Saturday 8:00 am - 4:00 pm   (Evenings Available By Appointement)","latitude":"45.511589","longitude":"-75.558345"},{"source":"yellow page","service_name":"Bateman House","category":"cabinet","phone":"613-834-1746","address":"110 place d'Orléans Dr, Orléans, ON K1C 2L9","postalcode":"K1C 2L9","website":"http://www.batemanhouse.com","working_hour":"","latitude":"45.479578","longitude":"-75.51685"},{"source":"yellow page","service_name":"Showcase","category":"cabinet","phone":"6135907889","address":"110 place d'Orléans Drive, Orléans, ON K1C 2L9","postalcode":"K1C 2L9","website":" ","working_hour":"","latitude":"45.479578","longitude":"-75.51685"},{"source":"yellow page","service_name":"Baroque Custom Woodworking","category":"cabinet","phone":"613-699-5127","address":"1020 Fieldfair Way, Orleans, ON K4A 0E2","postalcode":"K4A 0E2","website":" ","working_hour":"","latitude":"45.460949","longitude":"-75.452883"},{"source":"yellow page","service_name":"Les Boiseries A L","category":"cabinet","phone":"819-669-9490","address":"1716, rue Atmec, Gatineau, QC J8R 3Y4","postalcode":"J8R 3Y4","website":" ","working_hour":"","latitude":"45.511505","longitude":"-75.56043"},{"source":"yellow page","service_name":"Cuisines Outaouais","category":"cabinet","phone":"819-669-5151","address":"10-1695 rue Atmec, Gatineau, QC J8R 3Y3","postalcode":"J8R 3Y3","website":" ","working_hour":"Monday 8:30 am - 4:30 pm   Tuesday 8:30 am - 4:30 pm   Wednesday 8:30 am - 4:30 pm   Thursday 8:30 am - 4:30 pm   Friday 8:30 am - 4:30 pm","latitude":"45.511355","longitude":"-75.563453"},{"source":"yellow page","service_name":"Théo Mineault","category":"cabinet","phone":"819-986-3190","address":"2135, ch de Montréal O, Gatineau, QC J8M 1P3","postalcode":"J8M 1P3","website":" ","working_hour":"Monday 8:00 am - 5:00 pm   Tuesday 8:00 am - 5:00 pm   Wednesday 8:00 am - 5:00 pm   Thursday 8:00 am - 8:00 pm   Friday 8:00 am - 8:00 pm","latitude":"45.514574","longitude":"-75.526219"},{"source":"yellow page","service_name":"Surplus Furniture & Mattress Warehouse","category":"cabinet","phone":"613-247-3300","address":"1800 St. Laurent Blvd, Ottawa, ON K1G 1A2","postalcode":"K1G 1A2","website":"http://www.surplusfreight.ca","working_hour":"","latitude":"45.404288","longitude":"-75.626134"},{"source":"yellow page","service_name":"Leon's Furniture","category":"cabinet","phone":"613-737-3530","address":"1718 Heron Rd, Ottawa, ON K1V 6A1","postalcode":"K1V 6A1","website":" ","working_hour":"","latitude":"45.380393","longitude":"-75.641096"},{"source":"yellow page","service_name":"Cabinet Warehouse","category":"cabinet","phone":"613-260-1721","address":"2285 Gladwin Cres, Ottawa, ON K1B 4K9","postalcode":"K1B 4K9","website":"http://www.diyottawa.com","working_hour":"","latitude":"45.4024164","longitude":"-75.6232493"},{"source":"yellow page","service_name":"EasyHome","category":"cabinet","phone":"6135217735","address":"1910 St. Laurent Blvd, Ottawa, ON K1G 1A4","postalcode":"K1G 1A4","website":" ","working_hour":"Monday 9:00 am - 5:00 pm   Tuesday 9:00 am - 5:00 pm   Wednesday 9:00 am - 5:00 pm   Thursday 9:00 am - 5:00 pm   Friday 9:00 am - 5:00 pm   Saturday 10:00 am - 5:00 pm","latitude":"45.400051","longitude":"-75.62371"},{"source":"yellow page","service_name":"Muskoka Cabinet","category":"cabinet","phone":"613-731-4004","address":"2515 St. Laurent Blvd, Ottawa, ON K1H 8P5","postalcode":"K1H 8P5","website":" ","working_hour":"","latitude":"45.380118","longitude":"-75.63069"},{"source":"yellow page","service_name":"Bytown Woodworking","category":"cabinet","phone":"613-523-7486","address":"1501 Sieveright Rd, Gloucester, ON K1T 1M5","postalcode":"K1T 1M5","website":" ","working_hour":"","latitude":"45.354569","longitude":"-75.638919"},{"source":"yellow page","service_name":"Ottawa Kitchen Solutions","category":"cabinet","phone":"613-738-8683","address":"2350 Stevenage Dr, Ottawa, ON K1G 3W3","postalcode":"K1G 3W3","website":"http://ottawakitchensolutions.ca","working_hour":"","latitude":"45.380134","longitude":"-75.608958"},{"source":"yellow page","service_name":"Cutwell Kitchens & Custom Millwork","category":"cabinet","phone":"613-748-3140","address":"2584 Edinburgh Pl, Ottawa, ON K1B 5M1","postalcode":"K1B 5M1","website":"http://www.cutwell.ca","working_hour":"Monday 9:00 am - 5:00 pm   Tuesday 9:00 am - 5:00 pm   Wednesday 9:00 am - 5:00 pm   Thursday 9:00 am - 5:00 pm   Friday 9:00 am - 5:00 pm   Saturday 9:00 am - 5:00 pm","latitude":"45.403468","longitude":"-75.612768"},{"source":"yellow page","service_name":"Sleepy Hollow","category":"cabinet","phone":"613-736-6739","address":"6-1650Q Queensdale Ave, Gloucester, ON K1T 1N8","postalcode":"K1T 1N8","website":" ","working_hour":"","latitude":"45.3469025","longitude":"-75.6270546"},{"source":"yellow page","service_name":"Multiplex Kitchens","category":"cabinet","phone":"613-521-2545","address":"2120 Thurston Dr, Ottawa, ON K1G 6E1","postalcode":"K1G 6E1","website":" ","working_hour":"","latitude":"45.378572","longitude":"-75.624008"},{"source":"yellow page","service_name":"Cozy Home Furniture","category":"cabinet","phone":"6135212022","address":"2425 Holly Lane, Ottawa, ON K1V 7P2","postalcode":"K1V 7P2","website":" ","working_hour":"","latitude":"45.3787688","longitude":"-75.6393838"},{"source":"yellow page","service_name":"AKLwoodwork","category":"cabinet","phone":"613-263-4040","address":"3-2675 Blackwell St, Ottawa, ON K1B 4E4","postalcode":"K1B 4E4","website":"http://aklwoodwork.com","working_hour":"","latitude":"45.402334","longitude":"-75.607971"},{"source":"yellow page","service_name":"RDF Kitchen And Millwork Inc","category":"cabinet","phone":"6135212148","address":"3205 Swansea Cres, Ottawa, ON K1G 3W5","postalcode":"K1G 3W5","website":" ","working_hour":"","latitude":"45.382335","longitude":"-75.605881"},{"source":"yellow page","service_name":"Neoform Art Cabinetry","category":"cabinet","phone":"613-880-6070","address":"20 George St W, Ottawa, ON K1S 3J2","postalcode":"K1S 3J2","website":"http://www.neoform.ca","working_hour":"","latitude":"45.401828","longitude":"-75.710747"},{"source":"yellow page","service_name":"Pier 1 Imports","category":"cabinet","phone":"613-249-8347","address":"1009B Daze St, Ottawa, ON K1V 2G3","postalcode":"K1V 2G3","website":" ","working_hour":"","latitude":"45.3541685","longitude":"-75.6524095"},{"source":"yellow page","service_name":"CIC Conference Interpreters of Canada","category":"cabinet","phone":"343-700-3720","address":"226 Argyle Ave, Ottawa, ON K2P 1B9","postalcode":"K2P 1B9","website":" ","working_hour":"Monday 8:30 am - 4:30 pm   Tuesday 8:30 am - 4:30 pm   Wednesday 8:30 am - 4:30 pm   Thursday 8:30 am - 4:30 pm   Friday 8:30 am - 4:30 pm","latitude":"45.411124","longitude":"-75.690941"},{"source":"yellow page","service_name":"Delcul Renato","category":"cabinet","phone":"613-232-0834","address":"77 Pamilla St, Ottawa, ON K1S 3K7","postalcode":"K1S 3K7","website":" ","working_hour":"","latitude":"45.399498","longitude":"-75.707948"},{"source":"yellow page","service_name":"Alteriors Furniture","category":"cabinet","phone":"6137221661","address":"1165 Bank St, Ottawa, ON K1S 3X7","postalcode":"K1S 3X7","website":" ","working_hour":"","latitude":"45.3922824","longitude":"-75.6818898"},{"source":"yellow page","service_name":"Structube","category":"cabinet","phone":"613-244-0832","address":"100 Trainyards Dr, Ottawa, ON K1G 3S2","postalcode":"K1G 3S2","website":"http://www.structube.com","working_hour":"","latitude":"45.4128994","longitude":"-75.6449583"},{"source":"yellow page","service_name":"The Emporium","category":"cabinet","phone":"613-563-1046","address":"47 Main St, Ottawa, ON K1S 1B1","postalcode":"K1S 1B1","website":"http://www.theemporium.com","working_hour":"Monday 10:00 am - 5:30 pm   Tuesday 10:00 am - 5:30 pm   Wednesday 10:00 am - 5:30 pm   Thursday 10:00 am - 5:30 pm   Friday 10:00 am - 5:30 pm   Saturday 10:00 am - 5:30 pm   Sunday 12:00 pm - 5:00 pm","latitude":"45.4137266","longitude":"-75.680732"},{"source":"yellow page","service_name":"Irpinia Ottawa","category":"cabinet","phone":"613-729-6200","address":"248 Preston St, Ottawa, ON K1R 7R4","postalcode":"K1R 7R4","website":" ","working_hour":"","latitude":"45.4047627","longitude":"-75.7120321"},{"source":"yellow page","service_name":"Delusions Of Graneur","category":"cabinet","phone":"6132605740","address":"1225 Bank St, Ottawa, ON K1S 3X7","postalcode":"K1S 3X7","website":" ","working_hour":"","latitude":"45.3914337","longitude":"-75.6808541"},{"source":"yellow page","service_name":"Cabinet Francois K Law Office","category":"cabinet","phone":"6133212846","address":"1376 Rue Bank, Ottawa, ON K1H 7Y3","postalcode":"K1H 7Y3","website":" ","working_hour":"","latitude":"45.384784","longitude":"-75.67266"},{"source":"yellow page","service_name":"The Sofa Bed Store","category":"cabinet","phone":"613-422-2670","address":"223 Hopewell Ave, Ottawa, ON K1S 5R9","postalcode":"K1S 5R9","website":" ","working_hour":"","latitude":"45.389823","longitude":"-75.692129"},{"source":"yellow page","service_name":"Ottawa Cabinet Co Ltd","category":"cabinet","phone":"6132340552","address":"24 Florence St, Ottawa, ON K2P 0W7","postalcode":"K2P 0W7","website":" ","working_hour":"Monday 7:30 am - 5:00 pm   Tuesday 7:30 am - 5:00 pm   Wednesday 7:30 am - 5:00 pm   Thursday 7:30 am - 5:00 pm   Friday 7:30 am - 3:00 pm","latitude":"45.412379","longitude":"-75.69501"},{"source":"yellow page","service_name":"Mostly Danish Furniture Inc","category":"cabinet","phone":"613-761-6264","address":"2437 Kaladar Ave, Ottawa, ON K1V 8B9","postalcode":"K1V 8B9","website":"http://www.mostlydanishfurniture.ca","working_hour":"Monday 10:00 am - 6:00 pm   Tuesday 10:00 am - 6:00 pm   Wednesday 10:00 am - 6:00 pm   Thursday 10:00 am - 6:00 pm   Friday 10:00 am - 6:00 pm   Sunday 12:00 pm - 5:00 pm","latitude":"45.377336","longitude":"-75.671346"},{"source":"yellow page","service_name":"Bond's Decor Limited","category":"cabinet","phone":"613-523-1534","address":"1242 Bank St, Ottawa, ON K1S 3Y3","postalcode":"K1S 3Y3","website":" ","working_hour":"Monday 7:00 am - 6:00 pm   Tuesday 7:00 am - 6:00 pm   Wednesday 7:00 am - 6:00 pm   Thursday 7:00 am - 6:00 pm   Friday 7:00 am - 6:00 pm   Saturday 8:30 am - 5:00 pm   Sunday 12:00 pm - 4:00 pm   Store Hours May Vary","latitude":"45.390856","longitude":"-75.680378"},{"source":"yellow page","service_name":"Institut Cdn Français","category":"cabinet","phone":"6136950777","address":"316 Dalhousie St, 2nd floor, Ottawa, ON K1N 7E7","postalcode":"K1N 7E7","website":" ","working_hour":"","latitude":"45.4292898","longitude":"-75.6914798"},{"source":"yellow page","service_name":"Brault & Martineau","category":"cabinet","phone":"819-561-5007","address":"500, boul de la Gappe, Gatineau, QC J8T 8A8","postalcode":"J8T 8A8","website":" ","working_hour":"","latitude":"45.47929","longitude":"-75.696585"},{"source":"yellow page","service_name":"Modular Kitchens Ltd","category":"cabinet","phone":"6132417899","address":"48 Murray St, Ottawa, ON K1N 5M4","postalcode":"K1N 5M4","website":" ","working_hour":"","latitude":"45.4293064","longitude":"-75.6945017"},{"source":"yellow page","service_name":"La Détente Meubles et Accessoires","category":"cabinet","phone":"8192462100","address":"25 ch de la Savane, Gatineau, QC J8T 8A4","postalcode":"J8T 8A4","website":" ","working_hour":"","latitude":"45.473802","longitude":"-75.703474"},{"source":"yellow page","service_name":"Zone","category":"cabinet","phone":"613-562-2755","address":"471 Sussex Dr, Ottawa, ON K1N 6Z5","postalcode":"K1N 6Z5","website":"http://www.zonemaison.com","working_hour":"","latitude":"45.4280062","longitude":"-75.695449"},{"source":"yellow page","service_name":"Varasmus","category":"cabinet","phone":"613-247-9373","address":"499 Sussex Dr, Ottawa, ON K1N 6Z5","postalcode":"K1N 6Z5","website":"http://www.varasmus.com","working_hour":"","latitude":"45.4274943","longitude":"-75.6950129"},{"source":"yellow page","service_name":"Artemano","category":"cabinet","phone":"6135181818","address":"175 Trainyards Dr, Ottawa, ON K1G 3X8","postalcode":"K1G 3X8","website":" ","working_hour":"","latitude":"45.4146384","longitude":"-75.6430257"},{"source":"yellow page","service_name":"Triple AAA Kitchen & Cabinet Design","category":"cabinet","phone":"6132880447","address":"373 Coventry Rd, Ottawa, ON K1K 2C5","postalcode":"K1K 2C5","website":" ","working_hour":"","latitude":"45.421366","longitude":"-75.649305"},{"source":"yellow page","service_name":"Eq3","category":"cabinet","phone":"613-562-1754","address":"60 By Ward Market Sq, Ottawa, ON K1N 7A2","postalcode":"K1N 7A2","website":" ","working_hour":"","latitude":"45.42765","longitude":"-75.692881"},{"source":"yellow page","service_name":"Mega Meubles Centre de Liquidation","category":"cabinet","phone":"819-213-5567","address":"1100, boul Maloney O, Gatineau, QC J8T 6G3","postalcode":"J8T 6G3","website":" ","working_hour":"","latitude":"45.477341","longitude":"-75.69803"},{"source":"yellow page","service_name":"Azibao","category":"cabinet","phone":"819-503-6223","address":"140, boul Gréber, Gatineau, QC J8T 6H5","postalcode":"J8T 6H5","website":" ","working_hour":"","latitude":"45.468552","longitude":"-75.700642"},{"source":"yellow page","service_name":"Byward Elfurniture Warehouse","category":"cabinet","phone":"6136951771","address":"77 Clarence St, Ottawa, ON K1N 5P5","postalcode":"K1N 5P5","website":" ","working_hour":"","latitude":"45.429015","longitude":"-75.693106"},{"source":"yellow page","service_name":"Zuffa Home","category":"cabinet","phone":"613-218-7734","address":"81 Montreal Rd, Vanier, ON K1L 6E8","postalcode":"K1L 6E8","website":" ","working_hour":"","latitude":"45.43381","longitude":"-75.667426"},{"source":"yellow page","service_name":"Mattress Mart","category":"cabinet","phone":"819-243-6688","address":"Porte De Gatineau, Gatineau, QC J8T 8A4","postalcode":"J8T 8A4","website":" ","working_hour":"","latitude":"45.473872","longitude":"-75.704184"},{"source":"yellow page","service_name":"Sofa999","category":"cabinet","phone":"613-797-6676","address":"848 Belfast Rd, Ottawa, ON K1G 0Z6","postalcode":"K1G 0Z6","website":" ","working_hour":"","latitude":"45.412803","longitude":"-75.637258"},{"source":"yellow page","service_name":"Cabinet Chantal Maisonneuve Lawyer","category":"cabinet","phone":"8193171340","address":"8-495 boul de la Gappe, Gatineau, QC J8T 0A5","postalcode":"J8T 0A5","website":"http://www.avocategatineau.com","working_hour":"Monday 9:00 am - 5:00 pm   Tuesday 9:00 am - 5:00 pm   Wednesday 9:00 am - 5:00 pm   Thursday 9:00 am - 5:00 pm   Friday 9:00 am - 5:00 pm","latitude":"45.479142","longitude":"-75.698243"},{"source":"yellow page","service_name":"The Guest Room","category":"cabinet","phone":"613-241-1900","address":"740 Belfast Rd, Ottawa, ON K1G 0Z5","postalcode":"K1G 0Z5","website":" ","working_hour":"","latitude":"45.414679","longitude":"-75.64199"},{"source":"yellow page","service_name":"Bombay","category":"cabinet","phone":"6132412227","address":"100 Trainyards Dr, Ottawa, ON K1G 3S2","postalcode":"K1G 3S2","website":"http://www.bombay.ca","working_hour":"","latitude":"45.4128994","longitude":"-75.6449583"},{"source":"yellow page","service_name":"Palace Furniture Gallery Inc","category":"cabinet","phone":"6137469900","address":"401 Coventry Rd, Ottawa, ON K1K 2C5","postalcode":"K1K 2C5","website":"http://www.palacefurnituregalleryinc.com/","working_hour":"","latitude":"45.421496","longitude":"-75.647442"},{"source":"yellow page","service_name":"Structube","category":"cabinet","phone":"819-243-3505","address":"91, boul de la Gappe, Gatineau, QC J8T 0B5","postalcode":"J8T 0B5","website":" ","working_hour":"","latitude":"45.4658806","longitude":"-75.7163963"},{"source":"yellow page","service_name":"Mobilier Angèle","category":"cabinet","phone":"819-663-2222","address":"425, boul Maloney E, Gatineau, QC J8P 6Z8","postalcode":"J8P 6Z8","website":"http://www.mobilierangele.com","working_hour":"","latitude":"45.484738","longitude":"-75.638458"},{"source":"yellow page","service_name":"Structube","category":"cabinet","phone":"819-243-3505","address":"91 Bd de la Gappe","postalcode":"","website":" ","working_hour":"","latitude":"45.4658806","longitude":"-75.7163963"},{"source":"yellow page","service_name":"The Modern Shop","category":"cabinet","phone":"613-244-4343","address":"541 Sussex Dr, Ottawa, ON K1N 6Z6","postalcode":"K1N 6Z6","website":" ","working_hour":"","latitude":"45.4263568","longitude":"-75.6940261"},{"source":"yellow page","service_name":"Ashley Furniture","category":"cabinet","phone":"613-562-8200","address":"725 Belfast Rd, Ottawa, ON K1G 0Z4","postalcode":"K1G 0Z4","website":"http://www.ashleyfurniture.com","working_hour":"","latitude":"45.414584","longitude":"-75.6416491"},{"source":"yellow page","service_name":"Ashley Furniture HomeStore OUTLET","category":"cabinet","phone":"613-824-7004","address":"725 Belfast Rd, Ottawa, ON K1G 0Z4","postalcode":"K1G 0Z4","website":" ","working_hour":"","latitude":"45.414584","longitude":"-75.6416491"},{"source":"yellow page","service_name":"Cuisine Cabi-Plus (Division De Groupe Cabico Inc)","category":"cabinet","phone":"8198490774","address":"677 rue Akhurst, Coaticook, QC J1A 0B4","postalcode":"J1A 0B4","website":" ","working_hour":"","latitude":"45.425854","longitude":"-75.700578"},{"source":"yellow page","service_name":"Prestige Rénovation","category":"cabinet","phone":"819-664-6067","address":"352 Laval, Gatineau, QC J8P 1X9","postalcode":"J8P 1X9","website":" ","working_hour":"Monday 9:00 am - 5:00 pm   Tuesday 9:00 am - 5:00 pm   Wednesday 9:00 am - 5:00 pm   Thursday 9:00 am - 5:00 pm   Friday 9:00 am - 5:00 pm   Emergency Appointments Available","latitude":"45.437005","longitude":"-75.714998"},{"source":"yellow page","service_name":"Kinlock Construction & Cabinets Ltd","category":"cabinet","phone":"9025693183","address":"PE","postalcode":"","website":" ","working_hour":"","latitude":"45.420421","longitude":"-75.692432"},{"source":"yellow page","service_name":"Mick Janice Custom Furniture","category":"cabinet","phone":"9024310629","address":"NS","postalcode":"","website":"http://mickjanice.com","working_hour":"","latitude":"45.420421","longitude":"-75.692432"},{"source":"yellow page","service_name":"Cuisine Cabi-Plus (Division De Groupe Cabico Inc)","category":"cabinet","phone":"8198499153","address":"677 rue Akhurst, Coaticook, QC K1A 0B4","postalcode":"K1A 0B4","website":" ","working_hour":"","latitude":"45.425854","longitude":"-75.700578"},{"source":"yellow page","service_name":"Cabinet des juges","category":"cabinet","phone":"6132391339","address":"161 rue Elgin, Ottawa, ON","postalcode":"","website":" ","working_hour":"","latitude":"45.420438","longitude":"-75.692445"},{"source":"yellow page","service_name":"Canada Cabinet Depot","category":"cabinet","phone":"6132705133","address":"38-500 Eagleson Rd, Kanata, ON K2M 1H4","postalcode":"K2M 1H4","website":" ","working_hour":"Monday 9:00 am - 5:00 pm   Tuesday 9:00 am - 5:00 pm   Wednesday 9:00 am - 5:00 pm   Thursday 9:00 am - 5:00 pm   Friday 9:00 am - 5:00 pm   Saturday 9:00 am - 5:00 pm","latitude":"45.290771","longitude":"-75.869565"},{"source":"yellow page","service_name":"The Amish Way","category":"cabinet","phone":"613-839-2424","address":"112 John Cavanaugh Dr, Carp, ON K0A 1L0","postalcode":"K0A 1L0","website":" ","working_hour":"","latitude":"45.315546","longitude":"-75.998557"},{"source":"yellow page","service_name":"Urban Barn","category":"cabinet","phone":"6138362200","address":"5487 Hazeldean, Stittsville, ON K2S 0P5","postalcode":"K2S 0P5","website":" ","working_hour":"","latitude":"45.287383","longitude":"-75.9054221"},{"source":"yellow page","service_name":"Cartier Kitchens","category":"cabinet","phone":"6135216966","address":"430 Hazeldean Rd, Kanata, ON K2L 1T9","postalcode":"K2L 1T9","website":" ","working_hour":"Monday 9:00 am - 5:00 pm   Tuesday 9:00 am - 5:00 pm   Wednesday 9:00 am - 5:00 pm   Thursday 9:00 am - 5:00 pm   Friday 9:00 am - 5:00 pm","latitude":"45.301522","longitude":"-75.882465"},{"source":"yellow page","service_name":"Decorating Den Interiors","category":"cabinet","phone":"6138311381","address":"120 Iber Rd, Stittsville, ON K2S 1E9","postalcode":"K2S 1E9","website":" ","working_hour":"","latitude":"45.277208","longitude":"-75.904687"},{"source":"yellow page","service_name":"Ricard's Don Windows & Kitchens","category":"cabinet","phone":"613-836-6233","address":"305 Upcountry Dr, Stittsville, ON K2S 2H6","postalcode":"K2S 2H6","website":" ","working_hour":"","latitude":"45.245911","longitude":"-75.910928"},{"source":"yellow page","service_name":"HPG Design Centre & Merrickville Carpentry","category":"cabinet","phone":"613-435-1782","address":"150 Robertson Rd, Ottawa, ON K2H 9S1","postalcode":"K2H 9S1","website":" ","working_hour":"","latitude":"45.320551","longitude":"-75.837031"},{"source":"yellow page","service_name":"Spectrum Kitchen & Bath Design","category":"cabinet","phone":"613-836-7778","address":"430 Hazeldean Rd, Kanata, ON K2L 1T9","postalcode":"K2L 1T9","website":" ","working_hour":"","latitude":"45.301522","longitude":"-75.882465"},{"source":"yellow page","service_name":"Paradise Kitchen Supply","category":"cabinet","phone":"6138281515","address":"48 Northside Rd, Nepean, ON K2H 5Z5","postalcode":"K2H 5Z5","website":"http://paradisebathandkitchen.ca","working_hour":"","latitude":"45.328412","longitude":"-75.817137"},{"source":"yellow page","service_name":"Cowry Kitchen Cabinets and Accessories","category":"cabinet","phone":"613-831-8111","address":"17-462 Hazeldean Rd, Kanata, ON K2L 1V3","postalcode":"K2L 1V3","website":" ","working_hour":"Monday 10:00 am - 5:00 pm   Tuesday 10:00 am - 5:00 pm   Wednesday 10:00 am - 5:00 pm   Thursday 10:00 am - 5:00 pm   Friday 10:00 am - 5:00 pm   Saturday 10:00 am - 5:00 pm   Sunday By Appointment - Contact","latitude":"45.29909","longitude":"-75.88678"},{"source":"yellow page","service_name":"Kanata Kitchens Inc","category":"cabinet","phone":"613-270-8484","address":"500 Eagleson Rd, Kanata, ON K2M 1H4","postalcode":"K2M 1H4","website":" ","working_hour":"","latitude":"45.290771","longitude":"-75.869565"},{"source":"yellow page","service_name":"Chrishepburndesign","category":"cabinet","phone":"613-601-4413","address":"51 Florizel Ave, Ottawa, ON K2H 9R1","postalcode":"K2H 9R1","website":" ","working_hour":"","latitude":"45.313863","longitude":"-75.837509"},{"source":"yellow page","service_name":"Dykler Leon","category":"cabinet","phone":"6138397928","address":"300 Earl Grey Dr, Kanata, ON K2T 1B8","postalcode":"K2T 1B8","website":" ","working_hour":"","latitude":"45.309712","longitude":"-75.912763"},{"source":"yellow page","service_name":"MY Home","category":"cabinet","phone":"613-519-2956","address":"499 Terry Fox Dr, Kanata, ON K2T 1H7","postalcode":"K2T 1H7","website":" ","working_hour":"Monday 10:00 am - 8:00 pm   Tuesday 10:00 am - 8:00 pm   Wednesday 10:00 am - 8:00 pm   Thursday 10:00 am - 8:00 pm   Friday 10:00 am - 8:00 pm   Saturday 10:00 am - 6:00 pm   Sunday 12:00 pm - 5:00 pm","latitude":"45.309867","longitude":"-75.91932"},{"source":"yellow page","service_name":"Laurysen Kitchens Ltd","category":"cabinet","phone":"613-836-5353","address":"2415 Carp Rd, Stittsville, ON K2S 1B3","postalcode":"K2S 1B3","website":"http://www.laurysenkitchens.com/","working_hour":"Monday 8:30 am - 5:00 pm   Tuesday 8:30 am - 8:30 pm   Wednesday 8:30 am - 8:30 pm   Thursday 8:30 am - 8:30 pm   Friday 8:30 am - 5:00 pm   Saturday 9:00 am - 4:00 pm","latitude":"45.289156","longitude":"-75.967127"},{"source":"yellow page","service_name":"Signature Haus - Custom Furniture & Accessories","category":"cabinet","phone":"613-795-7860","address":"346 Laughlin Cir, Kanata, ON K2T 0E2","postalcode":"K2T 0E2","website":" ","working_hour":"","latitude":"45.3213575","longitude":"-75.9368024"},{"source":"yellow page","service_name":"Bond's Decor Ltd","category":"cabinet","phone":"613-270-8504","address":"150 Iber Rd, Stittsville, ON K2S 1E9","postalcode":"K2S 1E9","website":" ","working_hour":"Monday 7:00 am - 6:00 pm   Tuesday 7:00 am - 6:00 pm   Wednesday 7:00 am - 6:00 pm   Thursday 7:00 am - 6:00 pm   Friday 7:00 am - 6:00 pm   Saturday 8:30 am - 5:00 pm","latitude":"45.274926","longitude":"-75.901933"},{"source":"yellow page","service_name":"Pier 1 Imports","category":"cabinet","phone":"613-254-9325","address":"501 Earl Grey Dr, Kanata, ON K2T 1K4","postalcode":"K2T 1K4","website":"http://www.pier1.ca","working_hour":"","latitude":"45.309123","longitude":"-75.913167"},{"source":"yellow page","service_name":"Habib Custom Woodwork Ltd","category":"cabinet","phone":"613-591-8814","address":"600 Eagleson Rd, Kanata, ON K2M 1H4","postalcode":"K2M 1H4","website":" ","working_hour":"","latitude":"45.289575","longitude":"-75.868931"},{"source":"yellow page","service_name":"Showcase","category":"cabinet","phone":"6138287010","address":"100 Bayshore Dr, Ottawa, ON K2B 8C1","postalcode":"K2B 8C1","website":" ","working_hour":"","latitude":"45.348855","longitude":"-75.804625"},{"source":"yellow page","service_name":"Mostly Danish Furniture Inc","category":"cabinet","phone":"6132413873","address":"1000 Wellington St W, Ottawa, ON K1Y 2X9","postalcode":"K1Y 2X9","website":" ","working_hour":"","latitude":"45.405154","longitude":"-75.723337"},{"source":"yellow page","service_name":"A Modern Space","category":"cabinet","phone":"613-295-4256","address":"1116 Wellington St W, Ottawa, ON K1Y 2Y7","postalcode":"K1Y 2Y7","website":"http://amodernspace.ca","working_hour":"","latitude":"45.4023046","longitude":"-75.7262649"},{"source":"yellow page","service_name":"Vice Versa","category":"cabinet","phone":"8195950006","address":"50 rue Montcalm, Gatineau, QC J8X 2L3","postalcode":"J8X 2L3","website":"http://www.viceversa.ca","working_hour":"","latitude":"45.426025","longitude":"-75.723765"},{"source":"yellow page","service_name":"Hand Werk Interior Corp","category":"cabinet","phone":"613-321-1526","address":"86 Spadina Ave, Ottawa, ON K1Y 2C1","postalcode":"K1Y 2C1","website":" ","working_hour":"","latitude":"45.403234","longitude":"-75.7201"},{"source":"yellow page","service_name":"Blue Print Home","category":"cabinet","phone":"613-761-1403","address":"1301 Wellington St W, Ottawa, ON K1Y 3B1","postalcode":"K1Y 3B1","website":" ","working_hour":"","latitude":"45.3988179","longitude":"-75.7360811"},{"source":"yellow page","service_name":"Da Silva Upright","category":"cabinet","phone":"613-794-1025","address":"107 Bank St, Ottawa, ON K1P 5N5","postalcode":"K1P 5N5","website":" ","working_hour":"","latitude":"45.4197768","longitude":"-75.7001196"},{"source":"yellow page","service_name":"Mostly Danish Furniture Inc","category":"cabinet","phone":"6132413873","address":"1244 Wellington St W, Ottawa, ON K1Y 3A4","postalcode":"K1Y 3A4","website":" ","working_hour":"","latitude":"45.399538","longitude":"-75.732571"},{"source":"yellow page","service_name":"Furniture Habitat","category":"cabinet","phone":"613-722-8772","address":"1191 Wellington St W, Ottawa, ON K1Y 2Z6","postalcode":"K1Y 2Z6","website":" ","working_hour":"","latitude":"45.400452","longitude":"-75.7299987"},{"source":"yellow page","service_name":"Luc Crawford Design Planning","category":"cabinet","phone":"613-722-0839","address":"22 Antares Dr, Nepean, ON K2E 7Z6","postalcode":"K2E 7Z6","website":" ","working_hour":"","latitude":"45.40625","longitude":"-75.721315"},{"source":"yellow page","service_name":"Chinese Oriental Interiors","category":"cabinet","phone":"613-241-3873","address":"1000 Wellington St W, Ottawa, ON K1Y 2X9","postalcode":"K1Y 2X9","website":" ","working_hour":"","latitude":"45.405154","longitude":"-75.723337"},{"source":"yellow page","service_name":"Anton Vuksinic Construction Inc","category":"cabinet","phone":"613-749-8075","address":"PO Box 3240 Stn C, Ottawa, ON K1Y 4J5","postalcode":"K1Y 4J5","website":"http://ottawabathroomrenovationdirectory.com","working_hour":"","latitude":"45.401184","longitude":"-75.731447"},{"source":"yellow page","service_name":"Sinan`s Furniture & Upholstery","category":"cabinet","phone":"9028808698","address":"NS","postalcode":"","website":" ","working_hour":"","latitude":"45.420421","longitude":"-75.692432"},{"source":"yellow page","service_name":"Muskoka","category":"cabinet","phone":"6137375808","address":"1760 St. Laurent Blvd, Ottawa, ON K1G 1A2","postalcode":"K1G 1A2","website":" ","working_hour":"","latitude":"45.404643","longitude":"-75.626348"},{"source":"yellow page","service_name":"Muskoka Cabinet Company","category":"cabinet","phone":"613-526-2261","address":"1760 St. Laurent Blvd, Ottawa, ON K1G 1A2","postalcode":"K1G 1A2","website":"http://www.muskokacabco.com","working_hour":"","latitude":"45.404643","longitude":"-75.626348"},{"source":"yellow page","service_name":"MY Kitchens","category":"cabinet","phone":"613-226-6886","address":"4-107 Colonnade Rd, Nepean, ON K2E 7M3","postalcode":"K2E 7M3","website":"http://www.mykitchenottawa.com","working_hour":"Monday 9:00 am - 5:00 pm   Tuesday 9:00 am - 5:00 pm   Wednesday 9:00 am - 5:00 pm   Thursday 9:00 am - 5:00 pm   Friday 9:00 am - 5:00 pm   Saturday 10:00 am - 4:00 pm","latitude":"45.34617","longitude":"-75.703494"},{"source":"yellow page","service_name":"La-Z-Boy Furniture Galleries","category":"cabinet","phone":"613-228-0100","address":"3-290 West Hunt Club Rd, Nepean, ON K2E 0B7","postalcode":"K2E 0B7","website":"http://www.la-z-boy.com/","working_hour":"","latitude":"45.3399004","longitude":"-75.7116723"},{"source":"yellow page","service_name":"Builders World","category":"cabinet","phone":"6132261733","address":"80A Jamie Ave, Nepean, ON K2E 6T6","postalcode":"K2E 6T6","website":" ","working_hour":"","latitude":"45.336177","longitude":"-75.716749"},{"source":"yellow page","service_name":"Heartwood Kitchens & Baths","category":"cabinet","phone":"613-723-3322","address":"210 Colonnade Rd, Nepean, ON K2E 7L5","postalcode":"K2E 7L5","website":"http://www.heartwood-kitchens.com","working_hour":"Monday 10:00 am - 4:00 pm   Tuesday 10:00 am - 4:00 pm   Wednesday 10:00 am - 4:00 pm   Thursday 10:00 am - 4:00 pm   Friday 10:00 am - 4:00 pm   Saturday 10:00 am - 4:00 pm","latitude":"45.3418031","longitude":"-75.7137439"},{"source":"yellow page","service_name":"Cefaloni Counter Tops","category":"cabinet","phone":"613-727-5234","address":"211 Colonnade Rd, Nepean, ON K2E 7K3","postalcode":"K2E 7K3","website":" ","working_hour":"","latitude":"45.341536","longitude":"-75.7163"},{"source":"yellow page","service_name":"Kitchen Interiors","category":"cabinet","phone":"613-228-0888","address":"105-146 Colonnade Rd, Nepean, ON K2E 7Y1","postalcode":"K2E 7Y1","website":"http://www.kitcheninteriors.ca","working_hour":"Monday 9:00 am - 5:00 pm   Tuesday 9:00 am - 5:00 pm   Wednesday 9:00 am - 5:00 pm   Thursday 9:00 am - 5:00 pm   Friday 9:00 am - 5:00 pm   Saturday 10:00 am - 4:00 pm","latitude":"45.342782","longitude":"-75.707543"},{"source":"yellow page","service_name":"Gifford Storage Cabinets","category":"cabinet","phone":"613-795-4430","address":"138 Amberwood Cres, Nepean, ON K2E 7L7","postalcode":"K2E 7L7","website":" ","working_hour":"","latitude":"45.323086","longitude":"-75.701953"},{"source":"yellow page","service_name":"Raywal Kitchens","category":"cabinet","phone":"6137231115","address":"210 Colonnade Rd, Nepean, ON K2E 7L5","postalcode":"K2E 7L5","website":" ","working_hour":"","latitude":"45.3418031","longitude":"-75.7137439"},{"source":"yellow page","service_name":"United Furniture Warehouse","category":"cabinet","phone":"6132244544","address":"350 Chemin Hunt Club, Nepean, ON K1V 1C1","postalcode":"K1V 1C1","website":" ","working_hour":"","latitude":"45.337419","longitude":"-75.717781"},{"source":"yellow page","service_name":"Kozar Vily","category":"cabinet","phone":"613-728-8633","address":"54 Cleopatra Dr, Nepean, ON K2G 0B3","postalcode":"K2G 0B3","website":" ","working_hour":"","latitude":"45.325645","longitude":"-75.72494"},{"source":"yellow page","service_name":"Ottawa Building Service Company","category":"cabinet","phone":"613-226-6197","address":"20 Cleopatra Dr, Nepean, ON K2G 0B3","postalcode":"K2G 0B3","website":" ","working_hour":"","latitude":"45.3264535","longitude":"-75.7221987"},{"source":"yellow page","service_name":"Brick The","category":"cabinet","phone":"613-225-8898","address":"565 West Hunt Club Rd, Nepean, ON K2G 5W5","postalcode":"K2G 5W5","website":" ","working_hour":"","latitude":"45.333593","longitude":"-75.726964"},{"source":"yellow page","service_name":"EQ3","category":"cabinet","phone":"613-723-6356","address":"1832 Merivale Rd, Nepean, ON K2G 1E6","postalcode":"K2G 1E6","website":"http://www.eq3.com","working_hour":"","latitude":"45.335419","longitude":"-75.72458"},{"source":"yellow page","service_name":"Structube","category":"cabinet","phone":"613-225-5384","address":"1832 Merivale Rd, Ottawa, ON K2G 1E6","postalcode":"K2G 1E6","website":" ","working_hour":"","latitude":"45.335419","longitude":"-75.72458"},{"source":"yellow page","service_name":"Valley Squire Furniture","category":"cabinet","phone":"613-822-0501","address":"4599 Bank St, Gloucester, ON K1T 3W6","postalcode":"K1T 3W6","website":"http://www.valleysquire.com","working_hour":"","latitude":"45.3288185","longitude":"-75.5985588"},{"source":"yellow page","service_name":"Sofa World","category":"cabinet","phone":"613-723-1364","address":"1841 Merivale Rd, Nepean, ON K2G 1E3","postalcode":"K2G 1E3","website":" ","working_hour":"","latitude":"45.337828","longitude":"-75.725739"},{"source":"yellow page","service_name":"Ashley HomeStore","category":"cabinet","phone":"613-225-4000","address":"530 West Hunt Club Rd, Nepean, ON K2G 7B5","postalcode":"K2G 7B5","website":"https://stores.ashleyfurniturehomestore.com/store/CA/on/ottawa/530-w-hunt-club-rd","working_hour":"Monday 10:00 am - 9:00 pm   Tuesday 10:00 am - 9:00 pm   Wednesday 10:00 am - 9:00 pm   Thursday 10:00 am - 9:00 pm   Friday 10:00 am - 9:00 pm   Saturday 10:00 am - 9:00 pm   Sunday 11:00 am - 6:00 pm","latitude":"45.3337037","longitude":"-75.7262886"},{"source":"yellow page","service_name":"Regal Precision Woodworking","category":"cabinet","phone":"613-731-4524","address":"3326 Chemin Limebank, Ottawa, ON K1V 1H2","postalcode":"K1V 1H2","website":" ","working_hour":"","latitude":"45.318363","longitude":"-75.691218"},{"source":"yellow page","service_name":"Mobilia","category":"cabinet","phone":"613-727-9090","address":"1872 Merivale Rd, Nepean, ON K2G 1E6","postalcode":"K2G 1E6","website":"http://www.mobilia.ca","working_hour":"","latitude":"45.333843","longitude":"-75.723636"},{"source":"yellow page","service_name":"9249419 Canada Inc","category":"cabinet","phone":"613-226-6886","address":"107 Colonnade Rd, Nepean, ON K2E 7M3","postalcode":"K2E 7M3","website":" ","working_hour":"","latitude":"45.34617","longitude":"-75.703494"},{"source":"yellow page","service_name":"Ottawa Expert Refacing & Kitchens","category":"cabinet","phone":"613-228-8595","address":"43 Grenfell Cres, Nepean, ON K2G 0G3","postalcode":"K2G 0G3","website":" ","working_hour":"24 hours a day - 7 days a week","latitude":"45.321689","longitude":"-75.721549"},{"source":"yellow page","service_name":"Instaco Inc","category":"cabinet","phone":"613-692-0666","address":"24 Fencerow Way, Nepean, ON K2J 4X8","postalcode":"K2J 4X8","website":"http://www.instaco.ca","working_hour":"","latitude":"45.258378","longitude":"-75.72715"},{"source":"yellow page","service_name":"Furniture Insites","category":"cabinet","phone":"613-692-5080","address":"54 Long Island Rd, Manotick, ON K4M 1H1","postalcode":"K4M 1H1","website":" ","working_hour":"","latitude":"45.234685","longitude":"-75.685791"},