{"table":[{"source":"yellow page","service_name":"Michelson Wheel Alignment Ltd","category":"car mechanic","phone":"613-623-4734","address":"144 Daniel St S, Arnprior, ON","postalcode":"","website":" ","working_hour":"","latitude":"45.427251","longitude":"-76.361343"},{"source":"yellow page","service_name":"Northwest Automotive","category":"car mechanic","phone":"613-623-4746","address":"94 Pine Grove Rd, Arnprior, ON K7S 3G8","postalcode":"K7S 3G8","website":" ","working_hour":"Monday 8:00 am - 5:00 pm   Tuesday 8:00 am - 5:00 pm   Wednesday 8:00 am - 5:00 pm   Thursday 8:00 am - 5:00 pm   Friday 8:00 am - 5:00 pm","latitude":"45.429746","longitude":"-76.392623"},{"source":"yellow page","service_name":"Bristol Marine","category":"car mechanic","phone":"819-647-2899","address":"91 Rte 148, Bristol, QC","postalcode":"","website":" ","working_hour":"","latitude":"45.5475037","longitude":"-76.3741991"},{"source":"yellow page","service_name":"Jim Barry's Truck & Auto Repair","category":"car mechanic","phone":"613-623-7596","address":"89 McLachlin St N, Arnprior, ON K7S 2Y4","postalcode":"K7S 2Y4","website":" ","working_hour":"Appointment Only","latitude":"45.436753","longitude":"-76.361518"},{"source":"yellow page","service_name":"J & A Automotive Repair","category":"car mechanic","phone":"6136230039","address":"Jackson PO Box 7 Stn Main, Arnprior, ON K7S 3H2","postalcode":"K7S 3H2","website":"http://www.jaautoservice.ca/en/","working_hour":"","latitude":"45.416251","longitude":"-76.373721"},{"source":"yellow page","service_name":"Doug's Automotive Solutions","category":"car mechanic","phone":"613-431-8290","address":"470 O'Brien Rd, Renfrew, ON K7V 3Z2","postalcode":"K7V 3Z2","website":" ","working_hour":"","latitude":"45.471132","longitude":"-76.665852"},{"source":"yellow page","service_name":"Morrison Automotive","category":"car mechanic","phone":"1-844-620-9932","address":"9-25 MacDonald St S, Arnprior, ON K7S 2W4","postalcode":"K7S 2W4","website":"http://www.morrisonautomotive.ca/","working_hour":"Monday 8:00 am - 5:00 pm   Tuesday 8:00 am - 5:00 pm   Wednesday 8:00 am - 5:00 pm   Thursday 8:00 am - 5:00 pm   Friday 8:00 am - 4:00 pm","latitude":"45.433742","longitude":"-76.362324"},{"source":"yellow page","service_name":"Arnprior Transmission","category":"car mechanic","phone":"613-623-7308","address":"110 Staye Court Dr, Arnprior, ON K7S 0E7","postalcode":"K7S 0E7","website":" ","working_hour":"","latitude":"45.4234955","longitude":"-76.3715057"},{"source":"yellow page","service_name":"Blair's Automotive","category":"car mechanic","phone":"613-622-7882","address":"180 Elgin St W, Arnprior, ON K7S 1P1","postalcode":"K7S 1P1","website":" ","working_hour":"Monday 8:00 am - 5:00 pm   Tuesday 8:00 am - 5:00 pm   Wednesday 8:00 am - 5:00 pm   Thursday 8:00 am - 5:00 pm   Friday 8:00 am - 5:00 pm","latitude":"45.4363281","longitude":"-76.359619"},{"source":"yellow page","service_name":"Fern's Auto Service Ltd","category":"car mechanic","phone":"613-622-0496","address":"140 Pine Grove Rd, Arnprior, ON K7S 3G8","postalcode":"K7S 3G8","website":" ","working_hour":"Monday 8:00 am - 5:00 pm   Tuesday 8:00 am - 5:00 pm   Wednesday 8:00 am - 5:00 pm   Thursday 8:00 am - 5:00 pm   Friday 8:00 am - 5:00 pm","latitude":"45.429367","longitude":"-76.39538"},{"source":"yellow page","service_name":"Auto Pack Limited","category":"car mechanic","phone":"6134329468","address":"400 O'Brien Rd, Renfrew, ON K7V 3Z2","postalcode":"K7V 3Z2","website":" ","working_hour":"","latitude":"45.47024","longitude":"-76.667275"},{"source":"yellow page","service_name":"Anderson Automotive","category":"car mechanic","phone":"613-623-2919","address":"24 Daniel St S, Arnprior, ON K7S 2L4","postalcode":"K7S 2L4","website":" ","working_hour":"","latitude":"45.429676","longitude":"-76.357676"},{"source":"yellow page","service_name":"Bristol Autobody","category":"car mechanic","phone":"819-647-3313","address":"11, ch Front RR 1, Bristol, QC J0X 1G0","postalcode":"J0X 1G0","website":" ","working_hour":"","latitude":"45.529644","longitude":"-76.463611"},{"source":"yellow page","service_name":"Bean's Service Station","category":"car mechanic","phone":"8196472545","address":"355 Rte 148, Shawville, QC J0X 2Y0","postalcode":"J0X 2Y0","website":" ","working_hour":"Monday 7:30 am - 8:00 pm   Tuesday 7:30 am - 8:00 pm   Wednesday 7:30 am - 8:00 pm   Thursday 7:30 am - 10:00 pm   Friday 7:30 am - 10:00 pm   Saturday 7:30 am - 10:00 pm   Sunday 8:00 am - 8:00 pm","latitude":"45.5973399","longitude":"-76.6164233"},{"source":"yellow page","service_name":"Tom's Auto","category":"car mechanic","phone":"613-623-0900","address":"89 McLachlin St N, Arnprior, ON K7S 2Y4","postalcode":"K7S 2Y4","website":" ","working_hour":"","latitude":"45.436753","longitude":"-76.361518"},{"source":"yellow page","service_name":"Mr Radiator","category":"car mechanic","phone":"613-525-3752","address":"2806 County Road 34, Alexandria, ON K0C 1A0","postalcode":"K0C 1A0","website":"http://www.mrradiator.ca","working_hour":"Monday 8:00 am - 5:00 pm   Tuesday 8:00 am - 5:00 pm   Wednesday 8:00 am - 5:00 pm   Thursday 8:00 am - 5:00 pm   Friday 8:00 am - 5:00 pm","latitude":"45.3371742","longitude":"-74.6581731"},{"source":"yellow page","service_name":"Paquette A Garage","category":"car mechanic","phone":"613-678-2018","address":"34 Wall St, Vankleek Hill, ON K0B 1R0","postalcode":"K0B 1R0","website":" ","working_hour":"Monday 8:00 am - 6:00 pm   Tuesday 8:00 am - 6:00 pm   Wednesday 8:00 am - 6:00 pm   Thursday 8:00 am - 6:00 pm   Friday 8:00 am - 6:00 pm","latitude":"45.5163152","longitude":"-74.6526597"},{"source":"yellow page","service_name":"United Counties Of Prescott & Russell Garage","category":"car mechanic","phone":"6136734858","address":"775 des Comtes, Plantagenet, ON K0B 1C0","postalcode":"K0B 1C0","website":" ","working_hour":"","latitude":"45.502935","longitude":"-74.962184"},{"source":"yellow page","service_name":"King Achille","category":"car mechanic","phone":"613-675-4834","address":"935 Hwy 17, L'Orignal, ON K0B 1K0","postalcode":"K0B 1K0","website":" ","working_hour":"","latitude":"45.590043","longitude":"-74.801821"},{"source":"yellow page","service_name":"CJ's Auto Inc","category":"car mechanic","phone":"613-527-1216","address":"3256 County Road 20, Maxville, ON K0C 1T0","postalcode":"K0C 1T0","website":" ","working_hour":"Monday 8:30 am - 5:30 pm   Tuesday 8:30 am - 5:30 pm   Wednesday 8:30 am - 5:30 pm   Thursday 8:30 am - 5:30 pm   Friday 8:30 am - 5:30 pm   Saturday 8:30 am - 3:30 pm","latitude":"45.2370996","longitude":"-74.8116175"},{"source":"yellow page","service_name":"Bercier M H Garage Inc","category":"car mechanic","phone":"613-524-2632","address":"4607 Ste-Catherine St, St Isidore, ON K0C 2B0","postalcode":"K0C 2B0","website":"http://mhbercier.mechanicnet.com","working_hour":"","latitude":"45.388508","longitude":"-74.879222"},{"source":"yellow page","service_name":"Blais Viateur Garage","category":"car mechanic","phone":"613-679-2347","address":"1915 Principale, Lefaivre, ON K0B 1J0","postalcode":"K0B 1J0","website":" ","working_hour":"","latitude":"45.633095","longitude":"-74.808986"},{"source":"yellow page","service_name":"Romeo'S Service Centre","category":"car mechanic","phone":"613-525-4984","address":"19 Linsley E, Alexandria, ON K0C 1A0","postalcode":"K0C 1A0","website":" ","working_hour":"","latitude":"45.3184722","longitude":"-74.6418098"},{"source":"yellow page","service_name":"Auto Select Casselman J.P. Service Station Inc","category":"car mechanic","phone":"613-764-2115","address":"39 rue Racine, Casselman, ON K0A 1M0","postalcode":"K0A 1M0","website":"http://uniprocasselman.com","working_hour":"Monday 8:00 am - 5:00 pm   Tuesday 8:00 am - 5:00 pm   Wednesday 8:00 am - 5:00 pm   Thursday 8:00 am - 5:00 pm   Friday 8:00 am - 5:00 pm","latitude":"45.322542","longitude":"-75.11165"},{"source":"yellow page","service_name":"Garage Chartrand & Pineau","category":"car mechanic","phone":"613-679-4021","address":"1085 Hwy 17, Alfred, ON K0B 1A0","postalcode":"K0B 1A0","website":" ","working_hour":"24 hours a day - 7 days a week","latitude":"45.5582202","longitude":"-74.8806721"},{"source":"yellow page","service_name":"Purcell's Auto Repair","category":"car mechanic","phone":"613-675-2396","address":"Cassburn, L'Orignal, ON K0B 1K0","postalcode":"K0B 1K0","website":" ","working_hour":"Appointment Only","latitude":"45.590043","longitude":"-74.801821"},{"source":"yellow page","service_name":"Fassifern Service Centre Ltd","category":"car mechanic","phone":"613-525-4698","address":"2462 County Road 34, Alexandria, ON K0C 1A0","postalcode":"K0C 1A0","website":" ","working_hour":"","latitude":"45.3535715","longitude":"-74.6762695"},{"source":"yellow page","service_name":"Welden Mechanical Service","category":"car mechanic","phone":"613-678-6254","address":"102 High St, Vankleek Hill, ON K0B 1R0","postalcode":"K0B 1R0","website":" ","working_hour":"","latitude":"45.5159467","longitude":"-74.6547521"},{"source":"yellow page","service_name":"Centre Auto Papineau","category":"car mechanic","phone":"819-308-1118","address":"220, rue Papineau, Papineauville, QC J0V 1R0","postalcode":"J0V 1R0","website":" ","working_hour":"","latitude":"45.617221","longitude":"-75.0138441"},{"source":"yellow page","service_name":"Garage Serge Mécanique Inc","category":"car mechanic","phone":"819-427-5990","address":"33A, rue du Bocage, Papineauville, QC J0V 1R0","postalcode":"J0V 1R0","website":" ","working_hour":"","latitude":"45.6182183","longitude":"-75.006602"},{"source":"yellow page","service_name":"Seguin H Garage The Specialist","category":"car mechanic","phone":"613-679-2260","address":"585 Bolt Rd, Alfred and Plantagenet, ON K0B 1A0","postalcode":"K0B 1A0","website":" ","working_hour":"","latitude":"45.5595289","longitude":"-74.8842212"},{"source":"yellow page","service_name":"Pete's Auto Repair","category":"car mechanic","phone":"613-445-2168","address":"9890 Marionville Rd, Russell, ON K4R 1E5","postalcode":"K4R 1E5","website":" ","working_hour":"","latitude":"45.190245","longitude":"-75.3322384"},{"source":"yellow page","service_name":"D & J Motors Ltd","category":"car mechanic","phone":"613-774-2703","address":"12021 Dawley Dr, Winchester, ON K0C 2K0","postalcode":"K0C 2K0","website":"http://djmotorsltd.com","working_hour":"","latitude":"45.084825","longitude":"-75.372841"},{"source":"yellow page","service_name":"Curran Automotive Ltd","category":"car mechanic","phone":"613-448-2388","address":"109 ChestervilleMainN, Chesterville, ON K0C 1H0","postalcode":"K0C 1H0","website":" ","working_hour":"","latitude":"45.044353","longitude":"-75.217998"},{"source":"yellow page","service_name":"Sheldrick's Auto Service","category":"car mechanic","phone":"613-774-7272","address":"12032 Dawley Drive, Winchester, ON K0C 2K0","postalcode":"K0C 2K0","website":" ","working_hour":"","latitude":"45.085591","longitude":"-75.370784"},{"source":"yellow page","service_name":"Crysler Automotive Centre","category":"car mechanic","phone":"613-987-2911","address":"11 Queen, Crysler, ON K0A 1R0","postalcode":"K0A 1R0","website":"http://www.cryslerautomotivecentre.com","working_hour":"","latitude":"45.218164","longitude":"-75.152287"},{"source":"yellow page","service_name":"Kelly's Garage & Towing","category":"car mechanic","phone":"613-774-2009","address":"557 St Lawrence, Winchester, ON K0C 2K0","postalcode":"K0C 2K0","website":" ","working_hour":"","latitude":"45.0896168","longitude":"-75.3510878"},{"source":"yellow page","service_name":"Lamarche Jean-Guy Esso Garage","category":"car mechanic","phone":"613-679-2245","address":"339 St-Philippe, Alfred, ON K0B 1A0","postalcode":"K0B 1A0","website":" ","working_hour":"","latitude":"45.5583698","longitude":"-74.8810073"},{"source":"yellow page","service_name":"S And H Automotive","category":"car mechanic","phone":"6134966666","address":"183 Rue Castor, Russell, ON K4R 1C7","postalcode":"K4R 1C7","website":" ","working_hour":"","latitude":"45.25693","longitude":"-75.3597049"},{"source":"yellow page","service_name":"D & D Performance","category":"car mechanic","phone":"613-448-3502","address":"229 Chesterville Main St N, Chesterville, ON K0C 1H0","postalcode":"K0C 1H0","website":" ","working_hour":"Monday 8:00 am - 5:00 pm   Tuesday 8:00 am - 5:00 pm   Wednesday 8:00 am - 5:00 pm   Thursday 8:00 am - 5:00 pm   Friday 8:00 am - 5:00 pm   Appointment Only","latitude":"45.044353","longitude":"-75.217998"},{"source":"yellow page","service_name":"Jean-Pierre Lavigne Garage","category":"car mechanic","phone":"613-678-3804","address":"6944 Country Rd 10, Vankleek Hill, ON K0B 1R0","postalcode":"K0B 1R0","website":" ","working_hour":"","latitude":"45.508885","longitude":"-74.609345"},{"source":"yellow page","service_name":"Embrun Auto Tech","category":"car mechanic","phone":"613-443-4646","address":"140 Bay St, Embrun, ON K0A 1W1","postalcode":"K0A 1W1","website":"http://cryslerautomotivecentre.com","working_hour":"Monday 8:00 am - 5:00 pm   Tuesday 8:00 am - 5:00 pm   Wednesday 8:00 am - 5:00 pm   Thursday 8:00 am - 5:00 pm   Friday 8:00 am - 5:00 pm","latitude":"45.2692858","longitude":"-75.3072936"},{"source":"yellow page","service_name":"Loiselle Garage","category":"car mechanic","phone":"613-443-2955","address":"878 Notre-Dame, Embrun, ON K0A 1W0","postalcode":"K0A 1W0","website":" ","working_hour":"","latitude":"45.271009","longitude":"-75.2904663"},{"source":"yellow page","service_name":"G & A Auto & Towing","category":"car mechanic","phone":"1-855-415-6146","address":"12343 County Rd 18, Williamsburg, ON K0C 2H0","postalcode":"K0C 2H0","website":" ","working_hour":"24 hours a day - 7 days a week","latitude":"44.9722955","longitude":"-75.2480717"},{"source":"yellow page","service_name":"Coopérative Agricole d'Embrun","category":"car mechanic","phone":"613-443-3215","address":"920 Notre Dame, Embrun, ON K0A 1W0","postalcode":"K0A 1W0","website":" ","working_hour":"","latitude":"45.271751","longitude":"-75.2860518"},{"source":"yellow page","service_name":"Auto Tech","category":"car mechanic","phone":"613-443-1000","address":"140 Bay St, Embrun, ON K0A 1W1","postalcode":"K0A 1W1","website":"http://www.autotech.com","working_hour":"","latitude":"45.2692858","longitude":"-75.3072936"},{"source":"yellow page","service_name":"Lowe's Auto Repair","category":"car mechanic","phone":"613-984-2536","address":"2611 MacMillan, Finch, ON K0C 1G0","postalcode":"K0C 1G0","website":" ","working_hour":"Appointment Only","latitude":"45.185314","longitude":"-75.064275"},{"source":"yellow page","service_name":"Lannin's Garage","category":"car mechanic","phone":"613-448-2361","address":"2 Victoria, Chesterville, ON K0C 1H0","postalcode":"K0C 1H0","website":" ","working_hour":"","latitude":"45.142879","longitude":"-75.084636"},{"source":"yellow page","service_name":"Sherry's Williamsburg Inc","category":"car mechanic","phone":"6135352018","address":"4304 County Rd 31, Williamsburg, ON K0C 2H0","postalcode":"K0C 2H0","website":"http://www.hunterdaleoutfitters.com","working_hour":"Monday 6:00 am - 7:00 pm   Tuesday 6:00 am - 7:00 pm   Wednesday 6:00 am - 7:00 pm   Thursday 6:00 am - 7:00 pm   Friday 6:00 am - 7:00 pm   Saturday 6:00 am - 6:00 pm","latitude":"44.9692045","longitude":"-75.2390805"},{"source":"yellow page","service_name":"Don MacCallum Machine","category":"car mechanic","phone":"613-678-2970","address":"5531 Hwy 34, Vankleek Hill, ON K0B 1R0","postalcode":"K0B 1R0","website":" ","working_hour":"","latitude":"45.5275163","longitude":"-74.6479073"},{"source":"yellow page","service_name":"Winchester Automotive Services","category":"car mechanic","phone":"613-774-3189","address":"11906 County Road 43, Winchester, ON K0C 2K0","postalcode":"K0C 2K0","website":"http://winchesterauto.ca","working_hour":"","latitude":"45.0717404","longitude":"-75.3360396"},{"source":"yellow page","service_name":"Honey's Garage","category":"car mechanic","phone":"613-445-3020","address":"3181 Gregoire Rd, Russell, ON K4R 1E5","postalcode":"K4R 1E5","website":" ","working_hour":"","latitude":"45.2435559","longitude":"-75.3900736"},{"source":"yellow page","service_name":"Kane's Towing Repairs & Wrecking","category":"car mechanic","phone":"613-659-3332","address":"153 Quabbin Hill Rd, Mallorytown, ON K0E 1R0","postalcode":"K0E 1R0","website":" ","working_hour":"","latitude":"44.4666001","longitude":"-75.9217244"},{"source":"yellow page","service_name":"Stewart's Performance Automotion","category":"car mechanic","phone":"613-924-0001","address":"10431 County Road 7, Athens, ON K0E 1B0","postalcode":"K0E 1B0","website":" ","working_hour":"Monday 8:00 am - 5:00 pm   Tuesday 8:00 am - 5:00 pm   Wednesday 8:00 am - 5:00 pm   Thursday 8:00 am - 5:00 pm   Friday 8:00 am - 5:00 pm   Saturday 8:00 am - 4:00 pm","latitude":"44.616589","longitude":"-75.9532"},{"source":"yellow page","service_name":"Mallorytown Auto Service","category":"car mechanic","phone":"613-923-2224","address":"94 County Road 5 RR 4, Mallorytown, ON K0E 1R0","postalcode":"K0E 1R0","website":" ","working_hour":"","latitude":"44.446645","longitude":"-75.984446"},{"source":"yellow page","service_name":"D&C Automotive Repair","category":"car mechanic","phone":"6133823300","address":"215 James A. Brennan Rd, Gananoque, ON K7G 1N8","postalcode":"K7G 1N8","website":" ","working_hour":"","latitude":"44.340114","longitude":"-76.168218"},{"source":"yellow page","service_name":"Foster Repair Service","category":"car mechanic","phone":"613-382-3290","address":"560 Station Rd, Gananoque, ON K7G 2V3","postalcode":"K7G 2V3","website":" ","working_hour":"","latitude":"44.3685762","longitude":"-76.1509615"},{"source":"yellow page","service_name":"The Thousand Islands Auto Solutions","category":"car mechanic","phone":"6133822100","address":"2814 Hiscocks Rd, Gananoque, ON K7G 2V4","postalcode":"K7G 2V4","website":"http://www.1000islandsautosolutionsinc.com","working_hour":"","latitude":"44.3553871","longitude":"-76.1315834"},{"source":"yellow page","service_name":"County Garage","category":"car mechanic","phone":"6136593862","address":"Lansdowne RR 4, Lansdowne, ON K0E 1L0","postalcode":"K0E 1L0","website":"http://countygaragedoors.com","working_hour":"","latitude":"44.421135","longitude":"-76.012545"},{"source":"yellow page","service_name":"Gananoque Chev Buick GMC Cadillac","category":"car mechanic","phone":"613-382-2168","address":"439 King St E, Gananoque, ON K7G 1G9","postalcode":"K7G 1G9","website":" ","working_hour":"Monday 8:00 am - 7:00 pm   Tuesday 8:00 am - 7:00 pm   Wednesday 8:00 am - 7:00 pm   Thursday 8:00 am - 7:00 pm   Friday 8:00 am - 7:00 pm   Saturday 8:00 am - 4:00 pm   Sunday 8:00 am - 4:00 pm","latitude":"44.333776","longitude":"-76.155933"},{"source":"yellow page","service_name":"R & R Service Centre","category":"car mechanic","phone":"613-342-4875","address":"340 Central W, Brockville, ON K6V 5V2","postalcode":"K6V 5V2","website":" ","working_hour":"","latitude":"44.592169","longitude":"-75.706252"},{"source":"yellow page","service_name":"Hewitt Automotive & Marine Performance Ltd","category":"car mechanic","phone":"6133423783","address":"2407 Lyn Rd, Brockville, ON K6V 5T3","postalcode":"K6V 5T3","website":" ","working_hour":"","latitude":"44.5879787","longitude":"-75.7414974"},{"source":"yellow page","service_name":"Neal's Garage","category":"car mechanic","phone":"613-382-2094","address":"610 King St W, Gananoque, ON K7G 2H1","postalcode":"K7G 2H1","website":" ","working_hour":"24 hours a day - 7 days a week","latitude":"44.3257366","longitude":"-76.1745713"},{"source":"yellow page","service_name":"Welburn Service Ltd","category":"car mechanic","phone":"613-342-2167","address":"545 King St W, Brockville, ON K6V 3T3","postalcode":"K6V 3T3","website":" ","working_hour":"","latitude":"44.577358","longitude":"-75.702653"},{"source":"yellow page","service_name":"Running's Auto Service","category":"car mechanic","phone":"613-382-1868","address":"876 Stone St N, Gananoque, ON K7G 1Z6","postalcode":"K7G 1Z6","website":"http://runningsautoservice.ca","working_hour":"Monday 8:00 am - 5:00 pm   Tuesday 8:00 am - 5:00 pm   Wednesday 8:00 am - 5:00 pm   Thursday 8:00 am - 5:00 pm   Friday 8:00 am - 5:00 pm   Saturday 8:00 am - 12:00 pm","latitude":"44.34145","longitude":"-76.170258"},{"source":"yellow page","service_name":"Newell's Garage","category":"car mechanic","phone":"613-659-3435","address":"1028 Prince St, Lansdowne, ON K0E 1L0","postalcode":"K0E 1L0","website":" ","working_hour":"","latitude":"44.4015889","longitude":"-76.0179922"},{"source":"yellow page","service_name":"Bowen Auto Service & Wrecking","category":"car mechanic","phone":"613-342-1344","address":"Kilkenny Rd, Brockville, ON K0E 1M0","postalcode":"K0E 1M0","website":" ","working_hour":"","latitude":"44.580144","longitude":"-75.811702"},{"source":"yellow page","service_name":"Blanchard's Garage","category":"car mechanic","phone":"613-924-2100","address":"51 Main St, Athens, ON K0E 1B0","postalcode":"K0E 1B0","website":" ","working_hour":"","latitude":"44.616589","longitude":"-75.9532"},{"source":"yellow page","service_name":"Battersea Auto","category":"car mechanic","phone":"613-353-2464","address":"5183 Battersea, Battersea, ON K0H 1X0","postalcode":"K0H 1X0","website":" ","working_hour":"","latitude":"44.4298257","longitude":"-76.3859496"},{"source":"yellow page","service_name":"Township Of Bedford Garage","category":"car mechanic","phone":"6133741496","address":"1389 Westport Rd, Verona, ON K0H 1W0","postalcode":"K0H 1W0","website":" ","working_hour":"","latitude":"44.568761","longitude":"-76.595392"},{"source":"yellow page","service_name":"Custom Auto Repair","category":"car mechanic","phone":"613-653-2277","address":"4102 Perth Rd, Inverary, ON K0H 2L0","postalcode":"K0H 2L0","website":" ","working_hour":"","latitude":"44.3893268","longitude":"-76.4730207"},{"source":"yellow page","service_name":"O'Hearn's Shell Garage","category":"car mechanic","phone":"613-359-5588","address":"367 Main St, Elgin, ON K0G 1E0","postalcode":"K0G 1E0","website":" ","working_hour":"","latitude":"44.591848","longitude":"-76.309409"},{"source":"yellow page","service_name":"D & R Mobile Mechanic","category":"car mechanic","phone":"6132792929","address":"Sharbot Lake, ON K0H 2P0","postalcode":"K0H 2P0","website":" ","working_hour":"","latitude":"44.691092","longitude":"-76.747716"},{"source":"yellow page","service_name":"Heyman Auto","category":"car mechanic","phone":"613-542-1604","address":"48 Cassidy St, Kingston, ON K7K 2P2","postalcode":"K7K 2P2","website":" ","working_hour":"Monday 8:00 am - 5:00 pm   Tuesday 8:00 am - 5:00 pm   Wednesday 8:00 am - 5:00 pm   Thursday 8:00 am - 5:00 pm   Friday 8:00 am - 5:00 pm","latitude":"44.2551956","longitude":"-76.4852629"},{"source":"yellow page","service_name":"Wrench Right Auto","category":"car mechanic","phone":"613-507-7010","address":"191 Dalton Ave, Kingston, ON K7K 6C2","postalcode":"K7K 6C2","website":" ","working_hour":"Monday 8:00 am - 5:00 pm   Tuesday 8:00 am - 5:00 pm   Wednesday 8:00 am - 5:00 pm   Thursday 8:00 am - 5:00 pm   Friday 8:00 am - 5:00 pm","latitude":"44.267556","longitude":"-76.506751"},{"source":"yellow page","service_name":"Classic Automotive Repair","category":"car mechanic","phone":"6135834311","address":"5-2800 Hwy 38, Kingston, ON K0H 1M0","postalcode":"K0H 1M0","website":" ","working_hour":"","latitude":"44.319211","longitude":"-76.6188651"},{"source":"yellow page","service_name":"Powell's Auto Cleaning","category":"car mechanic","phone":"6135451644","address":"256 Elliott Ave, Kingston, ON K7K 2R1","postalcode":"K7K 2R1","website":" ","working_hour":"","latitude":"44.2568676","longitude":"-76.4921072"},{"source":"yellow page","service_name":"Hartin's Wheel Alignment Auto Repair","category":"car mechanic","phone":"613-359-1144","address":"3122 Hwy 15, Elgin, ON K0G 1E0","postalcode":"K0G 1E0","website":" ","working_hour":"","latitude":"44.6311345","longitude":"-76.2519218"},{"source":"yellow page","service_name":"Car Medics-Perth Rd","category":"car mechanic","phone":"6135466766","address":"1985 Perth Rd, Glenburnie, ON K0H 1S0","postalcode":"K0H 1S0","website":"http://www.jackbowesauto.aaro.ca","working_hour":"Monday 10:00 am - 7:00 pm   Tuesday 10:00 am - 7:00 pm   Wednesday 10:00 am - 7:00 pm   Thursday 10:00 am - 7:00 pm   Friday 10:00 am - 7:00 pm   Saturday 9:00 am - 6:00 pm","latitude":"44.299797","longitude":"-76.50153"},{"source":"yellow page","service_name":"Haynes Classic Homes","category":"car mechanic","phone":"6133891552","address":"270 Innovation Dr, Kingston, ON K7K 7E7","postalcode":"K7K 7E7","website":"http://www.haynesclassichomes.com","working_hour":"Monday 9:00 am - 4:00 pm   Tuesday 9:00 am - 4:00 pm   Wednesday 9:00 am - 4:00 pm   Thursday 9:00 am - 4:00 pm   Friday 9:00 am - 4:00 pm","latitude":"44.271829","longitude":"-76.445218"},{"source":"yellow page","service_name":"Car Medics","category":"car mechanic","phone":"613-547-8473","address":"37 Rigney St, Kingston, ON K7K 6Z3","postalcode":"K7K 6Z3","website":"http://www.carmedics.ca/","working_hour":"Monday 8:00 am - 5:00 pm   Tuesday 8:00 am - 5:00 pm   Wednesday 8:00 am - 5:00 pm   Thursday 8:00 am - 5:00 pm   Friday 8:00 am - 5:00 pm","latitude":"44.26092","longitude":"-76.503106"},{"source":"yellow page","service_name":"David Powell's Auto Service","category":"car mechanic","phone":"613-544-0207","address":"848 John Counter Blvd, Kingston, ON K7K 2R1","postalcode":"K7K 2R1","website":" ","working_hour":"","latitude":"44.257078","longitude":"-76.490854"},{"source":"yellow page","service_name":"A C Kenny Automotive Ltd","category":"car mechanic","phone":"613-545-0337","address":"80 Hickson Ave, Kingston, ON K7K 2N6","postalcode":"K7K 2N6","website":" ","working_hour":"Monday 9:30 am - 5:30 pm   Tuesday 9:30 am - 5:30 pm   Wednesday 9:30 am - 5:30 pm   Thursday 9:30 am - 5:30 pm   Friday 9:30 am - 5:30 pm","latitude":"44.252834","longitude":"-76.488296"},{"source":"yellow page","service_name":"Auto Service Kingston Inc","category":"car mechanic","phone":"613-542-1946","address":"1407 John Counter Blvd, Kingston, ON K7K 6A9","postalcode":"K7K 6A9","website":"http://www.autoservicekingston.ca/","working_hour":"Monday 8:00 am - 5:00 pm   Tuesday 8:00 am - 5:00 pm   Wednesday 8:00 am - 5:00 pm   Thursday 8:00 am - 5:00 pm   Friday 8:00 am - 5:00 pm","latitude":"44.258999","longitude":"-76.518231"},{"source":"yellow page","service_name":"Pat's Auto Centre & Radiator","category":"car mechanic","phone":"613-542-1361","address":"1875 John Counter Blvd, Kingston, ON K7M 7P5","postalcode":"K7M 7P5","website":" ","working_hour":"","latitude":"44.25857","longitude":"-76.53929"},{"source":"yellow page","service_name":"John's Auto Service","category":"car mechanic","phone":"613-542-8057","address":"45 Harvey St, Kingston, ON K7K 5C1","postalcode":"K7K 5C1","website":"http://www.johnsautokingston.ca","working_hour":"Monday 8:00 am - 5:00 pm   Tuesday 8:00 am - 5:00 pm   Wednesday 8:00 am - 5:00 pm   Thursday 8:00 am - 5:00 pm   Friday 8:00 am - 5:00 pm","latitude":"44.253714","longitude":"-76.493531"},{"source":"yellow page","service_name":"Lindsey's Tire And Auto Centre","category":"car mechanic","phone":"6135469200","address":"28 Steve Fonyo Dr, Kingston, ON K7M 8N9","postalcode":"K7M 8N9","website":" ","working_hour":"","latitude":"44.263332","longitude":"-76.521696"},{"source":"yellow page","service_name":"Mark's Auto Services","category":"car mechanic","phone":"613-546-9304","address":"795B Division St, Kingston, ON K7K 4C2","postalcode":"K7K 4C2","website":" ","working_hour":"","latitude":"44.253408","longitude":"-76.495159"},{"source":"yellow page","service_name":"Pat's Radiator Service Limited","category":"car mechanic","phone":"613-542-1361","address":"1875 John Counter Blvd, Kingston, ON K7M 7P5","postalcode":"K7M 7P5","website":"http://www.patsradiator.com","working_hour":"Monday 8:00 am - 5:00 pm   Tuesday 8:00 am - 5:00 pm   Wednesday 8:00 am - 5:00 pm   Thursday 8:00 am - 5:00 pm   Friday 8:00 am - 5:00 pm   Saturday: By Appointment Only","latitude":"44.25857","longitude":"-76.53929"},{"source":"yellow page","service_name":"Ferguson's Automatic Transmission Service","category":"car mechanic","phone":"613-283-6157","address":"37 Blacksmith Rd, Lombardy, ON K0G 1L0","postalcode":"K0G 1L0","website":" ","working_hour":"","latitude":"44.8235061","longitude":"-76.0926708"},{"source":"yellow page","service_name":"York Automotive","category":"car mechanic","phone":"613-542-5940","address":"80 Hickson Ave, Kingston, ON K7K 2N6","postalcode":"K7K 2N6","website":"http://www.yorkautomotive.com/index.htm","working_hour":"","latitude":"44.252834","longitude":"-76.488296"},{"source":"yellow page","service_name":"Jasons Auto Repair","category":"car mechanic","phone":"6137572363","address":"2 Mill St, Killaloe, ON","postalcode":"","website":" ","working_hour":"","latitude":"45.554443","longitude":"-77.416568"},{"source":"yellow page","service_name":"Sunrise Starter & Alternator Service","category":"car mechanic","phone":"613-646-2980","address":"899 Foresters Falls Rd, Cobden, ON K0J 1K0","postalcode":"K0J 1K0","website":"http://www.sunrisestarteralternator.com/","working_hour":"Appointment Only","latitude":"45.650164","longitude":"-76.836316"},{"source":"yellow page","service_name":"Richard's Repair & Service","category":"car mechanic","phone":"613-646-2183","address":"486 Cedar Haven Rd RR 1, Cobden, ON K0J 1K0","postalcode":"K0J 1K0","website":" ","working_hour":"","latitude":"45.602805","longitude":"-76.87183"},{"source":"yellow page","service_name":"K & R Automotive","category":"car mechanic","phone":"613-629-5757","address":"492 Boundary Rd E, Pembroke, ON K8A 6L5","postalcode":"K8A 6L5","website":" ","working_hour":"Monday 8:00 am - 5:00 pm   Tuesday 8:00 am - 5:00 pm   Wednesday 8:00 am - 5:00 pm   Thursday 8:00 am - 5:00 pm   Friday 8:00 am - 4:00 pm","latitude":"45.8120871","longitude":"-77.1257997"},{"source":"yellow page","service_name":"O'Grady Brothers Limited","category":"car mechanic","phone":"613-628-2103","address":"34254 Hwy 41, Eganville, ON K0J 1T0","postalcode":"K0J 1T0","website":"http://www.ogradys.biz","working_hour":"","latitude":"45.5187197","longitude":"-77.0898051"},{"source":"yellow page","service_name":"Woody's Motor Vehicle Repair","category":"car mechanic","phone":"613-432-9268","address":"Hwy 17W, Haley Station, ON K0J 1Y0","postalcode":"K0J 1Y0","website":"http://www.woodysmvr.com/","working_hour":"Monday 7:30 am - 5:00 pm   Tuesday 7:30 am - 5:00 pm   Wednesday 7:30 am - 5:00 pm   Thursday 7:30 am - 5:00 pm   Friday 7:30 am - 4:00 pm   Saturday 9:00 am - 12:00 pm   Emergency Appointments Available","latitude":"45.58393","longitude":"-76.818529"},{"source":"yellow page","service_name":"Whitewater Service Centre","category":"car mechanic","phone":"613-582-3362","address":"1805 Beachburg Rd RR 1, Beachburg, ON K0J 1C0","postalcode":"K0J 1C0","website":" ","working_hour":"Monday 8:00 am - 5:00 pm   Tuesday 8:00 am - 5:00 pm   Wednesday 8:00 am - 5:00 pm   Thursday 8:00 am - 5:00 pm   Friday 8:00 am - 5:00 pm","latitude":"45.733943","longitude":"-76.857535"},{"source":"yellow page","service_name":"Totally Auto","category":"car mechanic","phone":"613-628-3012","address":"263 Royal Pines Rd RR 6, Eganville, ON K0J 1T0","postalcode":"K0J 1T0","website":" ","working_hour":"","latitude":"45.437717","longitude":"-77.213428"},{"source":"yellow page","service_name":"Ss Auto Ac Service","category":"car mechanic","phone":"613-628-5284","address":"172 Augsburg Rd, Eganville, ON K0J 1T0","postalcode":"K0J 1T0","website":"http://www.riversideautorepair.biz/","working_hour":"","latitude":"45.539519","longitude":"-77.119137"},{"source":"yellow page","service_name":"Dan's Garage","category":"car mechanic","phone":"6135823699","address":"2051 Zion Line Rd RR 1, Beachburg, ON K0J 1C0","postalcode":"K0J 1C0","website":"http://dansgarage.net","working_hour":"","latitude":"45.730381","longitude":"-76.89851"},{"source":"yellow page","service_name":"McMillan Transmission","category":"car mechanic","phone":"1-844-402-9255","address":"11853 Round Lake Rd (close to RONA), Pembroke, ON K8A 6W8","postalcode":"K8A 6W8","website":" ","working_hour":"Monday 8:00 am - 5:00 pm   Tuesday 8:00 am - 5:00 pm   Wednesday 8:00 am - 5:00 pm   Thursday 8:00 am - 5:00 pm   Friday 8:00 am - 5:00 pm","latitude":"45.8027997","longitude":"-77.1524397"},{"source":"yellow page","service_name":"Fred-Ricks Auto Wreckers","category":"car mechanic","phone":"6136382320","address":"RR 2 Stn Main, Pembroke, ON K8A 6W3","postalcode":"K8A 6W3","website":" ","working_hour":"","latitude":"45.743626","longitude":"-76.995833"},{"source":"yellow page","service_name":"Golden Lake Variety","category":"car mechanic","phone":"613-625-1453","address":"11199 Hwy 60, Golden Lake, ON K0J 1X0","postalcode":"K0J 1X0","website":"http://goldenlake.co","working_hour":"Monday 7:00 am - 9:00 pm   Tuesday 7:00 am - 9:00 pm   Wednesday 7:00 am - 9:00 pm   Thursday 7:00 am - 9:00 pm   Friday 7:00 am - 9:00 pm   Saturday 7:00 am - 9:00 pm   Sunday 7:00 am - 9:00 pm","latitude":"45.5808766","longitude":"-77.244905"},{"source":"yellow page","service_name":"Rick's Auto Service","category":"car mechanic","phone":"613-638-5628","address":"2017 Greenwood Rd, Pembroke, ON K8A 6W2","postalcode":"K8A 6W2","website":" ","working_hour":"Appointment Only","latitude":"45.776442","longitude":"-77.042764"},{"source":"yellow page","service_name":"Dave's Automotive","category":"car mechanic","phone":"613-432-2688","address":"RR 3 Stn Main, Renfrew, ON K7V 3Z6","postalcode":"K7V 3Z6","website":"http://davesauto.ca","working_hour":"","latitude":"45.494667","longitude":"-76.746839"},{"source":"yellow page","service_name":"Carl's Auto Repair & Alignment Ltd","category":"car mechanic","phone":"613-625-2020","address":"Golden Lake, ON K0J 1X0","postalcode":"K0J 1X0","website":" ","working_hour":"","latitude":"45.580605","longitude":"-77.329557"},{"source":"yellow page","service_name":"John's Repair And Towing Service","category":"car mechanic","phone":"613-646-7876","address":"18678 Hwy 17, Cobden, ON K0J 1K0","postalcode":"K0J 1K0","website":" ","working_hour":"","latitude":"45.659747","longitude":"-76.916706"},{"source":"yellow page","service_name":"Lennartz Automotive","category":"car mechanic","phone":"1-844-582-3648","address":"10689 Round Lake Rd, Pembroke, ON K8A 0K7","postalcode":"K8A 0K7","website":"http://www.lennartzautoservice.com","working_hour":"Monday 8:00 am - 5:00 pm   Tuesday 8:00 am - 5:00 pm   Wednesday 8:00 am - 5:00 pm   Thursday 8:00 am - 5:00 pm   Friday 8:00 am - 5:00 pm   Gas Station & Convenience Store Open 6am To 7pm 7 Days A Week","latitude":"45.784192","longitude":"-77.2217081"},{"source":"yellow page","service_name":"Midas Winnipeg","category":"car mechanic","phone":"6136357619","address":"489 MacKay St, Pembroke, ON K8A 1E7","postalcode":"K8A 1E7","website":" ","working_hour":"","latitude":"45.8181942","longitude":"-77.1089173"},{"source":"yellow page","service_name":"Burleigh & Anstruther Townships","category":"car mechanic","phone":"7056564551","address":"ON","postalcode":"","website":" ","working_hour":"","latitude":"44.753764","longitude":"-78.086943"},{"source":"yellow page","service_name":"Barrett Auto Tech","category":"car mechanic","phone":"705-455-9898","address":"14367 Hwy 118, Haliburton, ON K0M 1S0","postalcode":"K0M 1S0","website":" ","working_hour":"","latitude":"45.0420801","longitude":"-78.4902083"},{"source":"yellow page","service_name":"Wheelcare Mobile Auto Clinic","category":"car mechanic","phone":"613-756-1896","address":"36820 Hwy 62 RR 2, Combermere, ON K0J 1L0","postalcode":"K0J 1L0","website":" ","working_hour":"","latitude":"45.347834","longitude":"-77.707984"},{"source":"yellow page","service_name":"Lynja Injection Services","category":"car mechanic","phone":"613-354-4922","address":"33 Dairy Ave, Napanee, ON K7R 1M4","postalcode":"K7R 1M4","website":" ","working_hour":"","latitude":"44.2542821","longitude":"-76.9561818"},{"source":"yellow page","service_name":"Post Garage Inc","category":"car mechanic","phone":"613-396-5062","address":"40 McCauley Rd RR 1, Marysville, ON K0K 2N0","postalcode":"K0K 2N0","website":" ","working_hour":"","latitude":"44.2284511","longitude":"-77.1103698"},{"source":"yellow page","service_name":"Lalonde Auto Repair","category":"car mechanic","phone":"6133968678","address":"157 Dundas St, Deseronto, ON K0K 1X0","postalcode":"K0K 1X0","website":" ","working_hour":"","latitude":"44.202229","longitude":"-77.06923"},{"source":"yellow page","service_name":"NJ Small Engines","category":"car mechanic","phone":"613-484-7638","address":"731C River Rd, Napanee, ON K7R 3K8","postalcode":"K7R 3K8","website":" ","working_hour":"","latitude":"44.217853","longitude":"-76.972527"},{"source":"yellow page","service_name":"Dale's Automatic Transmission","category":"car mechanic","phone":"613-354-9188","address":"58 County Rd 8, Napanee, ON K7R 3E7","postalcode":"K7R 3E7","website":" ","working_hour":"Monday 8:00 am - 5:00 pm   Tuesday 8:00 am - 5:00 pm   Wednesday 8:00 am - 5:00 pm   Thursday 8:00 am - 5:00 pm   Friday 8:00 am - 5:00 pm","latitude":"44.2409685","longitude":"-76.9413328"},{"source":"yellow page","service_name":"Lawrence C Roblin","category":"car mechanic","phone":"613-476-5479","address":"1840 Fish Lake Rd, Demorestville, ON K0K 1W0","postalcode":"K0K 1W0","website":" ","working_hour":"","latitude":"44.1274848","longitude":"-77.1207514"},{"source":"yellow page","service_name":"O Sullivan Repair & Transmission","category":"car mechanic","phone":"613-396-2585","address":"65 St George St, Deseronto, ON K0K 1X0","postalcode":"K0K 1X0","website":" ","working_hour":"","latitude":"44.1948246","longitude":"-77.0505216"},{"source":"yellow page","service_name":"T G Automotive Services","category":"car mechanic","phone":"705-322-4301","address":"1100 Flos Road Four W, Elmvale, ON K0L 2K0","postalcode":"K0L 2K0","website":" ","working_hour":"","latitude":"45.303707","longitude":"-78.033398"},{"source":"yellow page","service_name":"Byron Perry Automotive","category":"car mechanic","phone":"613-354-0610","address":"8101 County Road 2, Napanee, ON K7R 3K6","postalcode":"K7R 3K6","website":"http://www.pds.ca","working_hour":"Monday 7:00 am - 5:30 pm   Tuesday 7:00 am - 5:30 pm   Wednesday 7:00 am - 5:30 pm   Thursday 7:00 am - 5:30 pm   Friday 7:00 am - 5:30 pm   Saturday 7:00 am - 12:00 pm","latitude":"44.2486054","longitude":"-76.9226695"},{"source":"yellow page","service_name":"Peter Boyer Chevrolet Buick GMC","category":"car mechanic","phone":"613-354-2166","address":"Hwy 41 & 401, Napanee, ON K7R 3L4","postalcode":"K7R 3L4","website":"http://www.boyergm.com","working_hour":"","latitude":"44.267184","longitude":"-76.965389"},{"source":"yellow page","service_name":"Horner's Auto & Truck Service","category":"car mechanic","phone":"613-354-2112","address":"25 Advance Ave, Napanee, ON K7R 3Y5","postalcode":"K7R 3Y5","website":" ","working_hour":"Monday 8:00 am - 5:00 pm   Tuesday 8:00 am - 5:00 pm   Wednesday 8:00 am - 5:00 pm   Thursday 8:00 am - 5:00 pm   Friday 8:00 am - 5:00 pm   Saturday 8:00 am - 4:00 pm","latitude":"44.2559466","longitude":"-76.9560355"},{"source":"yellow page","service_name":"Schwandt Aggregates Garage","category":"car mechanic","phone":"7054489830","address":"4071 Elephant Lake, Wilberforce, ON K0L 3C0","postalcode":"K0L 3C0","website":" ","working_hour":"","latitude":"45.037081","longitude":"-78.224582"},{"source":"yellow page","service_name":"Vaughn Auto Service","category":"car mechanic","phone":"613-354-4102","address":"8101 County Road 2, Napanee, ON K7R 3K6","postalcode":"K7R 3K6","website":" ","working_hour":"Appointment Only","latitude":"44.227179","longitude":"-76.869151"},{"source":"yellow page","service_name":"Rankins Repair Service","category":"car mechanic","phone":"613-354-2277","address":"1 Dairy Ave, Napanee, ON K7R 1M4","postalcode":"K7R 1M4","website":" ","working_hour":"","latitude":"44.2551729","longitude":"-76.9572197"},{"source":"yellow page","service_name":"Kemp's Garage","category":"car mechanic","phone":"705-656-4311","address":"111 Burleigh, Apsley, ON K0L 1A0","postalcode":"K0L 1A0","website":"http://shell.ca","working_hour":"Monday 9:00 am - 5:00 pm   Tuesday 9:00 am - 5:00 pm   Wednesday 9:00 am - 5:00 pm   Thursday 9:00 am - 5:00 pm   Friday 9:00 am - 5:00 pm","latitude":"44.7534076","longitude":"-78.0872533"},{"source":"yellow page","service_name":"The Auto Clinic","category":"car mechanic","phone":"613-332-2223","address":"175 Hastings N, Bancroft, ON K0L 1C0","postalcode":"K0L 1C0","website":" ","working_hour":"","latitude":"45.036374","longitude":"-77.824645"},{"source":"yellow page","service_name":"Devolin Auto Group","category":"car mechanic","phone":"6133541600","address":"443 Milligan Lane, Napanee, ON K7R 3Z4","postalcode":"K7R 3Z4","website":" ","working_hour":"","latitude":"44.2613861","longitude":"-76.9550224"},{"source":"yellow page","service_name":"Boyer Chevrolet Buick GMC Ltd","category":"car mechanic","phone":"613-332-2438","address":"29668 Hwy 62 N, Bancroft, ON K0L 1C0","postalcode":"K0L 1C0","website":"http://www.bancroftmotors.ca","working_hour":"Monday 8:00 am - 6:00 pm   Tuesday 8:00 am - 6:00 pm   Wednesday 8:00 am - 6:00 pm   Thursday 8:00 am - 6:00 pm   Friday 8:00 am - 6:00 pm   Saturday 8:00 am - 1:00 pm","latitude":"45.102553","longitude":"-77.8787535"},{"source":"yellow page","service_name":"Leveque Bros","category":"car mechanic","phone":"613-332-5533","address":"30876 Hwy 62 N, Bancroft, ON K0L 1C0","postalcode":"K0L 1C0","website":"http://www.isabelmarques.com","working_hour":"","latitude":"45.1506223","longitude":"-77.8783746"},{"source":"yellow page","service_name":"Algonguin Motorworks","category":"car mechanic","phone":"705-457-3214","address":"7029 Gelert Rd, Haliburton, ON K0M 1S0","postalcode":"K0M 1S0","website":" ","working_hour":"","latitude":"45.033136","longitude":"-78.5342667"},{"source":"yellow page","service_name":"Cartronics Auto Electric Ltd","category":"car mechanic","phone":"613-354-5222","address":"44 Richmond Blvd, Napanee, ON","postalcode":"","website":"http://www.cartronicspowersports.com/","working_hour":"","latitude":"44.2620675","longitude":"-76.9604223"},{"source":"yellow page","service_name":"Sawyer's Garage","category":"car mechanic","phone":"705-754-2177","address":"11294 Hwy 118, West Guilford, ON K0M 1S0","postalcode":"K0M 1S0","website":" ","working_hour":"","latitude":"45.20493","longitude":"-78.559656"},{"source":"yellow page","service_name":"Rusty's Auto Service","category":"car mechanic","phone":"705-286-1434","address":"11429-35 Hwy RR 3, Minden, ON K0M 2K0","postalcode":"K0M 2K0","website":" ","working_hour":"Monday 8:00 am - 5:00 pm   Tuesday 8:00 am - 5:00 pm   Wednesday 8:00 am - 5:00 pm   Thursday 8:00 am - 5:00 pm   Friday 8:00 am - 5:00 pm","latitude":"44.883154","longitude":"-78.741522"},{"source":"yellow page","service_name":"Twsp Of Minden Hills-Administration","category":"car mechanic","phone":"7052862268","address":"1987 Fleming Rd, Minden, ON K0M 2K0","postalcode":"K0M 2K0","website":" ","working_hour":"","latitude":"44.9333303","longitude":"-78.7309982"},{"source":"yellow page","service_name":"Ross Performance & Motorsports Ltd","category":"car mechanic","phone":"705-286-6577","address":"1237 County Road 21, Minden, ON K0M 2K0","postalcode":"K0M 2K0","website":" ","working_hour":"Monday 8:00 am - 5:00 pm   Tuesday 8:00 am - 5:00 pm   Wednesday 8:00 am - 5:00 pm   Thursday 8:00 am - 5:00 pm   Friday 8:00 am - 5:00 pm","latitude":"44.9420329","longitude":"-78.6981427"},{"source":"yellow page","service_name":"Maxwell's Auto Repair By Bill Card","category":"car mechanic","phone":"613-332-2270","address":"29863 Hwy 28 S, Bancroft, ON K0L 1C0","postalcode":"K0L 1C0","website":" ","working_hour":"","latitude":"45.0492118","longitude":"-77.8861162"},{"source":"yellow page","service_name":"Russell Repair Services","category":"car mechanic","phone":"705-286-2722","address":"1015 Mystic Lane RR 6, Minden, ON K0M 2L1","postalcode":"K0M 2L1","website":"http://centredepneusdn.com","working_hour":"Monday 8:00 am - 5:00 pm   Tuesday 8:00 am - 5:00 pm   Wednesday 8:00 am - 5:00 pm   Thursday 8:00 am - 5:00 pm   Friday 8:00 am - 5:00 pm   Saturday By Appointment","latitude":"44.8099184","longitude":"-78.8082159"},{"source":"yellow page","service_name":"West Guilford Auto Centre Ltd","category":"car mechanic","phone":"705-754-2401","address":"1033 Kennisis Lake, West Guilford, ON K0M 2S0","postalcode":"K0M 2S0","website":" ","working_hour":"","latitude":"45.108839","longitude":"-78.601149"},{"source":"yellow page","service_name":"Pappy Auto Repair & Service","category":"car mechanic","phone":"613-332-4272","address":"29157 Highway 28, Bancroft, ON K0L 1C0","postalcode":"K0L 1C0","website":" ","working_hour":"Monday 8:00 am - 5:00 pm   Tuesday 8:00 am - 5:00 pm   Wednesday 8:00 am - 5:00 pm   Thursday 8:00 am - 5:00 pm   Friday 8:00 am - 5:00 pm   Saturday 8:00 am - 12:00 pm","latitude":"45.0224841","longitude":"-77.9092024"},{"source":"yellow page","service_name":"Pete's Auto Repair","category":"car mechanic","phone":"613-332-3350","address":"29423 Hwy 28 S, Bancroft, ON K0L 1C0","postalcode":"K0L 1C0","website":" ","working_hour":"","latitude":"45.0313676","longitude":"-77.8986949"},{"source":"yellow page","service_name":"CJ Repairs","category":"car mechanic","phone":"705-991-1255","address":"2116 County Rd 36, Buckhorn, ON K0L 1J0","postalcode":"K0L 1J0","website":" ","working_hour":"24 hours a day - 7 days a week   Flexible Hours, By Appointment","latitude":"44.5954056","longitude":"-78.3756897"},{"source":"yellow page","service_name":"North Hastings Tire & Auto","category":"car mechanic","phone":"613-332-5337","address":"30560 Hwy 62, Boulter, ON K0L 1C0","postalcode":"K0L 1C0","website":" ","working_hour":"","latitude":"45.036374","longitude":"-77.824645"},{"source":"yellow page","service_name":"County Automotive","category":"car mechanic","phone":"7054571411","address":"111 Industrial Pk, Haliburton, ON K0M 1S0","postalcode":"K0M 1S0","website":" ","working_hour":"","latitude":"45.0503139","longitude":"-78.5343797"},{"source":"yellow page","service_name":"Hetu's Auto Repair","category":"car mechanic","phone":"613-332-4388","address":"29556 Hwy 28, Bancroft, ON K0L 1C0","postalcode":"K0L 1C0","website":" ","working_hour":"","latitude":"45.0362708","longitude":"-77.8940837"},{"source":"yellow page","service_name":"Minden Autocare","category":"car mechanic","phone":"705-286-1730","address":"8 South Water St, Minden, ON K0M 2K0","postalcode":"K0M 2K0","website":" ","working_hour":"Monday 8:00 am - 5:00 pm   Tuesday 8:00 am - 5:00 pm   Wednesday 8:00 am - 5:00 pm   Thursday 8:00 am - 5:00 pm   Friday 8:00 am - 5:00 pm   Saturday 8:00 am - 12:00 pm","latitude":"45.031977","longitude":"-78.629891"},{"source":"yellow page","service_name":"Haliburton Automotive","category":"car mechanic","phone":"705-457-1717","address":"5185 County Rd 21, Haliburton, ON K0M 1S0","postalcode":"K0M 1S0","website":" ","working_hour":"Monday 7:00 am - 5:00 pm   Tuesday 7:00 am - 5:00 pm   Wednesday 7:00 am - 5:00 pm   Thursday 7:00 am - 5:00 pm   Friday 7:00 am - 5:00 pm","latitude":"45.0473354","longitude":"-78.5308826"},{"source":"yellow page","service_name":"A T Stewart & Sons Garage Ltd","category":"car mechanic","phone":"613-332-1282","address":"147 Monck Rd, Bancroft, ON K0L 1C0","postalcode":"K0L 1C0","website":" ","working_hour":"","latitude":"45.0469819","longitude":"-77.8936834"},{"source":"yellow page","service_name":"Burley Muffler And Alignment Centre","category":"car mechanic","phone":"613-354-6251","address":"141 Industrial Blvd, Napanee, ON K7R 3Z2","postalcode":"K7R 3Z2","website":" ","working_hour":"","latitude":"44.2598574","longitude":"-76.9540374"},{"source":"yellow page","service_name":"Access Automotive","category":"car mechanic","phone":"613-354-1133","address":"199 Richmond Blvd, Napanee, ON K7R 3Z9","postalcode":"K7R 3Z9","website":" ","working_hour":"Monday 8:00 am - 5:00 pm   Tuesday 8:00 am - 5:00 pm   Wednesday 8:00 am - 5:00 pm   Thursday 8:00 am - 5:00 pm   Friday 8:00 am - 5:00 pm","latitude":"44.2642463","longitude":"-76.9528588"},{"source":"yellow page","service_name":"Mgd Auto Repairs","category":"car mechanic","phone":"613-749-3398","address":"1108 Cadboro Rd, Gloucester, ON K1J 7R1","postalcode":"K1J 7R1","website":"http://www.mgdautorepair.aaro.ca","working_hour":"","latitude":"45.431944","longitude":"-75.621478"},{"source":"yellow page","service_name":"Ben's Auto Service","category":"car mechanic","phone":"613-749-1190","address":"81-5450 Canotek Rd, Gloucester, ON K1J 9G5","postalcode":"K1J 9G5","website":" ","working_hour":"","latitude":"45.45884","longitude":"-75.58276"},{"source":"yellow page","service_name":"Road Star Auto Boutique Centre","category":"car mechanic","phone":"6137207708","address":"12-5340 Canotek Rd, Gloucester, ON K1J 9C7","postalcode":"K1J 9C7","website":" ","working_hour":"","latitude":"45.453884","longitude":"-75.584937"},{"source":"yellow page","service_name":"Marier Auto Garage","category":"car mechanic","phone":"613-745-9838","address":"1649 Montreal Rd, Gloucester, ON K1J 6N6","postalcode":"K1J 6N6","website":"http://www.marrierauto.ca","working_hour":"Monday 7:30 am - 6:00 pm   Tuesday 7:30 am - 6:00 pm   Wednesday 7:30 am - 6:00 pm   Thursday 7:30 am - 6:00 pm   Friday 7:30 am - 6:00 pm","latitude":"45.44648","longitude":"-75.614796"},{"source":"yellow page","service_name":"Auto Surjeon","category":"car mechanic","phone":"6134218060","address":"1439 Hallmark Pl, Gloucester, ON K1B 3X4","postalcode":"K1B 3X4","website":" ","working_hour":"","latitude":"45.424844","longitude":"-75.602397"},{"source":"yellow page","service_name":"Atwill Service Centre","category":"car mechanic","phone":"6137443408","address":"1167 Rainbow St, Gloucester, ON K1J 6X7","postalcode":"K1J 6X7","website":" ","working_hour":"","latitude":"45.453977","longitude":"-75.587394"},{"source":"yellow page","service_name":"Ottawa Tires Rims","category":"car mechanic","phone":"6137453030","address":"29-5370 Canotek Rd, Gloucester, ON K1J 9E8","postalcode":"K1J 9E8","website":" ","working_hour":"","latitude":"45.455892","longitude":"-75.582905"},{"source":"yellow page","service_name":"Famous Auto Care","category":"car mechanic","phone":"613-744-7607","address":"1535 Brookmill Lane, Gloucester, ON K1B 5G4","postalcode":"K1B 5G4","website":" ","working_hour":"","latitude":"45.42023","longitude":"-75.607945"},{"source":"yellow page","service_name":"Mars And Sons Auto Repair","category":"car mechanic","phone":"613-680-6566","address":"1741 Cyrville Rd, Gloucester, ON K1B 3K8","postalcode":"K1B 3K8","website":" ","working_hour":"Monday 8:00 am - 5:00 pm   Tuesday 8:00 am - 5:00 pm   Wednesday 8:00 am - 5:00 pm   Thursday 8:00 am - 5:00 pm   Friday 8:00 am - 5:00 pm   Saturday 8:00 am - 3:00 pm","latitude":"45.416886","longitude":"-75.604759"},{"source":"yellow page","service_name":"Zack's Auto Centre","category":"car mechanic","phone":"613-746-9460","address":"2189 Ogilvie Rd, Gloucester, ON K1J 8Y7","postalcode":"K1J 8Y7","website":"http://www.zacksauto.aaro.ca","working_hour":"","latitude":"45.4427461","longitude":"-75.5973278"},{"source":"yellow page","service_name":"J & S Service Station","category":"car mechanic","phone":"613-841-6715","address":"2506 Innes Rd, Gloucester, ON K1B 3J9","postalcode":"K1B 3J9","website":" ","working_hour":"","latitude":"45.429609","longitude":"-75.569806"},{"source":"yellow page","service_name":"Halley Service Centre Ltd","category":"car mechanic","phone":"613-749-9649","address":"865 Montreal Rd, Ottawa, ON K1K 0S9","postalcode":"K1K 0S9","website":" ","working_hour":"Monday 7:30 am - 5:30 pm   Tuesday 7:30 am - 5:30 pm   Wednesday 7:30 am - 5:30 pm   Thursday 7:30 am - 5:30 pm   Friday 7:30 am - 5:30 pm","latitude":"45.44619","longitude":"-75.63144"},{"source":"yellow page","service_name":"AutoKnow","category":"car mechanic","phone":"613-745-1421","address":"29-5470 Canotek Rd, Gloucester, ON K1J 9H3","postalcode":"K1J 9H3","website":" ","working_hour":"","latitude":"45.4588208","longitude":"-75.5829485"},{"source":"yellow page","service_name":"Frank & Guy Auto Body","category":"car mechanic","phone":"613-746-1256","address":"1694 Cyrville Rd","postalcode":"","website":" ","working_hour":"","latitude":"45.417363","longitude":"-75.606701"},{"source":"yellow page","service_name":"Ron's General Repair","category":"car mechanic","phone":"613-332-2661","address":"1688 Detlor Rd, Bancroft, ON K0L 1C0","postalcode":"K0L 1C0","website":" ","working_hour":"","latitude":"45.036374","longitude":"-77.824645"},{"source":"yellow page","service_name":"North Hasting Tire & Auto","category":"car mechanic","phone":"613-332-5337","address":"30560 Hwy 62 N, Bancroft, ON K0L 1C0","postalcode":"K0L 1C0","website":" ","working_hour":"","latitude":"45.1396247","longitude":"-77.8679736"},{"source":"yellow page","service_name":"4MY AUTO","category":"car mechanic","phone":"6136805330","address":"5330 Canotek Rd, Gloucester, ON K1J 9C3","postalcode":"K1J 9C3","website":" ","working_hour":"Monday 8:00 am - 6:00 pm   Tuesday 8:00 am - 6:00 pm   Wednesday 8:00 am - 6:00 pm   Thursday 8:00 am - 6:00 pm   Friday 8:00 am - 5:00 pm   Saturday 10:00 am - 5:00 pm","latitude":"45.453157","longitude":"-75.585853"},{"source":"yellow page","service_name":"Getty Automotive Services Ltd","category":"car mechanic","phone":"613-747-0932","address":"11&12-5340 Canotek Rd Units, Gloucester, ON K1J 9C7","postalcode":"K1J 9C7","website":" ","working_hour":"Monday 10:00 am - 6:00 pm   Tuesday 10:00 am - 6:00 pm   Wednesday 10:00 am - 6:00 pm   Thursday 10:00 am - 6:00 pm   Friday 10:00 am - 6:00 pm","latitude":"45.45338","longitude":"-75.585335"},{"source":"yellow page","service_name":"J & M Auto Service","category":"car mechanic","phone":"613-824-0837","address":"2405 Page Rd, Orleans, ON K1W 1H2","postalcode":"K1W 1H2","website":" ","working_hour":"","latitude":"45.44335","longitude":"-75.525348"},{"source":"yellow page","service_name":"Orleans Service Centre","category":"car mechanic","phone":"613-837-1777","address":"306-1807 St. Joseph Blvd, Ottawa, ON K1C 7C6","postalcode":"K1C 7C6","website":" ","working_hour":"","latitude":"45.461722","longitude":"-75.547484"},{"source":"yellow page","service_name":"Orleans Radiator","category":"car mechanic","phone":"613-837-3651","address":"1807 St-Joseph Bl, Orleans, ON","postalcode":"","website":" ","working_hour":"","latitude":"45.461722","longitude":"-75.547484"},{"source":"yellow page","service_name":"Best Garage Door","category":"car mechanic","phone":"6138451077","address":"1674 Grey Nuns Dr, Orleans, ON K1C 1B5","postalcode":"K1C 1B5","website":"http://www.thebestgaragedoors.com","working_hour":"","latitude":"45.470346","longitude":"-75.539578"},{"source":"yellow page","service_name":"Adlife Services","category":"car mechanic","phone":"613-841-7700","address":"3006 St. Joseph Blvd, Orleans, ON K1E 1E2","postalcode":"K1E 1E2","website":" ","working_hour":"","latitude":"45.476281","longitude":"-75.515006"},{"source":"yellow page","service_name":"Speedy Auto Service","category":"car mechanic","phone":"613-837-3375","address":"2523 St. Joseph Blvd, Orleans, ON K1C 1G2","postalcode":"K1C 1G2","website":"http://speedy.com","working_hour":"","latitude":"45.47032","longitude":"-75.52641"},{"source":"yellow page","service_name":"Bogdan Auto Service Inc","category":"car mechanic","phone":"613-841-2039","address":"1807 St-Joseph Bl, Ottawa, ON K1C 7C6","postalcode":"K1C 7C6","website":" ","working_hour":"","latitude":"45.461722","longitude":"-75.547484"},{"source":"yellow page","service_name":"10th Line Automotive","category":"car mechanic","phone":"613-837-1009","address":"1685 10th Line Rd, Orleans, ON K1E 3E8","postalcode":"K1E 3E8","website":" ","working_hour":"","latitude":"45.468038","longitude":"-75.491938"},{"source":"yellow page","service_name":"Orleans Autotech","category":"car mechanic","phone":"6138376856","address":"3017 St. Joseph Blvd, Orleans, ON K1E 1E1","postalcode":"K1E 1E1","website":"http://www.orleansauto.aaro.ca","working_hour":"","latitude":"45.476842","longitude":"-75.513912"},{"source":"yellow page","service_name":"Bélanger Auto Max Inc","category":"car mechanic","phone":"6138248555","address":"1452 Youville Dr, Ottawa, ON K1C 1S9","postalcode":"K1C 1S9","website":" ","working_hour":"","latitude":"45.4654353","longitude":"-75.5445836"},{"source":"yellow page","service_name":"Kat Automotive Corp","category":"car mechanic","phone":"6138349503","address":"7017 Notre Dame St, Orleans, ON K1C 1H8","postalcode":"K1C 1H8","website":" ","working_hour":"","latitude":"45.470206","longitude":"-75.52259"},{"source":"yellow page","service_name":"Maxwell's Auto Repair","category":"car mechanic","phone":"613-505-5247","address":"1455 Youville Dr, Orléans, ON K1C 6Z7","postalcode":"K1C 6Z7","website":"http://maxwellauto.ca/","working_hour":"Monday 7:30 am - 5:30 pm   Tuesday 7:30 am - 5:30 pm   Wednesday 7:30 am - 5:30 pm   Thursday 7:30 am - 5:30 pm   Friday 7:30 am - 5:30 pm","latitude":"45.4654061","longitude":"-75.5444851"},{"source":"yellow page","service_name":"Tech Experts","category":"car mechanic","phone":"613-841-6782","address":"1243 Cousineau St, Orleans, ON K1C 1B2","postalcode":"K1C 1B2","website":" ","working_hour":"Monday 9:00 am - 5:00 pm   Tuesday 9:00 am - 5:00 pm   Wednesday 9:00 am - 5:00 pm   Thursday 9:00 am - 5:00 pm   Friday 9:00 am - 5:00 pm","latitude":"45.471944","longitude":"-75.526342"},{"source":"yellow page","service_name":"Top Teck Auto","category":"car mechanic","phone":"613-834-3003","address":"3003 St. Joseph Blvd, Orleans, ON K1E 1E1","postalcode":"K1E 1E1","website":"http://www.orleans-auto.com","working_hour":"","latitude":"45.476144","longitude":"-75.515244"},{"source":"yellow page","service_name":"Lamoureux Auto Centre Inc","category":"car mechanic","phone":"613-824-3064","address":"2040 Lanthier Dr, Orleans, ON K4A 3V5","postalcode":"K4A 3V5","website":" ","working_hour":"","latitude":"45.456997","longitude":"-75.491775"},{"source":"yellow page","service_name":"Midas Auto Service Experts","category":"car mechanic","phone":"613-830-7215","address":"1951 St. Joseph Blvd, Orleans, ON K1C 2E2","postalcode":"K1C 2E2","website":" ","working_hour":"","latitude":"45.463555","longitude":"-75.541448"},{"source":"yellow page","service_name":"Fix Auto Orleans","category":"car mechanic","phone":"6138411010","address":"1438 Youville Dr, Orleans, ON K1C 2X8","postalcode":"K1C 2X8","website":" ","working_hour":"","latitude":"45.4655167","longitude":"-75.5453008"},{"source":"yellow page","service_name":"Orleans Auto Pro","category":"car mechanic","phone":"613-834-8884","address":"2193 St. Joseph Blvd, Orleans, ON K1C 1E7","postalcode":"K1C 1E7","website":" ","working_hour":"","latitude":"45.46725","longitude":"-75.53331"},{"source":"yellow page","service_name":"Luis's Garage","category":"car mechanic","phone":"6135215338","address":"1525 Sieveright Rd, Gloucester, ON K1T 1M5","postalcode":"K1T 1M5","website":" ","working_hour":"","latitude":"45.35499","longitude":"-75.637894"},{"source":"yellow page","service_name":"Kal's Auto Service","category":"car mechanic","phone":"613-260-3006","address":"2285 St Laurent Blvd, Ottawa, ON K1G 4Z5","postalcode":"K1G 4Z5","website":" ","working_hour":"","latitude":"45.386115","longitude":"-75.61604"},{"source":"yellow page","service_name":"Bodyshop 89","category":"car mechanic","phone":"613-739-1989","address":"1768C Queensdale Ave, Gloucester, ON K1T 1J6","postalcode":"K1T 1J6","website":" ","working_hour":"","latitude":"45.3489102","longitude":"-75.6221132"},{"source":"yellow page","service_name":"Q.M. Auto Clinic","category":"car mechanic","phone":"613-736-9022","address":"3190 Hawthorne Rd, Ottawa, ON K1G 5H5","postalcode":"K1G 5H5","website":" ","working_hour":"","latitude":"45.383999","longitude":"-75.602788"},{"source":"yellow page","service_name":"Tokyo Joe Automotive","category":"car mechanic","phone":"613-738-2233","address":"2350 Stevenage Dr, Ottawa, ON K1G 3W3","postalcode":"K1G 3W3","website":" ","working_hour":"","latitude":"45.380134","longitude":"-75.608958"},{"source":"yellow page","service_name":"Slick Automotive Solutions","category":"car mechanic","phone":"613-763-0011","address":"2161 Thurston Dr, Ottawa, ON K1G 6C9","postalcode":"K1G 6C9","website":"http://nortel.com","working_hour":"","latitude":"45.379208","longitude":"-75.622436"},{"source":"yellow page","service_name":"Luxe Auto Lounge & Rust Check","category":"car mechanic","phone":"6138303130","address":"1671 Vimont Crt, Ottawa, ON K4A 3M3","postalcode":"K4A 3M3","website":" ","working_hour":"","latitude":"45.491298","longitude":"-75.48446"},{"source":"yellow page","service_name":"Four My Auto","category":"car mechanic","phone":"613-424-6043","address":"1885 Cassia Cir, Ottawa, ON K4A 4P5","postalcode":"K4A 4P5","website":" ","working_hour":"","latitude":"45.480988","longitude":"-75.464625"},{"source":"yellow page","service_name":"Allright Automotive Repair Inc","category":"car mechanic","phone":"613-731-4929","address":"2013 St. Laurent Blvd, Ottawa, ON K1G 1A3","postalcode":"K1G 1A3","website":" ","working_hour":"","latitude":"45.396452","longitude":"-75.621663"},{"source":"yellow page","service_name":"Don Fournier Service Center","category":"car mechanic","phone":"6135215827","address":"1768 Queensdale Ave, Gloucester, ON K1T 1J6","postalcode":"K1T 1J6","website":"http://www.aaro.ca","working_hour":"","latitude":"45.349011","longitude":"-75.62189"},{"source":"yellow page","service_name":"Kals Auto Service","category":"car mechanic","phone":"613-261-9143","address":"12-3210 Swansea Cres, Ottawa, ON K1G 3W4","postalcode":"K1G 3W4","website":" ","working_hour":"","latitude":"45.382079","longitude":"-75.605507"},{"source":"yellow page","service_name":"J & D Autotech","category":"car mechanic","phone":"613-695-9624","address":"1030 Pleasant Park Rd, Ottawa, ON K1G 2A1","postalcode":"K1G 2A1","website":" ","working_hour":"Monday 7:00 am - 5:00 pm   Tuesday 7:00 am - 5:00 pm   Wednesday 7:00 am - 5:00 pm   Thursday 7:00 am - 5:00 pm   Friday 7:00 am - 5:00 pm","latitude":"45.39561","longitude":"-75.62169"},{"source":"yellow page","service_name":"C19 Garage","category":"car mechanic","phone":"6137392767","address":"2285 St. Laurent Blvd, Ottawa, ON K1G 4Z5","postalcode":"K1G 4Z5","website":" ","working_hour":"","latitude":"45.386115","longitude":"-75.61604"},{"source":"yellow page","service_name":"Henry Leung Imperial Auto","category":"car mechanic","phone":"613-288-0962","address":"2100 Thurston Dr, Ottawa, ON K1G 4K8","postalcode":"K1G 4K8","website":"http://www.imperial.aaro.ca","working_hour":"","latitude":"45.378208","longitude":"-75.624948"},{"source":"yellow page","service_name":"Abboudy S Auto","category":"car mechanic","phone":"613-247-7800","address":"2350 Stevenage Dr, Ottawa, ON K1G 3W3","postalcode":"K1G 3W3","website":"http://autoshopit.com","working_hour":"","latitude":"45.380134","longitude":"-75.608958"},{"source":"yellow page","service_name":"Ammex Fine Auto","category":"car mechanic","phone":"6133213303","address":"A 2931 Bank, Gloucester, ON K1T 1N7","postalcode":"K1T 1N7","website":" ","working_hour":"","latitude":"45.348065","longitude":"-75.625708"},{"source":"yellow page","service_name":"J & D Auto-Tech Inc","category":"car mechanic","phone":"613-731-9624","address":"1030 Pleasant Park Rd, Ottawa, ON K1G 2A1","postalcode":"K1G 2A1","website":" ","working_hour":"","latitude":"45.39561","longitude":"-75.62169"},{"source":"yellow page","service_name":"Boss Auto Repair","category":"car mechanic","phone":"613-738-9568","address":"3190 Swansea Cres, Ottawa, ON K1G 3W4","postalcode":"K1G 3W4","website":"http://www.bossautorepair.aaro.ca","working_hour":"","latitude":"45.382571","longitude":"-75.606632"},{"source":"yellow page","service_name":"Precision Automotive","category":"car mechanic","phone":"613-604-4452","address":"385 Vantage Dr, Orleans, ON K4A 3W2","postalcode":"K4A 3W2","website":"http://theautopros.ca","working_hour":"Monday 7:30 am - 6:00 pm   Tuesday 7:30 am - 6:00 pm   Wednesday 7:30 am - 6:00 pm   Thursday 7:30 am - 6:00 pm   Friday 7:30 am - 6:00 pm","latitude":"45.459009","longitude":"-75.489254"},{"source":"yellow page","service_name":"Joa's Garage","category":"car mechanic","phone":"613-263-8057","address":"12-2295 Stevenage Dr, Ottawa, ON K1G 3W1","postalcode":"K1G 3W1","website":" ","working_hour":"Monday 8:00 am - 6:00 pm   Tuesday 8:00 am - 6:00 pm   Wednesday 8:00 am - 6:00 pm   Thursday 8:00 am - 6:00 pm   Friday 8:00 am - 6:00 pm   Saturday 9:00 am - 2:00 pm","latitude":"45.378838","longitude":"-75.611193"},{"source":"yellow page","service_name":"Lancaster Auto Centre","category":"car mechanic","phone":"613-260-2665","address":"2759 Lancaster Rd, Ottawa, ON K1B 4V8","postalcode":"K1B 4V8","website":" ","working_hour":"","latitude":"45.395992","longitude":"-75.605787"},{"source":"yellow page","service_name":"Adria Auto Centre Inc","category":"car mechanic","phone":"343-700-3878","address":"1406 Bank St, Ottawa, ON K1H 7Y9","postalcode":"K1H 7Y9","website":" ","working_hour":"Monday 7:30 am - 6:00 pm   Tuesday 7:30 am - 6:00 pm   Wednesday 7:30 am - 6:00 pm   Thursday 7:30 am - 6:00 pm   Friday 7:30 am - 6:00 pm","latitude":"45.383275","longitude":"-75.671521"},{"source":"yellow page","service_name":"Procare Automotive Centre","category":"car mechanic","phone":"613-747-3642","address":"1375 Johnston Rd, Ottawa, ON K1V 8Z1","postalcode":"K1V 8Z1","website":" ","working_hour":"","latitude":"45.363649","longitude":"-75.648845"},{"source":"yellow page","service_name":"McCarthy Automotive Service Centre","category":"car mechanic","phone":"6132605255","address":"1150 Heron Rd, Ottawa, ON K1V 6B2","postalcode":"K1V 6B2","website":"http://mccarthyauto.aaro.ca","working_hour":"","latitude":"45.3781268","longitude":"-75.6714303"},{"source":"yellow page","service_name":"Roy Barber Services","category":"car mechanic","phone":"613-730-0327","address":"1063 Bank St, Ottawa, ON K1S 3W9","postalcode":"K1S 3W9","website":"http://www.roybarberservices.com/","working_hour":"Monday 7:00 am - 6:00 pm   Tuesday 7:00 am - 6:00 pm   Wednesday 7:00 am - 6:00 pm   Thursday 7:00 am - 6:00 pm   Friday 7:00 am - 6:00 pm","latitude":"45.39503","longitude":"-75.683833"},{"source":"yellow page","service_name":"Morales Auto & Gas","category":"car mechanic","phone":"613-963-0753","address":"1335 Bank St, Ottawa, ON K1H 7X8","postalcode":"K1H 7X8","website":" ","working_hour":"","latitude":"45.388683","longitude":"-75.677007"},{"source":"yellow page","service_name":"Takro Canada Inc","category":"car mechanic","phone":"6132362122","address":"1371 Johnston Rd, Ottawa, ON K1V 8Z1","postalcode":"K1V 8Z1","website":"http://www.autocatch.com","working_hour":"","latitude":"45.363409","longitude":"-75.649444"},{"source":"yellow page","service_name":"McCarthy Automotive","category":"car mechanic","phone":"613-688-0182","address":"1150 Heron Rd, Ottawa, ON K1V 6B2","postalcode":"K1V 6B2","website":" ","working_hour":"Monday 7:30 am - 5:00 pm   Tuesday 7:30 am - 5:00 pm   Wednesday 7:30 am - 5:00 pm   Thursday 7:30 am - 5:00 pm   Friday 7:30 am - 5:00 pm","latitude":"45.3781268","longitude":"-75.6714303"},{"source":"yellow page","service_name":"Active Green Ross","category":"car mechanic","phone":"6137310409","address":"1670 Bank St (South of Heron Rd), Ottawa, ON K1V 7Y6","postalcode":"K1V 7Y6","website":" ","working_hour":"","latitude":"45.376312","longitude":"-75.66678"},{"source":"yellow page","service_name":"Midas Auto Service Experts","category":"car mechanic","phone":"613-731-0051","address":"1691 Bank St, Ottawa, ON K1V 7Z3","postalcode":"K1V 7Z3","website":" ","working_hour":"","latitude":"45.37568","longitude":"-75.66604"},{"source":"yellow page","service_name":"McCloskey's Rick Service Ltd","category":"car mechanic","phone":"613-733-0322","address":"753 Ridgewood Ave, Ottawa, ON K1V 6M8","postalcode":"K1V 6M8","website":" ","working_hour":"","latitude":"45.3677718","longitude":"-75.6865914"},{"source":"yellow page","service_name":"Family Auto Repair","category":"car mechanic","phone":"613-233-3209","address":"1201 Bank St, Ottawa, ON K1S 3X7","postalcode":"K1S 3X7","website":" ","working_hour":"","latitude":"45.391611","longitude":"-75.681091"},{"source":"yellow page","service_name":"Caroly Loso's Violins Maker & Repairs","category":"car mechanic","phone":"6132335406","address":"1224 Walkley Rd, Ottawa, ON K1V 6P8","postalcode":"K1V 6P8","website":" ","working_hour":"","latitude":"45.370756","longitude":"-75.662267"},{"source":"yellow page","service_name":"Walmart Supercentre","category":"car mechanic","phone":"613-247-0460","address":"2210 Bank St, Ottawa, ON K1V 1J5","postalcode":"K1V 1J5","website":" ","working_hour":"","latitude":"45.358105","longitude":"-75.654977"},{"source":"yellow page","service_name":"Rick Mccloskey's Service","category":"car mechanic","phone":"613-521-0669","address":"753 Ridgewood Ave, Ottawa, ON K1V 6M8","postalcode":"K1V 6M8","website":" ","working_hour":"","latitude":"45.3677718","longitude":"-75.6865914"},{"source":"yellow page","service_name":"AMS Auto Centre","category":"car mechanic","phone":"6137334101","address":"2805 Riverside Dr, Ottawa, ON K1V 8N4","postalcode":"K1V 8N4","website":" ","working_hour":"","latitude":"45.372274","longitude":"-75.690744"},{"source":"yellow page","service_name":"Emilio Lindia Enterprises Ltd","category":"car mechanic","phone":"6132387112","address":"770 Bronson Ave, Ottawa, ON K1S 4G4","postalcode":"K1S 4G4","website":" ","working_hour":"","latitude":"45.400778","longitude":"-75.699533"},{"source":"yellow page","service_name":"Mister Muffler","category":"car mechanic","phone":"6137492157","address":"865 St. Laurent Blvd, Ottawa, ON K1K 3B1","postalcode":"K1K 3B1","website":" ","working_hour":"","latitude":"45.433036","longitude":"-75.642209"},{"source":"yellow page","service_name":"Speedy Auto Service","category":"car mechanic","phone":"6137450029","address":"963 St. Laurent Blvd, Ottawa, ON K1K 3B1","postalcode":"K1K 3B1","website":" ","working_hour":"","latitude":"45.429923","longitude":"-75.640449"},{"source":"yellow page","service_name":"Mark Motors Of Ottawa Ltd","category":"car mechanic","phone":"613-749-4275","address":"611 Montreal Rd, Ottawa, ON K1K 0T8","postalcode":"K1K 0T8","website":"http://www.markmotorsofottawa.com","working_hour":"","latitude":"45.442581","longitude":"-75.642558"},{"source":"yellow page","service_name":"Lebrun Service Centre","category":"car mechanic","phone":"613-746-1313","address":"401 St. Laurent Boulevard, Ottawa, ON K1K 2Z8","postalcode":"K1K 2Z8","website":" ","working_hour":"","latitude":"45.448138","longitude":"-75.650831"},{"source":"yellow page","service_name":"Lebrun Service Centre Ltd","category":"car mechanic","phone":"613-746-8417","address":"401 St. Laurent Boulevard, Ottawa, ON K1K 2Z8","postalcode":"K1K 2Z8","website":" ","working_hour":"","latitude":"45.448138","longitude":"-75.650831"},{"source":"yellow page","service_name":"Midas Auto Service Experts","category":"car mechanic","phone":"613-744-1900","address":"1064 St. Laurent Blvd, Ottawa, ON K1K 3B4","postalcode":"K1K 3B4","website":"http://www.ottawamidas.com","working_hour":"","latitude":"45.426786","longitude":"-75.638845"},{"source":"yellow page","service_name":"Eastmotors Ltd","category":"car mechanic","phone":"613-749-0231","address":"651 Montreal Rd, Ottawa, ON K1K 0T4","postalcode":"K1K 0T4","website":" ","working_hour":"Monday 8:00 am - 5:00 pm   Tuesday 8:00 am - 5:00 pm   Wednesday 8:00 am - 5:00 pm   Thursday 8:00 am - 5:00 pm   Friday 8:00 am - 5:00 pm   Appointment Only   Emergency Appointments Available","latitude":"45.443171","longitude":"-75.640773"},{"source":"yellow page","service_name":"Brian's Automotive Centre","category":"car mechanic","phone":"6133016938","address":"1057 Cyrville Rd, Gloucester, ON K1J 7S3","postalcode":"K1J 7S3","website":" ","working_hour":"","latitude":"45.424799","longitude":"-75.635592"},{"source":"yellow page","service_name":"Startop Automobiles Inc","category":"car mechanic","phone":"6137469463","address":"616 St. Laurent Blvd, Ottawa, ON K1K 3A1","postalcode":"K1K 3A1","website":" ","working_hour":"","latitude":"45.440204","longitude":"-75.646421"},{"source":"yellow page","service_name":"SK Auto Repair","category":"car mechanic","phone":"6137416666","address":"1-654 Montreal Rd, Ottawa, ON K1K 0T3","postalcode":"K1K 0T3","website":" ","working_hour":"","latitude":"45.443136","longitude":"-75.640493"},{"source":"yellow page","service_name":"Cbk Auto","category":"car mechanic","phone":"613-526-6666","address":"1057 Cyrville Rd, Gloucester, ON K1J 7S3","postalcode":"K1J 7S3","website":" ","working_hour":"","latitude":"45.424799","longitude":"-75.635592"},{"source":"yellow page","service_name":"American Graffiti Automotive","category":"car mechanic","phone":"613-744-0746","address":"416 McArthur Ave, Ottawa, ON K1K 1G6","postalcode":"K1K 1G6","website":" ","working_hour":"Monday 8:00 am - 5:00 pm   Tuesday 8:00 am - 5:00 pm   Wednesday 8:00 am - 5:00 pm   Thursday 8:00 am - 5:00 pm   Friday 8:00 am - 5:00 pm   Saturday 8:30 am - 12:30 pm","latitude":"45.432205","longitude":"-75.647739"},{"source":"yellow page","service_name":"Centre de Services St-Louis","category":"car mechanic","phone":"8195611041","address":"867 rue Saint-Louis, Gatineau, QC J8T 2S6","postalcode":"J8T 2S6","website":"http://www.facebook.com/pages/Gatineau-QC/Centre-De-Services-St-Louis-819-561-1041/368777391976?v=info&ref=ts&ajaxpipe=1&_a=10","working_hour":"","latitude":"45.467949","longitude":"-75.6863692"},{"source":"yellow page","service_name":"Beechwood Canada Service Station Inc","category":"car mechanic","phone":"613-749-6773","address":"188 Beechwood Ave, Vanier, ON K1L 8A9","postalcode":"K1L 8A9","website":"http://www.beechwoodcanadaautoservice.com/","working_hour":"","latitude":"45.4422504","longitude":"-75.671364"},{"source":"yellow page","service_name":"Mécanique F B Plus","category":"car mechanic","phone":"819-243-1880","address":"24, boul Gréber, Gatineau, QC J8T 3P5","postalcode":"J8T 3P5","website":" ","working_hour":"","latitude":"45.459217","longitude":"-75.699817"},{"source":"yellow page","service_name":"Garage Raymondo Auto Service","category":"car mechanic","phone":"613-745-4443","address":"271 Durocher St, Vanier, ON K1L 7S5","postalcode":"K1L 7S5","website":" ","working_hour":"","latitude":"45.4352397","longitude":"-75.6652347"},{"source":"yellow page","service_name":"Rust Check","category":"car mechanic","phone":"613-748-0326","address":"222 Beechwood Ave, Vanier, ON K1L 8A7","postalcode":"K1L 8A7","website":"http://rustcheck.com","working_hour":"","latitude":"45.443588","longitude":"-75.670499"},{"source":"yellow page","service_name":"Selmi Mouldi","category":"car mechanic","phone":"819-246-0666","address":"50, boul Gréber, Gatineau, QC J8T 3P8","postalcode":"J8T 3P8","website":" ","working_hour":"","latitude":"45.461505","longitude":"-75.699932"},{"source":"yellow page","service_name":"Vinette Auto Service","category":"car mechanic","phone":"6137416282","address":"52 McArthur Rd, Vanier, ON K1L 6P9","postalcode":"K1L 6P9","website":"http://www.vinetteautoservice.com","working_hour":"Monday 7:30 am - 5:30 pm   Tuesday 7:30 am - 5:30 pm   Wednesday 7:30 am - 5:30 pm   Thursday 7:30 am - 5:30 pm   Friday 7:30 am - 5:30 pm   Saturday 8:00 am - 4:00 pm","latitude":"45.430939","longitude":"-75.665876"},{"source":"yellow page","service_name":"Cell Buzz","category":"car mechanic","phone":"613-415-8330","address":"267 Greensway Ave, Ottawa, ON K1L 7V3","postalcode":"K1L 7V3","website":" ","working_hour":"","latitude":"45.4349635","longitude":"-75.6679217"},{"source":"yellow page","service_name":"Ontario Transmission","category":"car mechanic","phone":"613-746-3006","address":"299 Montgomery St, Vanier, ON K1L 7W8","postalcode":"K1L 7W8","website":"http://www.ontariotransmission.com","working_hour":"","latitude":"45.432694","longitude":"-75.668094"},{"source":"yellow page","service_name":"Touchette Autocare Inc","category":"car mechanic","phone":"613-744-4377","address":"175 1/2 Deschamps Ave, Vanier, ON K1L 5Z3","postalcode":"K1L 5Z3","website":" ","working_hour":"","latitude":"45.436828","longitude":"-75.665399"},{"source":"yellow page","service_name":"Baroud Auto Repair","category":"car mechanic","phone":"613-748-5555","address":"306 McArthur Ave, Vanier, ON K1L 6P2","postalcode":"K1L 6P2","website":" ","working_hour":"","latitude":"45.4316629","longitude":"-75.6553389"},{"source":"yellow page","service_name":"NAPA AUTOPRO","category":"car mechanic","phone":"613-748-7731","address":"306 Montfort St, Vanier, ON K1L 5N6","postalcode":"K1L 5N6","website":"http://www.getitfixed.com","working_hour":"","latitude":"45.438977","longitude":"-75.65936"},{"source":"yellow page","service_name":"Spark Auto","category":"car mechanic","phone":"6137447647","address":"96 Nelson St, Ottawa, ON K1N 7R5","postalcode":"K1N 7R5","website":"http://sparkautorepair.com","working_hour":"","latitude":"45.431125","longitude":"-75.685353"},{"source":"yellow page","service_name":"Mister Muffler","category":"car mechanic","phone":"819-568-0880","address":"81, boul Gréber, Gatineau, QC J8T 3P9","postalcode":"J8T 3P9","website":"http://monsieurmuffler.com","working_hour":"","latitude":"45.464094","longitude":"-75.700019"},{"source":"yellow page","service_name":"Door Inc Ability Garage","category":"car mechanic","phone":"6132253667","address":"393 Rideau St, Ottawa, ON K1N 1H1","postalcode":"K1N 1H1","website":" ","working_hour":"","latitude":"45.430422","longitude":"-75.681732"},{"source":"yellow page","service_name":"Transmission Econo","category":"car mechanic","phone":"819-410-3284","address":"111 boul Gréber, Gatineau, QC J8T 3P9","postalcode":"J8T 3P9","website":" ","working_hour":"Monday 8:00 am - 5:00 pm   Tuesday 8:00 am - 5:00 pm   Wednesday 8:00 am - 5:00 pm   Thursday 8:00 am - 5:00 pm   Friday 8:00 am - 5:00 pm","latitude":"45.466368","longitude":"-75.700342"},{"source":"yellow page","service_name":"Cumberland Auto Centre","category":"car mechanic","phone":"6137894162","address":"305 Cumberland St, Ottawa, ON K1N 7J1","postalcode":"K1N 7J1","website":" ","working_hour":"","latitude":"45.430986","longitude":"-75.689937"},{"source":"yellow page","service_name":"Beaverbrook Service Centre","category":"car mechanic","phone":"613-592-2529","address":"1001 Beaverbrook, Kanata, ON K2K 1L2","postalcode":"K2K 1L2","website":" ","working_hour":"","latitude":"45.328567","longitude":"-75.900213"},{"source":"yellow page","service_name":"Midas Auto Service Experts","category":"car mechanic","phone":"613-829-7980","address":"2060 Robertson Rd, Ottawa, ON K2H 5Y8","postalcode":"K2H 5Y8","website":"http://450bronsonavenue.ottawamidas.com","working_hour":"","latitude":"45.3057517","longitude":"-75.8724974"},{"source":"yellow page","service_name":"Active Green Ross","category":"car mechanic","phone":"613-596-2199","address":"2170 Robertson Rd, Nepean, ON K2H 5Z1","postalcode":"K2H 5Z1","website":"http://www.activegreenross.com/index.php","working_hour":"","latitude":"45.3048991","longitude":"-75.8744316"},{"source":"yellow page","service_name":"Allards Collision Centres","category":"car mechanic","phone":"6138361113","address":"24 Edgewater St, Kanata, ON K2L 1V8","postalcode":"K2L 1V8","website":" ","working_hour":"","latitude":"45.296231","longitude":"-75.896814"},{"source":"yellow page","service_name":"Bourk's","category":"car mechanic","phone":"6135912402","address":"4009 Carling Ave, Kanata, ON K2K 2A3","postalcode":"K2K 2A3","website":"http://www.bourks.com","working_hour":"","latitude":"45.339018","longitude":"-75.897669"},{"source":"yellow page","service_name":"Dan's Automotive Bell's Corners","category":"car mechanic","phone":"613-820-8903","address":"1912 Robertson Rd, Nepean, ON K2H 5B8","postalcode":"K2H 5B8","website":" ","working_hour":"","latitude":"45.3064622","longitude":"-75.8707765"},{"source":"yellow page","service_name":"Lancaster Robert C Enterprises Ltd","category":"car mechanic","phone":"613-592-4725","address":"35 Stonecroft Terr, Kanata, ON K2K 2V1","postalcode":"K2K 2V1","website":" ","working_hour":"","latitude":"45.315794","longitude":"-75.907996"},{"source":"yellow page","service_name":"Bourk's Complete Car Care","category":"car mechanic","phone":"613-599-5232","address":"4009 Carling Ave, Kanata, ON K2K 2A3","postalcode":"K2K 2A3","website":"http://www.bourks.com","working_hour":"Monday 7:30 am - 5:30 pm   Tuesday 7:30 am - 5:30 pm   Wednesday 7:30 am - 5:30 pm   Thursday 7:30 am - 5:30 pm   Friday 7:30 am - 5:30 pm","latitude":"45.339018","longitude":"-75.897669"},{"source":"yellow page","service_name":"Speedy Auto Service","category":"car mechanic","phone":"613-599-6040","address":"12-500 Eagleson Road, Kanata, ON K2M 1H4","postalcode":"K2M 1H4","website":"http://speedy.com","working_hour":"","latitude":"45.290771","longitude":"-75.869565"},{"source":"yellow page","service_name":"RJ Motors Inc","category":"car mechanic","phone":"613-831-2273","address":"34 Edgewater St, Kanata, ON K2L 1V8","postalcode":"K2L 1V8","website":" ","working_hour":"Monday 8:00 am - 5:30 pm   Tuesday 8:00 am - 5:30 pm   Wednesday 8:00 am - 5:30 pm   Thursday 8:00 am - 5:30 pm   Friday 8:00 am - 5:30 pm","latitude":"45.297425","longitude":"-75.898656"},{"source":"yellow page","service_name":"AAA Kavtech Inc","category":"car mechanic","phone":"613-519-2429","address":"37 Edgewater St, Kanata, ON K2L 1V7","postalcode":"K2L 1V7","website":"http://www.aaakavtech.com","working_hour":"Monday 7:00 am - 6:00 pm   Tuesday 7:00 am - 6:00 pm   Wednesday 7:00 am - 6:00 pm   Thursday 7:00 am - 6:00 pm   Friday 7:00 am - 12:00 pm","latitude":"45.297405","longitude":"-75.899684"},{"source":"yellow page","service_name":"Walmart","category":"car mechanic","phone":"613-599-7857","address":"500 Earl Grey Dr, Kanata, ON K2T 1B6","postalcode":"K2T 1B6","website":" ","working_hour":"","latitude":"45.3110968","longitude":"-75.9113251"},{"source":"yellow page","service_name":"Donnelly Automotive Management Inc","category":"car mechanic","phone":"6132547112","address":"490 Terry Fox Dr, Kanata, ON K2T 1L3","postalcode":"K2T 1L3","website":" ","working_hour":"","latitude":"45.309747","longitude":"-75.920125"},{"source":"yellow page","service_name":"Taylor Business Systems","category":"car mechanic","phone":"613-270-0506","address":"105 Schneider Rd, Kanata, ON K2K 1Y3","postalcode":"K2K 1Y3","website":" ","working_hour":"","latitude":"45.340457","longitude":"-75.903678"},{"source":"yellow page","service_name":"G & I Automotive","category":"car mechanic","phone":"613-831-6442","address":"34 Edgewater St, Kanata, ON K2L 1V8","postalcode":"K2L 1V8","website":"http://www.giautomotive.ca","working_hour":"","latitude":"45.297425","longitude":"-75.898656"},{"source":"yellow page","service_name":"Rolland Levesque Fils & Sons","category":"car mechanic","phone":"613-789-8558","address":"227 Cumberland St, Ottawa, ON K1N 7H6","postalcode":"K1N 7H6","website":" ","working_hour":"Monday 8:00 am - 6:00 pm   Tuesday 8:00 am - 6:00 pm   Wednesday 8:00 am - 6:00 pm   Thursday 8:00 am - 6:00 pm   Friday 8:00 am - 6:00 pm","latitude":"45.432949","longitude":"-75.691548"},{"source":"yellow page","service_name":"Guilbault Automotive","category":"car mechanic","phone":"6135054571","address":"7 Carbrooke St, Kanata, ON K2L 1B1","postalcode":"K2L 1B1","website":" ","working_hour":"Monday 7:00 am - 5:30 pm   Tuesday 7:00 am - 5:30 pm   Wednesday 7:00 am - 5:30 pm   Thursday 7:00 am - 5:30 pm   Friday 7:00 am - 5:30 pm","latitude":"45.302183","longitude":"-75.879601"},{"source":"yellow page","service_name":"Auto Rebex Service Center","category":"car mechanic","phone":"613-729-2743","address":"930 Wellington St W, Ottawa, ON K1Y 2X6","postalcode":"K1Y 2X6","website":" ","working_hour":"","latitude":"45.407121","longitude":"-75.721438"},{"source":"yellow page","service_name":"Actek Automotive","category":"car mechanic","phone":"6137293124","address":"1050 Somerset St W, Ottawa, ON K1Y 3C5","postalcode":"K1Y 3C5","website":" ","working_hour":"","latitude":"45.406756","longitude":"-75.719606"},{"source":"yellow page","service_name":"Nick's Service Centre","category":"car mechanic","phone":"613-729-1122","address":"66 Lebreton St N, Ottawa, ON K1R 7H4","postalcode":"K1R 7H4","website":" ","working_hour":"Monday 7:00 am - 6:00 pm   Tuesday 7:00 am - 6:00 pm   Wednesday 7:00 am - 6:00 pm   Thursday 7:00 am - 6:00 pm   Friday 7:00 am - 6:00 pm","latitude":"45.408499","longitude":"-75.708463"},{"source":"yellow page","service_name":"Holliday Auto Centre","category":"car mechanic","phone":"613-238-6633","address":"54 Louisa St, Ottawa, ON K1R 6Y8","postalcode":"K1R 6Y8","website":" ","working_hour":"","latitude":"45.405309","longitude":"-75.707302"},{"source":"yellow page","service_name":"Angelo Lorelli Service","category":"car mechanic","phone":"613-567-5140","address":"779 Gladstone Ave, Ottawa, ON K1R 6X6","postalcode":"K1R 6X6","website":" ","working_hour":"","latitude":"45.406597","longitude":"-75.706853"},{"source":"yellow page","service_name":"Booth St Auto Service","category":"car mechanic","phone":"613-233-4767","address":"297 Booth St, Ottawa, ON K1R 7J8","postalcode":"K1R 7J8","website":" ","working_hour":"","latitude":"45.409281","longitude":"-75.710432"},{"source":"yellow page","service_name":"Wally Becker Motors","category":"car mechanic","phone":"6137296327","address":"1000 Wellington St W, Ottawa, ON K1Y 2X9","postalcode":"K1Y 2X9","website":"http://www.wallybecker.com","working_hour":"","latitude":"45.405154","longitude":"-75.723337"},{"source":"yellow page","service_name":"Takaki Automotive","category":"car mechanic","phone":"613-728-7529","address":"47 Breezehill Ave N, Ottawa, ON K1Y 2H4","postalcode":"K1Y 2H4","website":"http://www.takakiauto.com","working_hour":"","latitude":"45.407142","longitude":"-75.71946"},{"source":"yellow page","service_name":"Japan Auto Services","category":"car mechanic","phone":"6137221122","address":"2A-55 Breezehill Ave N, Ottawa, ON K1Y 2H6","postalcode":"K1Y 2H6","website":"http://www.japanauto.aaro.ca","working_hour":"","latitude":"45.40621","longitude":"-75.718908"},{"source":"yellow page","service_name":"Dirienzo & Saikaley Automotive Service","category":"car mechanic","phone":"613-722-5819","address":"1 Spadina Ave, Ottawa, ON K1Y 2B7","postalcode":"K1Y 2B7","website":"http://www.dirienzoauto.aaro.ca","working_hour":"","latitude":"45.406383","longitude":"-75.721983"},{"source":"yellow page","service_name":"Grandtech Auto","category":"car mechanic","phone":"613-729-6888","address":"111 Breezehill Ave N, Ottawa, ON K1Y 2H6","postalcode":"K1Y 2H6","website":" ","working_hour":"","latitude":"45.405164","longitude":"-75.718288"},{"source":"yellow page","service_name":"Ming Auto Service","category":"car mechanic","phone":"613-722-8282","address":"55 Breezehill Ave N, Ottawa, ON K1Y 2H6","postalcode":"K1Y 2H6","website":" ","working_hour":"","latitude":"45.40621","longitude":"-75.718908"},{"source":"yellow page","service_name":"Orville's Auto Electric","category":"car mechanic","phone":"613-728-3861","address":"949 Gladstone Ave, Ottawa, ON K1Y 3E5","postalcode":"K1Y 3E5","website":" ","working_hour":"","latitude":"45.4036363","longitude":"-75.7148453"},{"source":"yellow page","service_name":"Pantuso Automotive Centre Inc","category":"car mechanic","phone":"6137251499","address":"927 Wellington St W, Ottawa, ON K1Y 2X5","postalcode":"K1Y 2X5","website":"http://pantusoautomotive.com","working_hour":"","latitude":"45.407129","longitude":"-75.721431"},{"source":"yellow page","service_name":"Jensen Import Auto","category":"car mechanic","phone":"613-761-9576","address":"973 Wellington St W, Ottawa, ON K1Y 2X7","postalcode":"K1Y 2X7","website":" ","working_hour":"","latitude":"45.406067","longitude":"-75.722496"},{"source":"yellow page","service_name":"Leone's Service Centre Ltd","category":"car mechanic","phone":"6137287088","address":"1480 Scott St, Ottawa, ON K1Y 2N4","postalcode":"K1Y 2N4","website":" ","working_hour":"","latitude":"45.405534","longitude":"-75.730055"},{"source":"yellow page","service_name":"Lorelli Service Centre Ltd","category":"car mechanic","phone":"613-699-4454","address":"779 Gladstone Ave, Ottawa, ON K1R 6X6","postalcode":"K1R 6X6","website":" ","working_hour":"Monday 7:00 am - 5:30 pm   Tuesday 7:00 am - 5:30 pm   Wednesday 7:00 am - 5:30 pm   Thursday 7:00 am - 5:30 pm   Friday 7:00 am - 5:30 pm","latitude":"45.406938","longitude":"-75.707002"},{"source":"yellow page","service_name":"Laura Emilio Auto","category":"car mechanic","phone":"613-761-9363","address":"265A Breezehill Ave S, Ottawa, ON K1Y 2J4","postalcode":"K1Y 2J4","website":" ","working_hour":"","latitude":"45.3985815","longitude":"-75.7142948"},{"source":"yellow page","service_name":"Den'S Garage","category":"car mechanic","phone":"613-236-2886","address":"495 Preston St, Ottawa, ON K1S 4N7","postalcode":"K1S 4N7","website":" ","working_hour":"","latitude":"45.398239","longitude":"-75.70808"},{"source":"yellow page","service_name":"Hodge's Service Center & Car Clinic","category":"car mechanic","phone":"613-566-3334","address":"609 Bronson Ave, Ottawa, ON K1S 4E5","postalcode":"K1S 4E5","website":" ","working_hour":"","latitude":"45.404178","longitude":"-75.701518"},{"source":"yellow page","service_name":"Krishna Auto Repair","category":"car mechanic","phone":"613-230-0924","address":"402 Preston St, Ottawa, ON K1S 4M9","postalcode":"K1S 4M9","website":" ","working_hour":"","latitude":"45.401155","longitude":"-75.709843"},{"source":"yellow page","service_name":"Franco Garage Inc","category":"car mechanic","phone":"613-789-2128","address":"70 Beech St, Ottawa, ON K1S 3J6","postalcode":"K1S 3J6","website":" ","working_hour":"","latitude":"45.400794","longitude":"-75.708868"},{"source":"yellow page","service_name":"Otto's BMW Center","category":"car mechanic","phone":"613-725-3048","address":"835 Carling Ave, Ottawa, ON K1S 2E7","postalcode":"K1S 2E7","website":" ","working_hour":"Monday 8:30 am - 9:00 pm   Tuesday 8:30 am - 9:00 pm   Wednesday 8:30 am - 9:00 pm   Thursday 8:30 am - 9:00 pm   Friday 8:30 am - 6:00 pm   Saturday 9:00 am - 5:00 pm   Sales Opening Hours   Closed Saturdays In Summer","latitude":"45.397387","longitude":"-75.708238"},{"source":"yellow page","service_name":"G And C Auto&Transmission Service","category":"car mechanic","phone":"6134227473","address":"530 Bronson Ave, Ottawa, ON K1R 6J9","postalcode":"K1R 6J9","website":" ","working_hour":"","latitude":"45.406349","longitude":"-75.702774"},{"source":"yellow page","service_name":"Speedy Auto Service","category":"car mechanic","phone":"613-236-5582","address":"540 Bronson Avenue, Ottawa, ON K1R 6J9","postalcode":"K1R 6J9","website":"http://speedy.com","working_hour":"","latitude":"45.406315","longitude":"-75.702754"},{"source":"yellow page","service_name":"BMW Otto's Service Centre Ltd","category":"car mechanic","phone":"613-725-3048","address":"845 Carling Ave, Ottawa, ON K1S 2E7","postalcode":"K1S 2E7","website":" ","working_hour":"","latitude":"45.397162","longitude":"-75.708746"},{"source":"yellow page","service_name":"Hunt Club Service Centre","category":"car mechanic","phone":"613-260-0333","address":"1493 Sieveright Rd, Gloucester, ON K1T 1M5","postalcode":"K1T 1M5","website":" ","working_hour":"","latitude":"45.354367","longitude":"-75.639372"},{"source":"yellow page","service_name":"Motor Medics Ltd","category":"car mechanic","phone":"613-523-7711","address":"1438 Hunt Club Rd, Ottawa, ON K1T 1M6","postalcode":"K1T 1M6","website":"http://www.motormedics.ca","working_hour":"","latitude":"45.356483","longitude":"-75.63972"},{"source":"yellow page","service_name":"Vintage Auto Repair","category":"car mechanic","phone":"6132237267","address":"ON K1T 1C8","postalcode":"K1T 1C8","website":" ","working_hour":"","latitude":"45.341826","longitude":"-75.638862"},{"source":"yellow page","service_name":"Donnelly Automotive","category":"car mechanic","phone":"6137313201","address":"2496 Rue Bank, Ottawa, ON K1V 8S2","postalcode":"K1V 8S2","website":" ","working_hour":"","latitude":"45.353777","longitude":"-75.643958"},{"source":"yellow page","service_name":"Ultimate Car Shop","category":"car mechanic","phone":"6135233113","address":"2640 Mac St, Gloucester, ON K1V 8V1","postalcode":"K1V 8V1","website":" ","working_hour":"","latitude":"45.348698","longitude":"-75.651198"},{"source":"yellow page","service_name":"S D Auto Repair","category":"car mechanic","phone":"613-526-1100","address":"2640 Mac St, Gloucester, ON K1V 8V1","postalcode":"K1V 8V1","website":" ","working_hour":"","latitude":"45.348698","longitude":"-75.651198"},{"source":"yellow page","service_name":"Colton Auto Repair Inc","category":"car mechanic","phone":"613-739-0771","address":"1493C Sieveright Rd, Gloucester, ON K1T 1M5","postalcode":"K1T 1M5","website":" ","working_hour":"","latitude":"45.3544127","longitude":"-75.6393001"},{"source":"yellow page","service_name":"Charlie's Auto Service","category":"car mechanic","phone":"613-736-0013","address":"3-1501 Sieveright Rd, Gloucester, ON K1T 1M5","postalcode":"K1T 1M5","website":" ","working_hour":"","latitude":"45.354569","longitude":"-75.638919"},{"source":"yellow page","service_name":"Justin Automative","category":"car mechanic","phone":"613-260-3022","address":"2638 Mac St, Gloucester, ON K1V 8V1","postalcode":"K1V 8V1","website":"http://justinautomativeltd.com","working_hour":"","latitude":"45.349212","longitude":"-75.651508"},{"source":"yellow page","service_name":"Winchester Springs Repair","category":"car mechanic","phone":"613-774-0666","address":"3301 Bank, Winchester, ON K0C 2K0","postalcode":"K0C 2K0","website":" ","working_hour":"Monday 8:00 am - 5:00 pm   Tuesday 8:00 am - 5:00 pm   Wednesday 8:00 am - 5:00 pm   Thursday 8:00 am - 5:00 pm   Friday 8:00 am - 5:00 pm   Saturday 8:00 am - 12:00 pm","latitude":"45.3421944","longitude":"-75.6200539"},{"source":"yellow page","service_name":"Epic Auto Care","category":"car mechanic","phone":"613-695-6996","address":"34 Bentley Ave, Nepean, ON K2E 6T8","postalcode":"K2E 6T8","website":" ","working_hour":"","latitude":"45.33297","longitude":"-75.719098"},{"source":"yellow page","service_name":"Bank Street Jeep Eagle","category":"car mechanic","phone":"613-523-9951","address":"370 Hunt Club Rd, Ottawa, ON K1V 1C1","postalcode":"K1V 1C1","website":" ","working_hour":"","latitude":"45.3385945","longitude":"-75.6829668"},{"source":"yellow page","service_name":"Expert Auto Centre","category":"car mechanic","phone":"613-225-6660","address":"149 Bentley Ave, Nepean, ON K2E 6T7","postalcode":"K2E 6T7","website":"http://expertautocenter.ca","working_hour":"","latitude":"45.337337","longitude":"-75.709061"},{"source":"yellow page","service_name":"H & D Lytle Service Station Ltd","category":"car mechanic","phone":"613-228-1183","address":"149 Bentley Ave, Nepean, ON K2E 6T7","postalcode":"K2E 6T7","website":"http://hdlytleautomotive.com","working_hour":"Monday 7:30 am - 5:00 pm   Tuesday 7:30 am - 5:00 pm   Wednesday 7:30 am - 5:00 pm   Thursday 7:30 am - 5:00 pm   Friday 7:30 am - 4:00 pm","latitude":"45.337337","longitude":"-75.709061"},{"source":"yellow page","service_name":"Airport Auto Center","category":"car mechanic","phone":"613-247-6370","address":"6-3326 Limebank Rd, Gloucester, ON K1V 1H2","postalcode":"K1V 1H2","website":" ","working_hour":"Monday 8:00 am - 7:00 pm   Tuesday 8:00 am - 7:00 pm   Wednesday 8:00 am - 7:00 pm   Thursday 8:00 am - 7:00 pm   Friday 8:00 am - 7:00 pm   Saturday 9:00 am - 6:00 pm","latitude":"45.318127","longitude":"-75.687637"},{"source":"yellow page","service_name":"The Wheel Deal","category":"car mechanic","phone":"6132241353","address":"36 Bentley Ave, Nepean, ON K2E 6T8","postalcode":"K2E 6T8","website":" ","working_hour":"","latitude":"45.33297","longitude":"-75.719098"},{"source":"yellow page","service_name":"McCloskey's Auto Tech","category":"car mechanic","phone":"613-228-5333","address":"145 Bentley Ave, Nepean, ON K2E 6T7","postalcode":"K2E 6T7","website":" ","working_hour":"","latitude":"45.33685","longitude":"-75.71018"},{"source":"yellow page","service_name":"Auto Glass Ottawa","category":"car mechanic","phone":"343-700-4700","address":"2-36 Bentley Ave, Ottawa, ON K2E 6T8","postalcode":"K2E 6T8","website":"http://www.autoglassottawa.ca","working_hour":"","latitude":"45.33297","longitude":"-75.719098"},{"source":"yellow page","service_name":"T & K Auto Repair","category":"car mechanic","phone":"613-228-7634","address":"75 Jamie Ave, Nepean, ON K2E 7Y6","postalcode":"K2E 7Y6","website":"http://www.tandkauto.aaro.ca","working_hour":"","latitude":"45.336578","longitude":"-75.71581"},{"source":"yellow page","service_name":"Group 4Technologies","category":"car mechanic","phone":"519-888-6481","address":"490 Phillip Dr U B9, ON","postalcode":"","website":" ","working_hour":"","latitude":"45.35514","longitude":"-75.713663"},{"source":"yellow page","service_name":"MK Auto Body","category":"car mechanic","phone":"613-727-4347","address":"24 Bentley Ave, Nepean, ON K2E 6T8","postalcode":"K2E 6T8","website":"http://www.mkautobody.net/","working_hour":"Monday 9:00 am - 5:00 pm   Tuesday 9:00 am - 5:00 pm   Wednesday 9:00 am - 5:00 pm   Thursday 9:00 am - 5:00 pm   Friday 9:00 am - 5:00 pm","latitude":"45.332484","longitude":"-75.720171"},{"source":"yellow page","service_name":"Fair Auto Repair","category":"car mechanic","phone":"613-521-5545","address":"2640 Mac St, Gloucester, ON K1V 8V1","postalcode":"K1V 8V1","website":" ","working_hour":"","latitude":"45.348698","longitude":"-75.651198"},{"source":"yellow page","service_name":"Chapeski Automotive Ltd","category":"car mechanic","phone":"6132266335","address":"149 Bentley Ave, Nepean, ON K2E 6T7","postalcode":"K2E 6T7","website":"http://www.chapeskiautomotive.ca","working_hour":"","latitude":"45.337337","longitude":"-75.709061"},{"source":"yellow page","service_name":"Scandinavian Auto Service Ltd","category":"car mechanic","phone":"6132253213","address":"28 Bentley Ave, Nepean, ON K2E 6T8","postalcode":"K2E 6T8","website":" ","working_hour":"","latitude":"45.332714","longitude":"-75.719683"},{"source":"yellow page","service_name":"National Automotive Service","category":"car mechanic","phone":"6137311488","address":"3332 McCarthy Rd, Ottawa, ON K1V 0H9","postalcode":"K1V 0H9","website":" ","working_hour":"","latitude":"45.351343","longitude":"-75.670333"},{"source":"yellow page","service_name":"Advanced Autowerks","category":"car mechanic","phone":"613-727-1432","address":"3B-149 Bentley Ave, Nepean, ON K2E 6T7","postalcode":"K2E 6T7","website":"http://www.advancedautowerks.ca","working_hour":"Monday 8:00 am - 5:00 pm   Tuesday 8:00 am - 5:00 pm   Wednesday 8:00 am - 5:00 pm   Thursday 8:00 am - 5:00 pm   Friday 8:00 am - 5:00 pm","latitude":"45.337337","longitude":"-75.709061"},{"source":"yellow page","service_name":"Auto Dentist Reconditioning Inc","category":"car mechanic","phone":"613-225-7019","address":"151 Bentley Ave, Nepean, ON K2E 6T7","postalcode":"K2E 6T7","website":"http://autodentist.ca","working_hour":"","latitude":"45.3363556","longitude":"-75.7113464"},