{"table":[{"source":"yellow page","service_name":"Driving Miss Daisy","category":"driving tutoring","phone":"613-484-4795","address":"ON","postalcode":"","website":" ","working_hour":"","latitude":"","longitude":""},{"source":"yellow page","service_name":"Drive Test","category":"driving tutoring","phone":"613-545-1117","address":"1-381 Select Dr, Kingston, ON K7M 8R1","postalcode":"K7M 8R1","website":"http://www.drivetest.ca/en/bookatest/pages/locationfinder.aspx","working_hour":"Monday 8:30 am - 5:00 pm   Tuesday 8:30 am - 5:00 pm   Wednesday 8:30 am - 5:00 pm   Thursday 8:30 am - 5:00 pm   Friday 8:30 am - 5:00 pm","latitude":"44.25696","longitude":"-76.555246"},{"source":"yellow page","service_name":"DriveABLE / Kingston","category":"driving tutoring","phone":"6135440034","address":"101-11 Princess St, Kingston, ON K7L 1A1","postalcode":"K7L 1A1","website":"http://www.larrysdrivingschool.com","working_hour":"Monday 10:00 am - 7:00 pm   Tuesday 10:00 am - 7:00 pm   Wednesday 10:00 am - 7:00 pm   Thursday 10:00 am - 7:00 pm   Friday 10:00 am - 7:00 pm   Saturday 9:00 am - 6:00 pm","latitude":"44.231064","longitude":"-76.479245"},{"source":"yellow page","service_name":"Excel Driving School","category":"driving tutoring","phone":"6135440040","address":"561 Princess St, Kingston, ON K7L 1C8","postalcode":"K7L 1C8","website":"http://www.exceldriving.ca","working_hour":"Friday 10:00 am - 4:00 pm","latitude":"44.235664","longitude":"-76.498547"},{"source":"yellow page","service_name":"Access Driving School","category":"driving tutoring","phone":"613-384-9900","address":"1748 Bath Rd, Kingston, ON K7M 4Y2","postalcode":"K7M 4Y2","website":"http://www.accessdrivingschool.net","working_hour":"","latitude":"44.237624","longitude":"-76.574692"},{"source":"yellow page","service_name":"Joe's Driving Academy","category":"driving tutoring","phone":"613-777-3837","address":"322 Queen St, Kingston, ON K7K 1B8","postalcode":"K7K 1B8","website":"http://www.joesdrivingschool.com","working_hour":"","latitude":"44.234036","longitude":"-76.492529"},{"source":"yellow page","service_name":"Driver Training","category":"driving tutoring","phone":"613-384-0055","address":"1113 Westbrook Rd, Kingston, ON K7P 2V7","postalcode":"K7P 2V7","website":" ","working_hour":"","latitude":"44.263547","longitude":"-76.624505"},{"source":"yellow page","service_name":"Oriana Easy Learning","category":"driving tutoring","phone":"613-353-1421","address":"ON","postalcode":"","website":"http://orianafinancial.com","working_hour":"","latitude":"","longitude":""},{"source":"yellow page","service_name":"Bernie's Driving Lessons","category":"driving tutoring","phone":"613-542-5367","address":"104 Helen St, Kingston, ON K7L 4P3","postalcode":"K7L 4P3","website":"http://www.berniesdrivingschool.ca","working_hour":"Monday 9:00 am - 7:00 pm   Tuesday 9:00 am - 7:00 pm   Wednesday 9:00 am - 7:00 pm   Thursday 9:00 am - 7:00 pm   Friday 9:00 am - 7:00 pm   Saturday 9:00 am - 12:00 pm","latitude":"44.23438","longitude":"-76.511313"},{"source":"yellow page","service_name":"First Route Learning Center","category":"driving tutoring","phone":"613-389-0043","address":"1128 Clyde Crt, Kingston, ON K7P 2E4","postalcode":"K7P 2E4","website":"http://www.firstroutedrivingschool.ca","working_hour":"","latitude":"44.2668067","longitude":"-76.5629945"},{"source":"yellow page","service_name":"Excel Driving School","category":"driving tutoring","phone":"613-389-0445","address":"645 Gardiners, Kingston, ON K7M 3Y4","postalcode":"K7M 3Y4","website":"http://www.exceldriving.ca","working_hour":"Monday 10:00 am - 5:00 pm   Tuesday 10:00 am - 5:00 pm   Wednesday 10:00 am - 5:00 pm   Thursday 10:00 am - 5:00 pm   Friday 10:00 am - 4:00 pm","latitude":"44.243539","longitude":"-76.567797"},{"source":"yellow page","service_name":"North American Transport Driving Academy","category":"driving tutoring","phone":"613-634-8881","address":"7-598 Cataraqui Woods Dr, Kingston, ON K7P 1T8","postalcode":"K7P 1T8","website":"http://www.nadrivers.com","working_hour":"Monday 10:00 am - 7:00 pm   Tuesday 10:00 am - 7:00 pm   Wednesday 10:00 am - 7:00 pm   Thursday 10:00 am - 7:00 pm   Friday 10:00 am - 7:00 pm   Saturday 9:00 am - 6:00 pm","latitude":"44.267406","longitude":"-76.564872"},{"source":"yellow page","service_name":"Mustang Drive-In - Picton","category":"driving tutoring","phone":"613-393-2006","address":"1591 County Rd, Bloomfield, ON K0K 2T0","postalcode":"K0K 2T0","website":" ","working_hour":"","latitude":"43.95061","longitude":"-77.203992"},{"source":"yellow page","service_name":"Cooney Driving School","category":"driving tutoring","phone":"613-394-0200","address":"82 Dundas St W, Trenton, ON K8V 3P3","postalcode":"K8V 3P3","website":"http://www.cooneydrivingschool.com","working_hour":"","latitude":"44.1007791","longitude":"-77.5768098"},{"source":"yellow page","service_name":"Prince Edward Driving School","category":"driving tutoring","phone":"613-848-6046","address":"192 Picton Main, Picton, ON K0K 2T0","postalcode":"K0K 2T0","website":" ","working_hour":"Monday 10:00 am - 7:00 pm   Tuesday 10:00 am - 7:00 pm   Wednesday 10:00 am - 7:00 pm   Thursday 10:00 am - 7:00 pm   Friday 10:00 am - 7:00 pm   Saturday 9:00 am - 6:00 pm","latitude":"44.0070979","longitude":"-77.142205"},{"source":"yellow page","service_name":"Clearview Professional Driving School","category":"driving tutoring","phone":"613-473-0738","address":"120 Ballam Lane RR 5, Madoc, ON K0K 2K0","postalcode":"K0K 2K0","website":"http://www.clearviewdrivingschool.com","working_hour":"Monday 10:00 am - 7:00 pm   Tuesday 10:00 am - 7:00 pm   Wednesday 10:00 am - 7:00 pm   Thursday 10:00 am - 7:00 pm   Friday 10:00 am - 7:00 pm   Saturday 9:00 am - 6:00 pm","latitude":"44.4848424","longitude":"-77.4650971"},{"source":"yellow page","service_name":"The Driver's Edge Driver Training","category":"driving tutoring","phone":"705-457-1500","address":"5635 Gelert Rd RR 3, Haliburton, ON K0M 1S0","postalcode":"K0M 1S0","website":" ","working_hour":"Appointments Available: Sunday, Monday, Tuesday, Wednesday, Thursday, Friday, Saturday.","latitude":"44.9734434","longitude":"-78.5411724"},{"source":"yellow page","service_name":"Collision Prevention Driving School Inc","category":"driving tutoring","phone":"613-967-7770","address":"93 West St, Belleville, ON K8N 4X6","postalcode":"K8N 4X6","website":"http://www.collisionprevention.ca/","working_hour":"Monday 9:00 am - 5:00 pm   Tuesday 9:00 am - 5:00 pm   Wednesday 9:00 am - 5:00 pm   Thursday 9:00 am - 5:00 pm   Friday 9:00 am - 5:00 pm","latitude":"44.1863833","longitude":"-77.374389"},{"source":"yellow page","service_name":"Drivesafe","category":"driving tutoring","phone":"613-354-4400","address":"272 Belleville Rd, Napanee, ON K7R 2R5","postalcode":"K7R 2R5","website":"http://www.drivesafenapanee.ca","working_hour":"Monday 10:00 am - 7:00 pm   Tuesday 10:00 am - 7:00 pm   Wednesday 10:00 am - 7:00 pm   Thursday 10:00 am - 7:00 pm   Friday 10:00 am - 7:00 pm   Saturday 9:00 am - 6:00 pm","latitude":"44.2485857","longitude":"-76.960517"},{"source":"yellow page","service_name":"Young Drivers","category":"driving tutoring","phone":"613-969-0525","address":"55 South Front St, Belleville, ON K8N 5P4","postalcode":"K8N 5P4","website":"http://yd.com","working_hour":"","latitude":"44.1590356","longitude":"-77.3810717"},{"source":"yellow page","service_name":"Kelvin's Driving Service","category":"driving tutoring","phone":"705-286-2425","address":"42 Anson St, Minden, ON K0M 2K0","postalcode":"K0M 2K0","website":" ","working_hour":"Monday 8:00 am - 6:00 pm   Thursday 8:00 am - 6:00 pm   Friday 8:00 am - 6:00 pm","latitude":"44.9214168","longitude":"-78.7282198"},{"source":"yellow page","service_name":"CROSSROADS Truck Training Academy","category":"driving tutoring","phone":"613-771-1495","address":"53 Grills Rd, Belleville, ON K8N 4Z5","postalcode":"K8N 4Z5","website":" ","working_hour":"Monday 8:00 am - 5:00 am   Tuesday 8:00 am - 5:00 am   Wednesday 8:00 am - 5:00 am   Thursday 8:00 am - 5:00 am   Friday 8:00 am - 5:00 am   Please Call Us For Details","latitude":"44.1839782","longitude":"-77.4537991"},{"source":"yellow page","service_name":"Drive Test","category":"driving tutoring","phone":"6133324441","address":"141 Hastings St.N., Bancroft, ON K0L 1C0","postalcode":"K0L 1C0","website":" ","working_hour":"","latitude":"45.0627141","longitude":"-77.856774"},{"source":"yellow page","service_name":"Young Drivers","category":"driving tutoring","phone":"613-965-6412","address":"1B-290 Dundas St W, Trenton, ON K8V 3S1","postalcode":"K8V 3S1","website":"http://yd.com","working_hour":"","latitude":"44.0972778","longitude":"-77.5871237"},{"source":"yellow page","service_name":"Pro Dive Canada","category":"driving tutoring","phone":"7056572096","address":"1651 Mystic Pt, Buckhorn, ON K0L 1J0","postalcode":"K0L 1J0","website":"http://prodivecanada.com","working_hour":"","latitude":"44.5315856","longitude":"-78.3689646"},{"source":"yellow page","service_name":"Drive Test","category":"driving tutoring","phone":"8885706110","address":"20-401 Kent Street W., Lindsay, ON K9V 4Z1","postalcode":"K9V 4Z1","website":" ","working_hour":"","latitude":"44.3501035","longitude":"-78.7596549"},{"source":"yellow page","service_name":"Young Drivers","category":"driving tutoring","phone":"705-748-9820","address":"10-637 The Queensway, Peterborough, ON K9J 7J6","postalcode":"K9J 7J6","website":"http://www.yd.com","working_hour":"","latitude":"44.2767662","longitude":"-78.3375636"},{"source":"yellow page","service_name":"Drive Test-Peterborough","category":"driving tutoring","phone":"705-743-1236","address":"749 Erskine Ave, Peterborough, ON K9J 7Y6","postalcode":"K9J 7Y6","website":"http://www.drivetest.ca","working_hour":"","latitude":"44.280409","longitude":"-78.335166"},{"source":"yellow page","service_name":"Drive Test","category":"driving tutoring","phone":"4163258580","address":"749 Erskine Ave, Peterborough, ON K9J 7Y6","postalcode":"K9J 7Y6","website":" ","working_hour":"","latitude":"44.280409","longitude":"-78.335166"},{"source":"yellow page","service_name":"Community Training & Development Centre","category":"driving tutoring","phone":"705-742-7277","address":"681 Monaghan Rd S, Peterborough, ON K9J 5J5","postalcode":"K9J 5J5","website":"http://www.ctdclearningplace.com","working_hour":"Monday 10:00 am - 7:00 pm   Tuesday 10:00 am - 7:00 pm   Wednesday 10:00 am - 7:00 pm   Thursday 10:00 am - 7:00 pm   Friday 10:00 am - 7:00 pm   Saturday 9:00 am - 6:00 pm","latitude":"44.279469","longitude":"-78.326712"},{"source":"yellow page","service_name":"Young Drivers","category":"driving tutoring","phone":"705-324-1537","address":"210-55 Mary St W, Lindsay, ON K9V 5Z6","postalcode":"K9V 5Z6","website":"http://www.yd.com","working_hour":"","latitude":"44.3461494","longitude":"-78.734639"},{"source":"yellow page","service_name":"Young Drivers","category":"driving tutoring","phone":"705-645-1577","address":"95 Manitoba St, Bracebridge, ON P1L 2B3","postalcode":"P1L 2B3","website":"http://youngdrivers.com","working_hour":"","latitude":"45.0421753","longitude":"-79.3122932"},{"source":"yellow page","service_name":"Road Rules Driving School","category":"driving tutoring","phone":"705-874-9220","address":"2540 Farmcrest Ave, Peterborough, ON K9L 1H7","postalcode":"K9L 1H7","website":"http://www.roadrulesdrivingschool.ca/","working_hour":"Monday 8:00 am - 5:00 pm   Tuesday 8:00 am - 5:00 pm   Wednesday 8:00 am - 5:00 pm   Thursday 8:00 am - 5:00 pm   Friday 8:00 am - 5:00 pm","latitude":"44.295644","longitude":"-78.294292"},{"source":"yellow page","service_name":"City Driving School","category":"driving tutoring","phone":"705-742-4105","address":"612 Saugeen Cres, Peterborough, ON K9J 1K1","postalcode":"K9J 1K1","website":"http://citytruckdriving.com","working_hour":"","latitude":"44.2838326","longitude":"-78.3063872"},{"source":"yellow page","service_name":"Young Drivers of Canada","category":"driving tutoring","phone":"705-748-4722","address":"637 The Queensway, Peterborough, ON K9J 7J6","postalcode":"K9J 7J6","website":"http://yd.com","working_hour":"","latitude":"44.2767662","longitude":"-78.3375636"},{"source":"yellow page","service_name":"Pro Lane Driver Training","category":"driving tutoring","phone":"705-328-3018","address":"38 Cambridge St N, Lindsay, ON K9V 4C5","postalcode":"K9V 4C5","website":" ","working_hour":"Monday 9:00 am - 6:00 pm   Tuesday 9:00 am - 6:00 pm   Wednesday 9:00 am - 6:00 pm   Thursday 9:00 am - 6:00 pm   Friday 9:00 am - 6:00 pm   Saturday 9:00 am - 1:00 pm","latitude":"44.3568569","longitude":"-78.7403685"},{"source":"yellow page","service_name":"Peterborough Driving School","category":"driving tutoring","phone":"705-876-7394","address":"205-715 Crawford Dr, Peterborough, ON K9J 3W9","postalcode":"K9J 3W9","website":" ","working_hour":"","latitude":"44.272792","longitude":"-78.327952"},{"source":"yellow page","service_name":"Kawartha Driver Training","category":"driving tutoring","phone":"705-876-7115","address":"200-727 Lansdowne St W, Peterborough, ON K9J 1Z2","postalcode":"K9J 1Z2","website":"http://www.kawarthadrivertraining.com","working_hour":"","latitude":"44.2873587","longitude":"-78.3234052"},{"source":"yellow page","service_name":"Cooney Driving School","category":"driving tutoring","phone":"613-961-0200","address":"ON","postalcode":"","website":" ","working_hour":"","latitude":"","longitude":""},{"source":"yellow page","service_name":"Transport Training Centres Of Canada","category":"driving tutoring","phone":"1-800-805-0662","address":"","postalcode":"","website":"http://ttcc.ca","working_hour":"","latitude":"","longitude":""},{"source":"yellow page","service_name":"Shannonville Driving Lessons","category":"driving tutoring","phone":"6139671235","address":"ON","postalcode":"","website":" ","working_hour":"","latitude":"43.651893","longitude":"-79.381713"},{"source":"yellow page","service_name":"Smart Choice Driving School","category":"driving tutoring","phone":"905-434-2341","address":"16309 Hwy 2, Trenton, ON K8V 5P7","postalcode":"K8V 5P7","website":"http://www.smartchoicedrivingschool.com","working_hour":"","latitude":"44.0710497","longitude":"-77.6633583"},{"source":"yellow page","service_name":"Community Training & Development Centre","category":"driving tutoring","phone":"905-372-9967","address":"300 Alexandria Dr, Cobourg, ON K9A 5E1","postalcode":"K9A 5E1","website":"http://www.ctdclearningplace.com","working_hour":"Monday 10:00 am - 7:00 pm   Tuesday 10:00 am - 7:00 pm   Wednesday 10:00 am - 7:00 pm   Thursday 10:00 am - 7:00 pm   Friday 10:00 am - 7:00 pm   Saturday 9:00 am - 6:00 pm","latitude":"43.9765552","longitude":"-78.1620227"},{"source":"yellow page","service_name":"Young Drivers","category":"driving tutoring","phone":"905-372-6296","address":"217-39 Queen St, Cobourg, ON K9A 1M8","postalcode":"K9A 1M8","website":" ","working_hour":"","latitude":"43.959253","longitude":"-78.163407"},{"source":"yellow page","service_name":"Northumberland Driving School","category":"driving tutoring","phone":"705-768-3588","address":"ON","postalcode":"","website":"http://www.northumberlanddrivingschool.com/","working_hour":"","latitude":"","longitude":""},{"source":"yellow page","service_name":"Driving Miss Daisy Senior Services","category":"driving tutoring","phone":"705-868-0074","address":"","postalcode":"","website":" ","working_hour":"","latitude":"","longitude":""},{"source":"yellow page","service_name":"Peterborough Driving Lessons","category":"driving tutoring","phone":"705-312-2004","address":"ON","postalcode":"","website":" ","working_hour":"","latitude":"","longitude":""},{"source":"yellow page","service_name":"Excel Driving School","category":"driving tutoring","phone":"705-742-9836","address":"ON","postalcode":"","website":" ","working_hour":"","latitude":"","longitude":""},{"source":"yellow page","service_name":"Peterborough Driving School","category":"driving tutoring","phone":"705-868-8388","address":"ON","postalcode":"","website":" ","working_hour":"","latitude":"","longitude":""},{"source":"yellow page","service_name":"Opper L","category":"driving tutoring","phone":"705-775-2434","address":"ON","postalcode":"","website":" ","working_hour":"","latitude":"","longitude":""},{"source":"yellow page","service_name":"Old Timer's Truck Driving School Inc","category":"driving tutoring","phone":"9054040111","address":"1082 Thimbleberry Cir, Oshawa, ON L1K 2H2","postalcode":"L1K 2H2","website":" ","working_hour":"","latitude":"43.915445","longitude":"-78.829796"},{"source":"yellow page","service_name":"Durham Driving Academy","category":"driving tutoring","phone":"9054196000","address":"68 King St E, Bowmanville, ON L1C 3X2","postalcode":"L1C 3X2","website":" ","working_hour":"","latitude":"43.9116768","longitude":"-78.687064"},{"source":"yellow page","service_name":"Young Drivers","category":"driving tutoring","phone":"905-623-7017","address":"68J King St E, Bowmanville, ON L1C 3X2","postalcode":"L1C 3X2","website":" ","working_hour":"","latitude":"43.9116768","longitude":"-78.687064"},{"source":"yellow page","service_name":"Automotive Driving","category":"driving tutoring","phone":"416-742-4077","address":"","postalcode":"","website":"http://www.automotivedriving.com","working_hour":"","latitude":"","longitude":""},{"source":"yellow page","service_name":"Smart Choice Driving School","category":"driving tutoring","phone":"289-312-1550","address":"650 King St E, Oshawa, ON L1H 1G5","postalcode":"L1H 1G5","website":"http://www.smartchoicedrivingschool.com","working_hour":"","latitude":"43.902988","longitude":"-78.840237"},{"source":"yellow page","service_name":"Accent On Advanced Driver Training","category":"driving tutoring","phone":"905-697-1148","address":"160 Baseline Rd E Main, Bowmanville, ON L1C 1A2","postalcode":"L1C 1A2","website":"http://www.accentdrivingschool.com","working_hour":"Monday 9:00 am - 5:00 pm   Tuesday 9:00 am - 5:00 pm   Wednesday 9:00 am - 5:00 pm   Thursday 9:00 am - 5:00 pm   Friday 9:00 am - 5:00 pm","latitude":"43.902663","longitude":"-78.669125"},{"source":"yellow page","service_name":"Onroute Driving Academy","category":"driving tutoring","phone":"905-426-1100","address":"8 Vipond Rd, Brooklin, ON L1M 1B3","postalcode":"L1M 1B3","website":" ","working_hour":"Call For More Informations And For An Appointment   Flexible Timing","latitude":"43.95894","longitude":"-78.960923"},{"source":"yellow page","service_name":"Peter's Academy Of Defensive Driving","category":"driving tutoring","phone":"905-728-0171","address":"1210 Simcoe St N, Oshawa, ON L1G 4W9","postalcode":"L1G 4W9","website":"http://www.petersacademy.com","working_hour":"Monday 10:00 am - 7:00 pm   Tuesday 10:00 am - 7:00 pm   Wednesday 10:00 am - 7:00 pm   Thursday 10:00 am - 7:00 pm   Friday 10:00 am - 7:00 pm   Saturday 9:00 am - 6:00 pm","latitude":"43.9290082","longitude":"-78.8773397"},{"source":"yellow page","service_name":"All Seasons Driving","category":"driving tutoring","phone":"9058521022","address":"15 Brock St W, Uxbridge, ON L9P 1P6","postalcode":"L9P 1P6","website":" ","working_hour":"Monday 9:00 am - 5:00 pm   Tuesday 9:00 am - 5:00 pm   Wednesday 9:00 am - 5:00 pm   Thursday 9:00 am - 5:00 pm   Friday 9:00 am - 5:00 pm   Saturday 9:00 am - 5:00 pm   Sunday 10:00 am - 4:00 pm","latitude":"44.109212","longitude":"-79.121189"},{"source":"yellow page","service_name":"All Pass Driving School","category":"driving tutoring","phone":"905-982-2727","address":"2C - 1575 Hwy 7A, Port Perry, ON L9L 1B5","postalcode":"L9L 1B5","website":" ","working_hour":"","latitude":"44.0955807","longitude":"-78.9611415"},{"source":"yellow page","service_name":"Accurate Driving School","category":"driving tutoring","phone":"905-217-0522","address":"306 Dundas St W, Whitby, ON L1N 2M5","postalcode":"L1N 2M5","website":"http://www.accuratedrivingschool.ca","working_hour":"Monday 9:00 am - 5:00 pm   Tuesday 9:00 am - 5:00 pm   Wednesday 9:00 am - 5:00 pm   Thursday 9:00 am - 5:00 pm   Friday 9:00 am - 5:00 pm   Saturday 9:00 am - 5:00 pm   Sunday 10:00 am - 4:00 pm","latitude":"43.879146","longitude":"-78.945196"},{"source":"yellow page","service_name":"Harman Driving School","category":"driving tutoring","phone":"905-666-3801","address":"63 Baycliffe Dr, Whitby, ON L1P 1W7","postalcode":"L1P 1W7","website":" ","working_hour":"Monday 10:00 am - 7:00 pm   Tuesday 10:00 am - 7:00 pm   Wednesday 10:00 am - 7:00 pm   Thursday 10:00 am - 7:00 pm   Friday 10:00 am - 7:00 pm   Saturday 9:00 am - 6:00 pm","latitude":"43.905382","longitude":"-78.978284"},{"source":"yellow page","service_name":"Lisa's Piano Lessons","category":"driving tutoring","phone":"9056681353","address":"ON","postalcode":"","website":" ","working_hour":"","latitude":"43.651893","longitude":"-79.381713"},{"source":"yellow page","service_name":"Safe Drivers Of Canada","category":"driving tutoring","phone":"905-430-7530","address":"ON","postalcode":"","website":" ","working_hour":"","latitude":"","longitude":""},{"source":"yellow page","service_name":"Sams Driving School","category":"driving tutoring","phone":"905-430-9874","address":"3464 Kingston Rd, Scarborough, ON M1M 1R5","postalcode":"M1M 1R5","website":"http://www.samsdriving.com","working_hour":"Monday 10:00 am - 7:00 pm   Tuesday 10:00 am - 7:00 pm   Wednesday 10:00 am - 7:00 pm   Thursday 10:00 am - 7:00 pm   Friday 10:00 am - 7:00 pm   Saturday 9:00 am - 6:00 pm","latitude":"43.7380228","longitude":"-79.2180936"},{"source":"yellow page","service_name":"Provincial Driving School","category":"driving tutoring","phone":"905-436-9402","address":"202B-633 King St E, Oshawa, ON L1H 1G3","postalcode":"L1H 1G3","website":"http://www.provincialdrivingschool.com","working_hour":"Monday 9:00 am - 9:00 pm   Tuesday 9:00 am - 9:00 pm   Wednesday 9:00 am - 9:00 pm   Thursday 9:00 am - 9:00 pm   Friday 9:00 am - 9:00 pm   Saturday 9:00 am - 12:00 pm","latitude":"43.902923","longitude":"-78.840522"},{"source":"yellow page","service_name":"NR Driving Centre","category":"driving tutoring","phone":"905-430-6167","address":"79 Sleepy Hollow Place, Whitby, ON L1R 0E5","postalcode":"L1R 0E5","website":" ","working_hour":"","latitude":"43.9258401","longitude":"-78.9581498"},{"source":"yellow page","service_name":"Gopher Posthole","category":"driving tutoring","phone":"905-449-7743","address":"ON","postalcode":"","website":" ","working_hour":"","latitude":"","longitude":""},{"source":"yellow page","service_name":"All Seasons Driving School","category":"driving tutoring","phone":"905-420-8641","address":"1099 Kingston Rd, Pickering, ON L1V 1B5","postalcode":"L1V 1B5","website":"http://www.allseasondriving.com","working_hour":"","latitude":"43.828923","longitude":"-79.098602"},{"source":"yellow page","service_name":"Standard Academy Driving School","category":"driving tutoring","phone":"9052393535","address":"279 Kingston Rd E, Ajax, ON L1Z 0K5","postalcode":"L1Z 0K5","website":"http://www.drivingschoolajax.ca","working_hour":"","latitude":"43.8645897","longitude":"-79.0106319"},{"source":"yellow page","service_name":"Best Choice Driving School","category":"driving tutoring","phone":"6478894985","address":"ON","postalcode":"","website":" ","working_hour":"","latitude":"43.651893","longitude":"-79.381713"},{"source":"yellow page","service_name":"Inter Driving Academy","category":"driving tutoring","phone":"905-831-4555","address":"13-1360 Kingston Rd, Pickering, ON L1V 3B4","postalcode":"L1V 3B4","website":"http://interdriving.ca","working_hour":"","latitude":"43.837979","longitude":"-79.087489"},{"source":"yellow page","service_name":"Peoples Choice Professional Designated Drivers","category":"driving tutoring","phone":"905-914-8525","address":"ON","postalcode":"","website":" ","working_hour":"","latitude":"","longitude":""},{"source":"yellow page","service_name":"Eric's Driving Academy","category":"driving tutoring","phone":"905-427-7109","address":"40 Old Kingston Rd, Ajax, ON L1T 2Z7","postalcode":"L1T 2Z7","website":"http://www.ericsdrivingacademy.com","working_hour":"Monday 9:00 am - 5:00 pm   Tuesday 9:00 am - 5:00 pm   Wednesday 9:00 am - 5:00 pm   Thursday 9:00 am - 5:00 pm   Friday 9:00 am - 5:00 pm   Saturday 9:00 am - 5:00 pm   Sunday 10:00 am - 4:00 pm","latitude":"43.8544197","longitude":"-79.0573137"},{"source":"yellow page","service_name":"Kingston Truck & Driving School","category":"driving tutoring","phone":"9054927500","address":"244-1099 Kingston Rd, Pickering, ON L1V 1B5","postalcode":"L1V 1B5","website":" ","working_hour":"","latitude":"43.828923","longitude":"-79.098602"},{"source":"yellow page","service_name":"Driving Guru","category":"driving tutoring","phone":"4167861406","address":"87 Old Kingston Rd, Ajax, ON L1T 3A6","postalcode":"L1T 3A6","website":" ","working_hour":"","latitude":"43.8542863","longitude":"-79.0589758"},{"source":"yellow page","service_name":"All Seasons Driving School","category":"driving tutoring","phone":"905-683-6500","address":"5 Harwood Ave S, Ajax, ON L1S 2C1","postalcode":"L1S 2C1","website":"http://www.allseasonsdrivingschool.ca/","working_hour":"Monday 10:00 am - 7:00 pm   Tuesday 10:00 am - 7:00 pm   Wednesday 10:00 am - 7:00 pm   Thursday 10:00 am - 7:00 pm   Friday 10:00 am - 7:00 pm   Saturday 9:00 am - 6:00 pm","latitude":"43.860143","longitude":"-79.025435"},{"source":"yellow page","service_name":"Durham's Elite Driving","category":"driving tutoring","phone":"9054264488","address":"30 Hunt St, Ajax, ON L1S 3M2","postalcode":"L1S 3M2","website":" ","working_hour":"","latitude":"43.847144","longitude":"-79.02131"},{"source":"yellow page","service_name":"Sid's Defensive Driving School","category":"driving tutoring","phone":"6472946728","address":"1735 Bayly St, Pickering, ON L1W 3G7","postalcode":"L1W 3G7","website":" ","working_hour":"","latitude":"43.833489","longitude":"-79.065502"},{"source":"yellow page","service_name":"Prostar Driving School","category":"driving tutoring","phone":"9054927827","address":"1099 Kingston Rd, Pickering, ON L1V 1B5","postalcode":"L1V 1B5","website":" ","working_hour":"","latitude":"43.828923","longitude":"-79.098602"},{"source":"yellow page","service_name":"All Seasons Driving Schoo","category":"driving tutoring","phone":"905-428-1333","address":"5 Harwood Ave S, Ajax, ON L1S 2C1","postalcode":"L1S 2C1","website":" ","working_hour":"Monday 5:15 pm - 7:30 pm   Saturday 8:30 am - 11:00 am","latitude":"43.860143","longitude":"-79.025435"},{"source":"yellow page","service_name":"Onroute Driving Academy","category":"driving tutoring","phone":"905-426-1100","address":"72 Harwood Ave S, Ajax, ON L1S 2H6","postalcode":"L1S 2H6","website":" ","working_hour":"Call For More Informations And For An Appointment   Flexible Timing","latitude":"43.8510444","longitude":"-79.0214417"},{"source":"yellow page","service_name":"Driving Guru Training Institute Inc","category":"driving tutoring","phone":"905-239-6969","address":"87 Old Kingston Rd, Ajax, ON L1T 3A6","postalcode":"L1T 3A6","website":" ","working_hour":"","latitude":"43.8542863","longitude":"-79.0589758"},{"source":"yellow page","service_name":"Best Choice Driving School","category":"driving tutoring","phone":"9056862224","address":"204-1 Rossland Rd W, Ajax, ON L1Z 1Z2","postalcode":"L1Z 1Z2","website":"http://www.bestchoicedrivingschool.ca","working_hour":"Appointment only","latitude":"43.879692","longitude":"-79.027729"},{"source":"yellow page","service_name":"Young Drivers Of Canada","category":"driving tutoring","phone":"9054920667","address":"1099 Kingston Rd, Pickering, ON L1V 1B5","postalcode":"L1V 1B5","website":" ","working_hour":"","latitude":"43.828923","longitude":"-79.098602"},{"source":"yellow page","service_name":"Young Drivers Of Canada","category":"driving tutoring","phone":"905-839-5371","address":"","postalcode":"","website":"http://yd.com","working_hour":"","latitude":"","longitude":""},{"source":"yellow page","service_name":"Barrie Learning Centre","category":"driving tutoring","phone":"705-725-8360","address":"320 Bayfield St, Barrie, ON L4M 3C1","postalcode":"L4M 3C1","website":"http://www.thelearningcentres.com","working_hour":"","latitude":"44.4020048","longitude":"-79.7011431"},{"source":"yellow page","service_name":"All Star Driving School","category":"driving tutoring","phone":"705-730-0440","address":"4-477 Grove St E, Barrie, ON L4M 6M3","postalcode":"L4M 6M3","website":" ","working_hour":"","latitude":"44.4053107","longitude":"-79.6560256"},{"source":"yellow page","service_name":"Ultimate Drivers","category":"driving tutoring","phone":"705-725-0123","address":"359 Bayfield St, Barrie, ON L4M 3C3","postalcode":"L4M 3C3","website":"http://www.ultimatedrivers.ca","working_hour":"","latitude":"44.4045111","longitude":"-79.7032825"},{"source":"yellow page","service_name":"We For Driving","category":"driving tutoring","phone":"7052524245","address":"123 Ferndale Dr S, Barrie, ON L4N 6Y6","postalcode":"L4N 6Y6","website":" ","working_hour":"","latitude":"44.3615631","longitude":"-79.7153631"},{"source":"yellow page","service_name":"Lake Simcoe School of Motoring","category":"driving tutoring","phone":"905-476-9450","address":"19-204 Simcoe Ave, Keswick, ON L4P 3S6","postalcode":"L4P 3S6","website":"http://www.lakesimcoeschoolofmotoring.com/","working_hour":"","latitude":"44.241782","longitude":"-79.473889"},{"source":"yellow page","service_name":"Goble Driving Acadamy","category":"driving tutoring","phone":"705-915-0315","address":"2 Marsellus Dr, Barrie, ON L4N 0Y4","postalcode":"L4N 0Y4","website":" ","working_hour":"","latitude":"44.3393189","longitude":"-79.7201916"},{"source":"yellow page","service_name":"Ray's Driving School","category":"driving tutoring","phone":"705-727-1410","address":"68C Maple Ave, Barrie, ON L4N 1R8","postalcode":"L4N 1R8","website":"http://www.raysdrivingschool.ca","working_hour":"","latitude":"44.3899725","longitude":"-79.6922977"},{"source":"yellow page","service_name":"Darrell's Driver Training","category":"driving tutoring","phone":"7057196275","address":"92 Caplan Ave, Barrie, ON L4N 0Z7","postalcode":"L4N 0Z7","website":" ","working_hour":"","latitude":"44.3376328","longitude":"-79.6972324"},{"source":"yellow page","service_name":"Young Drivers Of Canada","category":"driving tutoring","phone":"705-728-1882","address":"74 Cedar Pointe Dr, Barrie, ON L4N 5R7","postalcode":"L4N 5R7","website":"http://www.youngdrivers.com","working_hour":"","latitude":"44.38318","longitude":"-79.7117137"},{"source":"yellow page","service_name":"Sportexcel Consulting","category":"driving tutoring","phone":"7057202291","address":"119 Marshall St, Barrie, ON L4N 4K7","postalcode":"L4N 4K7","website":"http://www.sportexcel.ca","working_hour":"","latitude":"44.3598482","longitude":"-79.6901171"},{"source":"yellow page","service_name":"Don's Driving School Inc","category":"driving tutoring","phone":"7054374804","address":"8 Dunnville Rd, Keswick, ON L4P 3Y7","postalcode":"L4P 3Y7","website":" ","working_hour":"","latitude":"44.243978","longitude":"-79.453132"},{"source":"yellow page","service_name":"Drive Wise","category":"driving tutoring","phone":"7057301130","address":"E 121 Commerce Park Dr, Barrie, ON L4M 8X1","postalcode":"L4M 8X1","website":" ","working_hour":"Monday 9:00 am - 6:00 pm   Tuesday 9:00 am - 6:00 pm   Wednesday 9:00 am - 6:00 pm   Thursday 9:00 am - 6:00 pm   Friday 9:00 am - 6:00 pm","latitude":"44.418928","longitude":"-79.708321"},{"source":"yellow page","service_name":"Barrie Driving School","category":"driving tutoring","phone":"705-728-0194","address":"35 Cedar Pointe Dr, Barrie, ON L4N 5R7","postalcode":"L4N 5R7","website":" ","working_hour":"","latitude":"44.3808912","longitude":"-79.7127073"},{"source":"yellow page","service_name":"Crossroads Truck Training Academy (Barrie)","category":"driving tutoring","phone":"705-881-9509","address":"49 Truman Rd, Barrie, ON L4N 8Y7","postalcode":"L4N 8Y7","website":" ","working_hour":"Monday 8:00 am - 5:00 pm   Tuesday 8:00 am - 5:00 pm   Wednesday 8:00 am - 5:00 pm   Thursday 8:00 am - 5:00 pm   Friday 8:00 am - 5:00 pm   Weekend Training Available","latitude":"44.3589718","longitude":"-79.6700379"},{"source":"yellow page","service_name":"Drive Test","category":"driving tutoring","phone":"7057396990","address":"7-520 Bryne Dr, Barrie, ON L4N 9P6","postalcode":"L4N 9P6","website":"http://www.drivetest.ca","working_hour":"Monday 9:00 am - 5:00 pm   Tuesday 9:00 am - 5:00 pm   Wednesday 9:00 am - 5:00 pm   Thursday 9:00 am - 5:00 pm   Friday 9:00 am - 5:00 pm   Saturday 9:00 am - 5:00 pm   Sunday 10:00 am - 4:00 pm","latitude":"44.3303692","longitude":"-79.6884837"},{"source":"yellow page","service_name":"McCarthy's A B E Zee Driving School","category":"driving tutoring","phone":"705-733-8788","address":"3-4 Alliance Blvd, Barrie, ON L4M 5J1","postalcode":"L4M 5J1","website":" ","working_hour":"","latitude":"44.4077649","longitude":"-79.684391"},{"source":"yellow page","service_name":"Linda's Driving School","category":"driving tutoring","phone":"905-535-0884","address":"213 The Queensway S, Keswick, ON L4P 2A7","postalcode":"L4P 2A7","website":"http://lindasdrivingschool.ca","working_hour":"","latitude":"44.229375","longitude":"-79.465302"},{"source":"yellow page","service_name":"Last Call Designated Driving Service","category":"driving tutoring","phone":"705-722-5397","address":"117 Mary St, Barrie, ON L4N 1T3","postalcode":"L4N 1T3","website":"http://lastcalldesignateddrivers.com","working_hour":"","latitude":"44.3914366","longitude":"-79.6949621"},{"source":"yellow page","service_name":"Skill Builders Physiotherapy & Rehabilitation Centre","category":"driving tutoring","phone":"705-727-0319","address":"100 Bell Farm Rd, Barrie, ON L4M 5K5","postalcode":"L4M 5K5","website":"http://www.skillbuildersrehab.com","working_hour":"","latitude":"44.4098617","longitude":"-79.678093"},{"source":"yellow page","service_name":"Stella N Victor Driving School","category":"driving tutoring","phone":"705-739-6633","address":"566 Bryne Dr, Barrie, ON L4N 9P6","postalcode":"L4N 9P6","website":"http://www.members.barriedirect.info","working_hour":"Monday 10:00 am - 7:00 pm   Tuesday 10:00 am - 7:00 pm   Wednesday 10:00 am - 7:00 pm   Thursday 10:00 am - 7:00 pm   Friday 10:00 am - 7:00 pm   Saturday 9:00 am - 6:00 pm","latitude":"44.326803","longitude":"-79.6878672"},{"source":"yellow page","service_name":"A1 Pro Star Driving School","category":"driving tutoring","phone":"416-629-5800","address":"","postalcode":"","website":" ","working_hour":"","latitude":"","longitude":""},{"source":"yellow page","service_name":"Ian Law Racing Car Control School","category":"driving tutoring","phone":"905-473-9500","address":"13 Valley Mills Rd SS 1, Mount Albert, ON L0G 1M0","postalcode":"L0G 1M0","website":"http://www.carcontrolschool.com","working_hour":"Monday 10:00 am - 7:00 pm   Tuesday 10:00 am - 7:00 pm   Wednesday 10:00 am - 7:00 pm   Thursday 10:00 am - 7:00 pm   Friday 10:00 am - 7:00 pm   Saturday 9:00 am - 6:00 pm","latitude":"44.136896","longitude":"-79.304207"},{"source":"yellow page","service_name":"Little Kickers","category":"driving tutoring","phone":"647-833-5383","address":"","postalcode":"","website":"http://www.littlekickers.ca/","working_hour":"","latitude":"","longitude":""},{"source":"yellow page","service_name":"All Star","category":"driving tutoring","phone":"905-775-4001","address":"Holland PO Box 136 Stn Main, Bradford, ON L3Z 2A7","postalcode":"L3Z 2A7","website":" ","working_hour":"","latitude":"44.12073","longitude":"-79.605853"},{"source":"yellow page","service_name":"Canadian School Of Motoring Inc","category":"driving tutoring","phone":"905-778-9872","address":"76 Holland St W, Bradford West Gwillimbury, ON L3Z 2B3","postalcode":"L3Z 2B3","website":"http://canadianschoolofmotoring.com/","working_hour":"","latitude":"44.113747","longitude":"-79.5671983"},{"source":"yellow page","service_name":"All Star Driving School","category":"driving tutoring","phone":"9057276777","address":"11 Wellington St E, Aurora, ON L4G 1H4","postalcode":"L4G 1H4","website":" ","working_hour":"Monday 9:00 am - 5:00 pm   Tuesday 9:00 am - 5:00 pm   Wednesday 9:00 am - 5:00 pm   Thursday 9:00 am - 5:00 pm   Friday 9:00 am - 5:00 pm   Saturday 9:00 am - 5:00 pm   Sunday 10:00 am - 4:00 pm","latitude":"43.999798","longitude":"-79.46694"},{"source":"yellow page","service_name":"All Star Driving School","category":"driving tutoring","phone":"905-954-0090","address":"350 Davis Dr, Newmarket, ON L3Y 2N7","postalcode":"L3Y 2N7","website":" ","working_hour":"Monday 10:00 am - 7:00 pm   Tuesday 10:00 am - 7:00 pm   Wednesday 10:00 am - 7:00 pm   Thursday 10:00 am - 7:00 pm   Friday 10:00 am - 7:00 pm   Saturday 9:00 am - 6:00 pm","latitude":"44.058343","longitude":"-79.464726"},{"source":"yellow page","service_name":"On The Road Again","category":"driving tutoring","phone":"905-392-0167","address":"ON","postalcode":"","website":" ","working_hour":"","latitude":"","longitude":""},{"source":"yellow page","service_name":"Bill's Driver Training","category":"driving tutoring","phone":"905-716-3443","address":"","postalcode":"","website":" ","working_hour":"","latitude":"","longitude":""},{"source":"yellow page","service_name":"Young Drivers","category":"driving tutoring","phone":"905-726-4132","address":"15213 Yonge St, Aurora, ON L4G 1L8","postalcode":"L4G 1L8","website":"http://yd.com","working_hour":"","latitude":"43.998899","longitude":"-79.467375"},{"source":"yellow page","service_name":"A Super Driving School","category":"driving tutoring","phone":"905-251-7934","address":"25 Maple, Newmarket, ON L4G 1K9","postalcode":"L4G 1K9","website":"http://asuperdriving.com","working_hour":"","latitude":"44.0029716","longitude":"-79.4666463"},{"source":"yellow page","service_name":"Ontario New Drivers Training Service","category":"driving tutoring","phone":"905-713-3733","address":"93 Centre St, Aurora, ON L4G 1J9","postalcode":"L4G 1J9","website":"http://www.ontarionewdrivers.ca","working_hour":"","latitude":"44.001487","longitude":"-79.462394"},{"source":"yellow page","service_name":"AMB Driving School","category":"driving tutoring","phone":"9058530661","address":"ON","postalcode":"","website":" ","working_hour":"","latitude":"43.651893","longitude":"-79.381713"},{"source":"yellow page","service_name":"AMB Driving School","category":"driving tutoring","phone":"905-853-0666","address":"16600 Bayview Ave, Newmarket, ON L3X 1Z9","postalcode":"L3X 1Z9","website":" ","working_hour":"","latitude":"44.0385135","longitude":"-79.4514"},{"source":"yellow page","service_name":"Cads Canada","category":"driving tutoring","phone":"905-727-2244","address":"14845 Yonge St, Aurora, ON L4G 6H8","postalcode":"L4G 6H8","website":" ","working_hour":"","latitude":"43.990063","longitude":"-79.46525"},{"source":"yellow page","service_name":"Romeiro Driving School","category":"driving tutoring","phone":"905-778-8936","address":"19 Holland St E, Bradford West Gwillimbury, ON L3Z 2B8","postalcode":"L3Z 2B8","website":"http://romeirodrivingschool.ca","working_hour":"Monday 9:00 am - 5:00 pm   Tuesday 9:00 am - 5:00 pm   Wednesday 9:00 am - 5:00 pm   Thursday 9:00 am - 5:00 pm   Friday 9:00 am - 5:00 pm   Saturday 9:00 am - 5:00 pm   Sunday 10:00 am - 4:00 pm","latitude":"44.1144555","longitude":"-79.5640969"},{"source":"yellow page","service_name":"Drive Test","category":"driving tutoring","phone":"9057136941","address":"4-1 Henderson Dr, Aurora, ON L4G 4J7","postalcode":"L4G 4J7","website":" ","working_hour":"","latitude":"43.982481","longitude":"-79.465641"},{"source":"yellow page","service_name":"Young Drivers","category":"driving tutoring","phone":"905-895-8244","address":"211-130 Davis Dr, Newmarket, ON L3Y 2N1","postalcode":"L3Y 2N1","website":"http://yd.com","working_hour":"","latitude":"44.055961","longitude":"-79.475349"},{"source":"yellow page","service_name":"Stardust Drive-In Theatre Inc","category":"driving tutoring","phone":"9058364444","address":"893 Mount Albert Rd RR 1, Sharon, ON L0G 1V0","postalcode":"L0G 1V0","website":" ","working_hour":"","latitude":"44.101443","longitude":"-79.461591"},{"source":"yellow page","service_name":"Karuna Driving","category":"driving tutoring","phone":"905-471-3097","address":"118 Bernbridge Rd, Markham, ON L6B 0S9","postalcode":"L6B 0S9","website":" ","working_hour":"","latitude":"43.868308","longitude":"-79.21259"},{"source":"yellow page","service_name":"Pro Star Driving School","category":"driving tutoring","phone":"4167367827","address":"2-1270 Finch Ave W, North York, ON M3J 3J7","postalcode":"M3J 3J7","website":"http://prostardriving.ca","working_hour":"","latitude":"43.76418","longitude":"-79.487879"},{"source":"yellow page","service_name":"Canadian Truck Driving School","category":"driving tutoring","phone":"4167451700","address":"2552 Finch Ave W, North York, ON M9M 2G3","postalcode":"M9M 2G3","website":" ","working_hour":"","latitude":"43.748243","longitude":"-79.560163"},{"source":"yellow page","service_name":"Maple Driving School Ltd","category":"driving tutoring","phone":"416-736-7878","address":"4699 Keele St, North York, ON M3J 2N8","postalcode":"M3J 2N8","website":"http://www.mapledrivingschool.com","working_hour":"","latitude":"43.774771","longitude":"-79.4938"},{"source":"yellow page","service_name":"Great Canada Driving School","category":"driving tutoring","phone":"905-761-0372","address":"1750 Steeles Ave W, Vaughan, ON L4K 4M2","postalcode":"L4K 4M2","website":"http://www.greatcanadainc.com","working_hour":"Appointment Only","latitude":"43.785586","longitude":"-79.47733"},{"source":"yellow page","service_name":"Canada Trust Driving School","category":"driving tutoring","phone":"905-761-6135","address":"2100 Steeles Ave W, Concord, ON L4K 2V1","postalcode":"L4K 2V1","website":" ","working_hour":"","latitude":"43.782787","longitude":"-79.48949"},{"source":"yellow page","service_name":"Liftow Driver Training","category":"driving tutoring","phone":"4167408799","address":"362 Signet Dr, North York, ON M9L 1V2","postalcode":"M9L 1V2","website":" ","working_hour":"Monday 8:00 am - 4:30 pm   Tuesday 8:00 am - 4:30 pm   Wednesday 8:00 am - 4:30 pm   Thursday 8:00 am - 4:30 pm   Friday 8:00 am - 4:30 pm","latitude":"43.7678111","longitude":"-79.5420369"},{"source":"yellow page","service_name":"Trontario Truck Driving School","category":"driving tutoring","phone":"647-430-7175","address":"2300 Sheppard Ave W, North York, ON M9M 3A4","postalcode":"M9M 3A4","website":"http://www.trontariotraining.com","working_hour":"Monday 8:00 am - 8:00 pm   Tuesday 8:00 am - 8:00 pm   Wednesday 8:00 am - 8:00 pm   Thursday 8:00 am - 8:00 pm   Friday 8:00 am - 8:00 pm","latitude":"43.734979","longitude":"-79.532841"},{"source":"yellow page","service_name":"Topline Driving School Inc","category":"driving tutoring","phone":"4167493500","address":"2300 Sheppard Ave W, North York, ON M9M 3A4","postalcode":"M9M 3A4","website":"http://toplinedriving.ca","working_hour":"Appointments available: Sunday, Monday, Tuesday, Wednesday, Thursday, Friday, Saturday.","latitude":"43.734979","longitude":"-79.532841"},{"source":"yellow page","service_name":"Mega City Forklift Training Toronto","category":"driving tutoring","phone":"416-335-5551","address":"3-147 Norfinch Dr, North York, ON M3N 1W8","postalcode":"M3N 1W8","website":" ","working_hour":"","latitude":"43.763868","longitude":"-79.529772"},{"source":"yellow page","service_name":"Nortown Driving School","category":"driving tutoring","phone":"416-398-6237","address":"1001 Finch Ave W, North York, ON M3J 2C7","postalcode":"M3J 2C7","website":" ","working_hour":"","latitude":"43.7683803","longitude":"-79.4688578"},{"source":"yellow page","service_name":"Driving Emotions Motorcar Inc","category":"driving tutoring","phone":"4167920571","address":"4463 Chesswood Dr, North York, ON M3J 2C2","postalcode":"M3J 2C2","website":" ","working_hour":"","latitude":"43.762522","longitude":"-79.476558"},{"source":"yellow page","service_name":"Great Truck & Forklift Driving School","category":"driving tutoring","phone":"416-745-5700","address":"2552 Finch Ave W, North York, ON M9M 2G3","postalcode":"M9M 2G3","website":"http://www.greattruckschool.com","working_hour":"Monday 10:00 am - 7:00 pm   Tuesday 10:00 am - 7:00 pm   Wednesday 10:00 am - 7:00 pm   Thursday 10:00 am - 7:00 pm   Friday 10:00 am - 7:00 pm   Saturday 10:00 am - 3:00 pm","latitude":"43.748243","longitude":"-79.560163"},{"source":"yellow page","service_name":"Smart Driving School","category":"driving tutoring","phone":"416-840-7799","address":"3326 Keele St, North York, ON M3M 2H7","postalcode":"M3M 2H7","website":"http://www.smartdrivingschool.ca","working_hour":"Monday 8:00 am - 5:00 pm   Tuesday 8:00 am - 5:00 pm   Wednesday 8:00 am - 5:00 pm   Thursday 8:00 am - 5:00 pm   Friday 8:00 am - 5:00 pm   Saturday 10:00 am - 5:00 pm   Call For Details: Sunday.","latitude":"43.744291","longitude":"-79.486368"},{"source":"yellow page","service_name":"ASAP Driving School","category":"driving tutoring","phone":"905-296-4823","address":"3-235 Rayette Rd, Vaughan, ON L4K 2G1","postalcode":"L4K 2G1","website":" ","working_hour":"","latitude":"43.810858","longitude":"-79.498159"},{"source":"yellow page","service_name":"All Nations Driving School","category":"driving tutoring","phone":"905-851-3399","address":"202A-90 Winges Rd, Woodbridge, ON L4L 6A9","postalcode":"L4L 6A9","website":"http://www.allnationsdriving.ca","working_hour":"","latitude":"43.787014","longitude":"-79.552459"},{"source":"yellow page","service_name":"Karat Driving School Inc","category":"driving tutoring","phone":"416-663-7177","address":"5000 Dufferin St, North York, ON M3H 5T5","postalcode":"M3H 5T5","website":" ","working_hour":"Monday 10:00 am - 5:00 pm   Tuesday 10:00 am - 5:00 pm   Wednesday 10:00 am - 5:00 pm   Thursday 10:00 am - 5:00 pm   Friday 10:00 am - 5:00 pm","latitude":"43.782119","longitude":"-79.470091"},{"source":"yellow page","service_name":"A New World Driving School","category":"driving tutoring","phone":"416-740-3546","address":"41 Elana Dr, North York, ON M3N 2C1","postalcode":"M3N 2C1","website":" ","working_hour":"Monday 10:00 am - 7:00 pm   Tuesday 10:00 am - 7:00 pm   Wednesday 10:00 am - 7:00 pm   Thursday 10:00 am - 7:00 pm   Friday 10:00 am - 7:00 pm   Saturday 9:00 am - 6:00 pm","latitude":"43.755217","longitude":"-79.5198"},{"source":"yellow page","service_name":"Drive Test","category":"driving tutoring","phone":"4163983577","address":"37 Carl Hall Road, Toronto, ON M3K 2E2","postalcode":"M3K 2E2","website":" ","working_hour":"","latitude":"43.747223","longitude":"-79.478314"},{"source":"yellow page","service_name":"Drive Test","category":"driving tutoring","phone":"4163258580","address":"404 Laclau Street, Orillia, ON L3V 4P5","postalcode":"L3V 4P5","website":" ","working_hour":"","latitude":"44.6242937","longitude":"-79.4225654"},{"source":"yellow page","service_name":"Fox Dens Driving Range","category":"driving tutoring","phone":"7057259797","address":"560 Anne St N, Barrie, ON L4M 4S4","postalcode":"L4M 4S4","website":" ","working_hour":"","latitude":"44.4118333","longitude":"-79.7305848"},{"source":"yellow page","service_name":"Rick's Driving School","category":"driving tutoring","phone":"705-527-7425","address":"295 King St, Midland, ON L4R 3M5","postalcode":"L4R 3M5","website":" ","working_hour":"","latitude":"44.749167","longitude":"-79.884744"},{"source":"yellow page","service_name":"Len's Driving School","category":"driving tutoring","phone":"705-325-0011","address":"10 Peter St N, Orillia, ON L3V 4Y7","postalcode":"L3V 4Y7","website":"http://www.lensdrivingschool.ca","working_hour":"","latitude":"44.609452","longitude":"-79.417978"},{"source":"yellow page","service_name":"Ricks Driving School","category":"driving tutoring","phone":"705-326-0006","address":"6 West St N, Orillia, ON L3V 5B8","postalcode":"L3V 5B8","website":"http://orilliadrivingschool.com","working_hour":"","latitude":"44.6083938","longitude":"-79.4197579"},{"source":"yellow page","service_name":"Ray's Driving School","category":"driving tutoring","phone":"705-526-9615","address":"5-854 Yonge St, Midland, ON L4R 2E7","postalcode":"L4R 2E7","website":"http://www.raysdrivingschool.ca","working_hour":"","latitude":"44.7405","longitude":"-79.897847"},{"source":"yellow page","service_name":"Young Drivers","category":"driving tutoring","phone":"705-326-1882","address":"4-4337 Burnside Line, Orillia, ON L3V 6H4","postalcode":"L3V 6H4","website":" ","working_hour":"","latitude":"44.6336675","longitude":"-79.4406679"},{"source":"yellow page","service_name":"Drivetest","category":"driving tutoring","phone":"705-326-9293","address":"404 Laclie St, Orillia, ON L3V 4P5","postalcode":"L3V 4P5","website":" ","working_hour":"","latitude":"44.6242937","longitude":"-79.4225654"},{"source":"yellow page","service_name":"Aa Road Star Driving School","category":"driving tutoring","phone":"705-503-1786","address":"14-2 Marsellus Dr, Barrie, ON L4N 0Y4","postalcode":"L4N 0Y4","website":" ","working_hour":"","latitude":"44.3393189","longitude":"-79.7201916"},{"source":"yellow page","service_name":"Young Drivers","category":"driving tutoring","phone":"705-526-8500","address":"202-490 Dominion Ave, Midland, ON L4R 1P6","postalcode":"L4R 1P6","website":" ","working_hour":"","latitude":"44.751073","longitude":"-79.88592"},{"source":"yellow page","service_name":"Canadian School of Motoring Inc","category":"driving tutoring","phone":"7058122728","address":"ON","postalcode":"","website":" ","working_hour":"","latitude":"43.651893","longitude":"-79.381713"},{"source":"yellow page","service_name":"Townsend Lake Golf Course & Driving Range","category":"driving tutoring","phone":"519-986-4889","address":"474864 Townsend Lake Rd RR 6, Markdale, ON N0C 1H0","postalcode":"N0C 1H0","website":" ","working_hour":"","latitude":"44.270435","longitude":"-80.644379"},{"source":"yellow page","service_name":"Hunter Driver Education Ltd","category":"driving tutoring","phone":"905-857-9122","address":"33 King St W, Bolton, ON L7E 1C7","postalcode":"L7E 1C7","website":"http://hunterdrivered.com","working_hour":"","latitude":"43.878774","longitude":"-79.73918"},{"source":"yellow page","service_name":"Drive Test","category":"driving tutoring","phone":"5199410785","address":"50 Fourth Avenue, Orangeville, ON L9W 4P1","postalcode":"L9W 4P1","website":" ","working_hour":"","latitude":"43.9262604","longitude":"-80.0941627"},{"source":"yellow page","service_name":"FHC Driving School","category":"driving tutoring","phone":"705-446-9890","address":"864 Hurontario St, Collingwood, ON L9Y 0G7","postalcode":"L9Y 0G7","website":"http://www.fhcdrivingschool.ca","working_hour":"","latitude":"44.4797858","longitude":"-80.2126944"},{"source":"yellow page","service_name":"Tri County Driving Academy","category":"driving tutoring","phone":"5192178556","address":"200 Fiddle Park Lane, Shelburne, ON L9V 3C9","postalcode":"L9V 3C9","website":"http://www.tricountydriving.ca","working_hour":"Monday 9:00 am - 5:00 pm   Tuesday 9:00 am - 5:00 pm   Wednesday 9:00 am - 5:00 pm   Thursday 9:00 am - 5:00 pm   Friday 9:00 am - 5:00 pm","latitude":"44.0870959","longitude":"-80.2066643"},{"source":"yellow page","service_name":"New Era Driving School","category":"driving tutoring","phone":"905-533-2255","address":"334 Queen St S, Caledon, ON L7E 4Z9","postalcode":"L7E 4Z9","website":"http://www.neweradriving.com","working_hour":"","latitude":"43.872962","longitude":"-79.728924"},{"source":"yellow page","service_name":"Collingwood Learning Centre","category":"driving tutoring","phone":"705-445-9019","address":"180 Ontario St, Collingwood, ON L9Y 1M6","postalcode":"L9Y 1M6","website":"http://www.thelearningcentres.com/locations/learning-centres---collingwood-campus","working_hour":"Monday 8:30 am - 4:00 pm   Tuesday 8:30 am - 4:00 pm   Wednesday 8:30 am - 4:00 pm   Thursday 8:30 am - 4:00 pm   Friday 8:30 am - 4:00 pm","latitude":"44.4993696","longitude":"-80.214453"},{"source":"yellow page","service_name":"Ultimate Drivers","category":"driving tutoring","phone":"5193077171","address":"162 Broadway Ave, Orangeville, ON L9W 1K3","postalcode":"L9W 1K3","website":" ","working_hour":"","latitude":"43.919384","longitude":"-80.096532"},{"source":"yellow page","service_name":"Tri County Driving Academy","category":"driving tutoring","phone":"519-217-8556","address":"45 Main Street, Erin, ON N0B 1T0","postalcode":"N0B 1T0","website":"http://tricountydriving.ca/","working_hour":"Monday 9:00 am - 5:00 pm   Tuesday 9:00 am - 5:00 pm   Wednesday 9:00 am - 5:00 pm   Thursday 9:00 am - 5:00 pm   Friday 9:00 am - 5:00 pm","latitude":"43.768474","longitude":"-80.061533"},{"source":"yellow page","service_name":"Young Drivers","category":"driving tutoring","phone":"519-836-4070","address":"550 Belsyde Ave E, Fergus, ON N1M 3J2","postalcode":"N1M 3J2","website":"https://www.yd.com/","working_hour":"","latitude":"43.707848","longitude":"-80.360751"},{"source":"yellow page","service_name":"Taylor Professional Driving Service","category":"driving tutoring","phone":"519-415-8886","address":"633419 Highway 10, Mono, ON L9W 6Z1","postalcode":"L9W 6Z1","website":" ","working_hour":"","latitude":"43.9569791","longitude":"-80.1068927"},{"source":"yellow page","service_name":"Taylor Truck Training Services","category":"driving tutoring","phone":"519-415-8887","address":"633419 Highway 10, Mono, ON L9W 6Z1","postalcode":"L9W 6Z1","website":" ","working_hour":"Monday 8:00 am - 6:00 pm   Tuesday 8:00 am - 6:00 pm   Wednesday 8:00 am - 6:00 pm   Thursday 8:00 am - 6:00 pm   Friday 8:00 am - 6:00 pm   Saturday 8:00 am - 6:00 pm   Sunday 8:00 am - 6:00 pm","latitude":"43.9569791","longitude":"-80.1068927"},{"source":"yellow page","service_name":"Alliston Learning Centre","category":"driving tutoring","phone":"705-435-7778","address":"46 Wellington St W, New Tecumseth, ON L9R 1J3","postalcode":"L9R 1J3","website":"http://www.thelearningcentres.com/locations/learning-centres---alliston-campus","working_hour":"Monday 8:30 am - 4:00 pm   Tuesday 8:30 am - 4:00 pm   Wednesday 8:30 am - 4:00 pm   Thursday 8:30 am - 4:00 pm   Friday 8:30 am - 4:00 pm","latitude":"44.1525107","longitude":"-79.8708854"},{"source":"yellow page","service_name":"Tri County Driving Academy","category":"driving tutoring","phone":"1-855-736-0967","address":"102-28 Mill St, Orangeville, ON L9W 2M3","postalcode":"L9W 2M3","website":" ","working_hour":"Monday 9:00 am - 5:00 pm   Tuesday 9:00 am - 5:00 pm   Wednesday 9:00 am - 5:00 pm   Thursday 9:00 am - 5:00 pm   Friday 9:00 am - 5:00 pm","latitude":"43.9184936","longitude":"-80.0955897"},{"source":"yellow page","service_name":"All Star Driving School","category":"driving tutoring","phone":"9058575555","address":"6 Queen N, Bolton, ON L7E 1C8","postalcode":"L7E 1C8","website":" ","working_hour":"Monday 8:30 am - 5:00 pm   Tuesday 8:30 am - 5:00 pm   Wednesday 8:30 am - 5:00 pm   Thursday 8:30 am - 5:00 pm   Friday 8:30 am - 5:00 pm   Saturday 8:30 am - 5:00 pm   Sunday 8:30 am - 5:00 pm","latitude":"43.8796655","longitude":"-79.7383689"},{"source":"yellow page","service_name":"FGM Truck Lines","category":"driving tutoring","phone":"905-857-4555","address":"4 Betomat Crt, Bolton, ON L7E 2V9","postalcode":"L7E 2V9","website":" ","working_hour":"","latitude":"43.868339","longitude":"-79.766584"},{"source":"yellow page","service_name":"Drivewise Orangeville","category":"driving tutoring","phone":"5199424520","address":"109 Broadway Ave, Orangeville, ON L9W 1K2","postalcode":"L9W 1K2","website":" ","working_hour":"","latitude":"43.9198228","longitude":"-80.0950291"},{"source":"yellow page","service_name":"Highlander Way Driving School","category":"driving tutoring","phone":"519-787-1250","address":"400 Tower St S, Fergus, ON N1M 2P7","postalcode":"N1M 2P7","website":"http://www.highlanderway.ca","working_hour":"","latitude":"43.701572","longitude":"-80.375249"},{"source":"yellow page","service_name":"Fergus Elora Driving School","category":"driving tutoring","phone":"519-787-9300","address":"122B St Andrew St W, Fergus, ON N1M 1N5","postalcode":"N1M 1N5","website":"http://www.ferguseloradrivingschool.com","working_hour":"","latitude":"43.705595","longitude":"-80.378051"},{"source":"yellow page","service_name":"Blue Water Driving Academy Ltd","category":"driving tutoring","phone":"705-444-5550","address":"12-191 Hurontario St, Collingwood, ON L9Y 2M1","postalcode":"L9Y 2M1","website":"http://www.bluewaterdrivingacademyltd.ca","working_hour":"Monday 8:30 am - 4:00 pm   Tuesday 8:30 am - 4:00 pm   Wednesday 8:30 am - 4:00 pm   Thursday 8:30 am - 4:00 pm   Friday 8:30 am - 12:00 pm","latitude":"44.498168","longitude":"-80.21649"},{"source":"yellow page","service_name":"Drivesafe Canada","category":"driving tutoring","phone":"647-886-1365","address":"924 Pickersgill Cres, Milton, ON L9T 7T5","postalcode":"L9T 7T5","website":"http://www.drivesafecanada.ca","working_hour":"Monday 9:00 am - 6:00 pm   Tuesday 9:00 am - 6:00 pm   Wednesday 9:00 am - 6:00 pm   Thursday 9:00 am - 6:00 pm   Friday 9:00 am - 6:00 pm","latitude":"43.4821275","longitude":"-79.8727638"},{"source":"yellow page","service_name":"DriveWise Burlington","category":"driving tutoring","phone":"9053351966","address":"2201 Brant St, Burlington, ON L7P 3N8","postalcode":"L7P 3N8","website":"http://www.drivewiseburlington.com","working_hour":"Monday 8:30 am - 5:00 pm   Tuesday 8:30 am - 5:00 pm   Wednesday 8:30 am - 5:00 pm   Thursday 8:30 am - 5:00 pm   Friday 8:30 am - 5:00 pm","latitude":"43.356378","longitude":"-79.842898"},{"source":"yellow page","service_name":"Selbak Driving School","category":"driving tutoring","phone":"9056896614","address":"312 Dundas St E, Hamilton, ON","postalcode":"","website":"http://www.attridgetransportation.com","working_hour":"","latitude":"43.333601","longitude":"-79.892626"},{"source":"yellow page","service_name":"Waterdown Driving School","category":"driving tutoring","phone":"905-807-5632","address":"312 Dundas St E, Waterdown, ON L0R 2H0","postalcode":"L0R 2H0","website":" ","working_hour":"","latitude":"43.333601","longitude":"-79.892626"},{"source":"yellow page","service_name":"G1 G2 Driving School","category":"driving tutoring","phone":"905-630-6000","address":"5327 Upper Middle Rd, Burlington, ON L7L 0E9","postalcode":"L7L 0E9","website":" ","working_hour":"Appointment Only","latitude":"43.404173","longitude":"-79.7795283"},{"source":"yellow page","service_name":"Drive Test","category":"driving tutoring","phone":"8885706110","address":"2-1250 Brant Street, Burlington, ON L7P 1X8","postalcode":"L7P 1X8","website":" ","working_hour":"","latitude":"43.345092","longitude":"-79.826919"},{"source":"yellow page","service_name":"Ultimate Drivers Of Canada","category":"driving tutoring","phone":"9058787787","address":"342 Bronte S, ON L9T 5B7","postalcode":"L9T 5B7","website":" ","working_hour":"","latitude":"43.500997","longitude":"-79.877924"},{"source":"yellow page","service_name":"ABC Driving School","category":"driving tutoring","phone":"289-270-3863","address":"18 Martin St, Milton, ON L9T 2P9","postalcode":"L9T 2P9","website":"http://www.abcdrivingschool.ca","working_hour":"Monday 10:00 am - 6:00 pm   Tuesday 10:00 am - 6:00 pm   Wednesday 10:00 am - 6:00 pm   Thursday 10:00 am - 6:00 pm   Friday 10:00 am - 6:00 pm","latitude":"43.513888","longitude":"-79.883376"},{"source":"yellow page","service_name":"Wheels Driver Training Ltd","category":"driving tutoring","phone":"289-276-0494","address":"245 Commercial St, Milton, ON L9T 2J3","postalcode":"L9T 2J3","website":"http://www.learntodrive.com","working_hour":"Monday 10:00 am - 7:00 pm   Tuesday 10:00 am - 7:00 pm   Wednesday 10:00 am - 7:00 pm   Thursday 10:00 am - 7:00 pm   Friday 10:00 am - 7:00 pm   Saturday 9:00 am - 6:00 pm","latitude":"43.510201","longitude":"-79.874819"},{"source":"yellow page","service_name":"DRIVEWISE","category":"driving tutoring","phone":"905-875-0480","address":"550 Ontario St S, Milton, ON L9T 5E4","postalcode":"L9T 5E4","website":"http://www.drivewisemilton.com","working_hour":"","latitude":"43.507023","longitude":"-79.862236"},{"source":"yellow page","service_name":"Ultimate Drivers Burlington","category":"driving tutoring","phone":"9053356292","address":"591 Brant St, Burlington, ON L7R 2G6","postalcode":"L7R 2G6","website":" ","working_hour":"Monday 11:00 am - 6:00 pm   Tuesday 11:00 am - 6:00 pm   Wednesday 11:00 am - 6:00 pm   Thursday 11:00 am - 6:00 pm   Friday 11:00 am - 6:00 pm   Saturday & Sunday For Classes Only","latitude":"43.329524","longitude":"-79.803414"},{"source":"yellow page","service_name":"Young Drivers","category":"driving tutoring","phone":"905-639-2043","address":"412-760 Brant St, Burlington, ON L7R 4B8","postalcode":"L7R 4B8","website":"http://yd.com","working_hour":"","latitude":"43.332601","longitude":"-79.80791"},{"source":"yellow page","service_name":"ABC Driving School","category":"driving tutoring","phone":"289-812-4545","address":"45 - 760 Brant St, Burlington, ON L7R 4B8","postalcode":"L7R 4B8","website":"http://www.abcdrivingschool.ca","working_hour":"Monday 10:00 am - 6:00 pm   Tuesday 10:00 am - 6:00 pm   Wednesday 10:00 am - 6:00 pm   Thursday 10:00 am - 6:00 pm   Friday 10:00 am - 6:00 pm","latitude":"43.332601","longitude":"-79.80791"},{"source":"yellow page","service_name":"Drive Sense Driving School","category":"driving tutoring","phone":"905-407-4661","address":"2230 Mountainside Dr, Burlington, ON L7P 1B5","postalcode":"L7P 1B5","website":" ","working_hour":"","latitude":"43.3492172","longitude":"-79.8172489"},{"source":"yellow page","service_name":"Universal Driving School","category":"driving tutoring","phone":"905-333-3899","address":"484 Guelph Line, Burlington, ON L7R 3L9","postalcode":"L7R 3L9","website":" ","working_hour":"","latitude":"43.33927","longitude":"-79.78673"},{"source":"yellow page","service_name":"Dorothy's Driving School","category":"driving tutoring","phone":"9056372148","address":"5-498A Brant St, Burlington, ON L7R 2G4","postalcode":"L7R 2G4","website":" ","working_hour":"Monday 9:00 am - 5:00 pm   Tuesday 9:00 am - 5:00 pm   Wednesday 9:00 am - 5:00 pm   Thursday 9:00 am - 5:00 pm   Friday 9:00 am - 5:00 pm   Saturday 9:00 am - 12:00 pm   Sunday 9:00 am - 12:00 pm","latitude":"43.3275322","longitude":"-79.8005458"},{"source":"yellow page","service_name":"G1 G2 Driving School","category":"driving tutoring","phone":"905-633-7125","address":"195 Plains Rd E, Burlington, ON L7T 2C4","postalcode":"L7T 2C4","website":" ","working_hour":"","latitude":"43.311494","longitude":"-79.846465"},{"source":"yellow page","service_name":"G Class Driver Ltd","category":"driving tutoring","phone":"9056341112","address":"3040 New St, Burlington, ON L7N 1M5","postalcode":"L7N 1M5","website":"http://gclassdrivers.com","working_hour":"","latitude":"43.339378","longitude":"-79.784138"},{"source":"yellow page","service_name":"Beyond Driving with Dignity","category":"driving tutoring","phone":"905-309-1525","address":"24 Cherryhill Dr, Grimsby, ON L3M 3B5","postalcode":"L3M 3B5","website":" ","working_hour":"Monday 9:00 am - 5:00 pm   Tuesday 9:00 am - 5:00 pm   Wednesday 9:00 am - 5:00 pm   Thursday 9:00 am - 5:00 pm   Friday 9:00 am - 5:00 pm   Appointment Only","latitude":"43.187677","longitude":"-79.557526"},{"source":"yellow page","service_name":"ABBA Driving School","category":"driving tutoring","phone":"9056939944","address":"810 Nipissing Rd, Milton, ON L9T 4Z9","postalcode":"L9T 4Z9","website":"http://abbadrivingschool.ca","working_hour":"","latitude":"43.5219","longitude":"-79.865459"},{"source":"yellow page","service_name":"Fox Run Par 3 Golf & Driving","category":"driving tutoring","phone":"905-892-7556","address":"1792 Regional 20 Rd, Pelham, ON","postalcode":"","website":"http://foxrunniagara.ca","working_hour":"Monday 9:00 am - 5:00 pm   Tuesday 9:00 am - 5:00 pm   Wednesday 9:00 am - 5:00 pm   Thursday 9:00 am - 5:00 pm   Friday 9:00 am - 5:00 pm   Saturday 9:00 am - 5:00 pm","latitude":"43.0432074","longitude":"-79.3875108"},{"source":"yellow page","service_name":"Fox Run Golf Course & Driving Range","category":"driving tutoring","phone":"905-892-7556","address":"1792 Hwy 20 RR 1, Fonthill, ON L0S 1E6","postalcode":"L0S 1E6","website":" ","working_hour":"","latitude":"43.091227","longitude":"-79.267968"},{"source":"yellow page","service_name":"Young Drivers","category":"driving tutoring","phone":"905-680-6220","address":"165 Niagara St, St Catharines, ON L2R 4L4","postalcode":"L2R 4L4","website":"http://youngdrivers.com","working_hour":"","latitude":"43.1706854","longitude":"-79.2339202"},{"source":"yellow page","service_name":"Gibson Driver Education","category":"driving tutoring","phone":"905-684-2955","address":"2E Tremont Dr, St Catharines, ON L2T 3B2","postalcode":"L2T 3B2","website":" ","working_hour":"","latitude":"43.1331622","longitude":"-79.2244333"},{"source":"yellow page","service_name":"Access Driving Education","category":"driving tutoring","phone":"9056508049","address":"85 Church St, St Catharines, ON L2R 3C7","postalcode":"L2R 3C7","website":"http://www.accessdrivingeducation.com","working_hour":"","latitude":"43.161564","longitude":"-79.245551"},{"source":"yellow page","service_name":"Advance Driver Training","category":"driving tutoring","phone":"9056855591","address":"27 William St, St Catharines, ON L2R 5H9","postalcode":"L2R 5H9","website":"http://www.advancedrivertraining.net","working_hour":"","latitude":"43.156854","longitude":"-79.248024"},{"source":"yellow page","service_name":"Vision 90 Driving School","category":"driving tutoring","phone":"905-646-4342","address":"350 Scott St, St Catharines, ON L2N 1J5","postalcode":"L2N 1J5","website":"http://www.vision90.ca","working_hour":"","latitude":"43.187667","longitude":"-79.232655"},{"source":"yellow page","service_name":"Young Drivers","category":"driving tutoring","phone":"905-309-1429","address":"455 South Service Rd, Grimsby, ON L3M 4E8","postalcode":"L3M 4E8","website":"http://yd.com","working_hour":"","latitude":"43.2075527","longitude":"-79.6002584"},{"source":"yellow page","service_name":"Anthony's Stick Shift Driving School","category":"driving tutoring","phone":"905-280-3122","address":"350 Scott St, St Catharines, ON L2N 6T4","postalcode":"L2N 6T4","website":" ","working_hour":"Monday 10:00 am - 7:00 pm   Tuesday 10:00 am - 7:00 pm   Wednesday 10:00 am - 7:00 pm   Thursday 10:00 am - 7:00 pm   Friday 10:00 am - 7:00 pm   Saturday 9:00 am - 6:00 pm","latitude":"43.187667","longitude":"-79.232655"},{"source":"yellow page","service_name":"Aapex Driving Academy","category":"driving tutoring","phone":"905-563-3283","address":"4291 Mountain St, Beamsville, ON L0R 1B0","postalcode":"L0R 1B0","website":"http://www.aapexdriving.com","working_hour":"","latitude":"43.1651311","longitude":"-79.4753823"},{"source":"yellow page","service_name":"Aapex Driving Academy","category":"driving tutoring","phone":"1-800-463-1436","address":"285 Bunting Rd, St Catharines, ON L2N 4R5","postalcode":"L2N 4R5","website":"http://www.aapexdriving.com","working_hour":"","latitude":"43.178031","longitude":"-79.210272"},{"source":"yellow page","service_name":"Truck Training Schools Of Ontario","category":"driving tutoring","phone":"9057041105","address":"27 William St, St Catharines, ON L2R 5H9","postalcode":"L2R 5H9","website":"http://ttsao.com","working_hour":"","latitude":"43.156854","longitude":"-79.248024"},{"source":"yellow page","service_name":"Global Pile Driving Inc","category":"driving tutoring","phone":"9056846381","address":"222 Martindale Rd RR 3, St Catharines, ON L2R 6P9","postalcode":"L2R 6P9","website":" ","working_hour":"","latitude":"43.174822","longitude":"-79.27468"},{"source":"yellow page","service_name":"Aapex Driving Academy","category":"driving tutoring","phone":"1-866-249-1755","address":"33 Main St W, Grimsby, ON L3M 1R3","postalcode":"L3M 1R3","website":"http://www.aapexdriving.com","working_hour":"","latitude":"43.1936829","longitude":"-79.561578"},{"source":"yellow page","service_name":"Adventure Driver Training","category":"driving tutoring","phone":"905-680-0483","address":"90 Niagara St, St Catharines, ON L2R 4L2","postalcode":"L2R 4L2","website":" ","working_hour":"Monday 12:30 pm - 4:30 pm   Tuesday 12:30 pm - 4:30 pm   Wednesday 12:30 pm - 4:30 pm   Thursday 12:30 pm - 4:30 pm   Friday 12:30 pm - 4:30 pm","latitude":"43.167108","longitude":"-79.236303"},{"source":"yellow page","service_name":"Can-View Drive In","category":"driving tutoring","phone":"9058929929","address":"Hwy 20 Kottmeleier Rd, Fonthill, ON L0S 1E0","postalcode":"L0S 1E0","website":"http://canviewdrivein.com","working_hour":"","latitude":"43.043298","longitude":"-79.28561"},{"source":"yellow page","service_name":"Street Legal Niagara","category":"driving tutoring","phone":"9054012288","address":"335 Welland Ave, St Catharines, ON L2R 2R2","postalcode":"L2R 2R2","website":" ","working_hour":"","latitude":"43.17095","longitude":"-79.225518"},{"source":"yellow page","service_name":"Aapex Driving Academy","category":"driving tutoring","phone":"289-362-3655","address":"285 Bunting Rd, St Catharines, ON L2M 7T9","postalcode":"L2M 7T9","website":" ","working_hour":"","latitude":"43.178031","longitude":"-79.210272"},{"source":"yellow page","service_name":"Aapex Driving Academy","category":"driving tutoring","phone":"905-788-2327","address":"32 Cross St, Welland, ON L3B 3G1","postalcode":"L3B 3G1","website":"http://www.aapexdriving.com","working_hour":"","latitude":"42.9919283","longitude":"-79.2481625"},{"source":"yellow page","service_name":"Aapex Driving Academy","category":"driving tutoring","phone":"905-788-2327","address":"1477 Pelham St, Fonthill, ON L0S 1E0","postalcode":"L0S 1E0","website":"http://www.aapexdriving.com","working_hour":"","latitude":"43.045243","longitude":"-79.285489"},{"source":"yellow page","service_name":"Driver Training Center Welland Ltd","category":"driving tutoring","phone":"9057883254","address":"211 King St, Welland, ON L3B 5W1","postalcode":"L3B 5W1","website":" ","working_hour":"","latitude":"42.9874221","longitude":"-79.2511091"},{"source":"yellow page","service_name":"Four Seasons Driver Education","category":"driving tutoring","phone":"9053215320","address":"136 Thorold Rd, Welland, ON L3C 3V3","postalcode":"L3C 3V3","website":" ","working_hour":"","latitude":"43.0037902","longitude":"-79.2554829"},{"source":"yellow page","service_name":"Ontario Truck Driving School","category":"driving tutoring","phone":"2894344633","address":"281 Queenston Rd, Niagara On The Lake, ON L0S 1J0","postalcode":"L0S 1J0","website":" ","working_hour":"Monday 8:30 am - 5:30 pm   Tuesday 8:30 am - 5:30 pm   Wednesday 8:30 am - 5:30 pm   Thursday 8:30 am - 5:30 pm   Friday 8:30 am - 5:30 pm","latitude":"43.163965","longitude":"-79.170453"},{"source":"yellow page","service_name":"Pineridge Golf Driving Range","category":"driving tutoring","phone":"905-384-4471","address":"1732 Merritville Hwy, Welland, ON L3B 5N5","postalcode":"L3B 5N5","website":" ","working_hour":"","latitude":"43.0560373","longitude":"-79.2500112"},{"source":"yellow page","service_name":"Durham Drivers","category":"driving tutoring","phone":"905-723-5000","address":"B 1-179 King St E, Oshawa, ON L1H 1C2","postalcode":"L1H 1C2","website":" ","working_hour":"","latitude":"43.898866","longitude":"-78.857542"},{"source":"yellow page","service_name":"Ontario Truck Training Academy","category":"driving tutoring","phone":"905-723-1211","address":"99 Wentworth St E, Oshawa, ON L1H 3V6","postalcode":"L1H 3V6","website":"http://www.otta.ca","working_hour":"Monday 8:30 am - 5:00 pm   Tuesday 8:30 am - 5:00 pm   Wednesday 8:30 am - 5:00 pm   Thursday 8:30 am - 5:00 pm   Friday 8:30 am - 5:00 pm","latitude":"43.875078","longitude":"-78.842112"},{"source":"yellow page","service_name":"Gord's Driving School","category":"driving tutoring","phone":"905-894-9041","address":"3460 Nigh Rd, Ridgeway, ON L0S 1N0","postalcode":"L0S 1N0","website":"http://gordsdrivingschool.com","working_hour":"Monday 11:00 am - 3:00 pm   Tuesday 11:00 am - 3:00 pm   Wednesday 11:00 am - 3:00 pm   Thursday 11:00 am - 3:00 pm   Friday 11:00 am - 3:00 pm","latitude":"42.8944211","longitude":"-79.0437233"},{"source":"yellow page","service_name":"Port Hope Drive In","category":"driving tutoring","phone":"905-434-8233","address":"156 Centre St S, Oshawa, ON L1H 4A4","postalcode":"L1H 4A4","website":" ","working_hour":"","latitude":"43.893034","longitude":"-78.863702"},{"source":"yellow page","service_name":"Drive Test","category":"driving tutoring","phone":"4163258580","address":"200 John St.West, Oshawa, ON L1J 2B4","postalcode":"L1J 2B4","website":" ","working_hour":"","latitude":"43.892825","longitude":"-78.867317"},{"source":"yellow page","service_name":"Horizon Driving Academy","category":"driving tutoring","phone":"905-432-1118","address":"2C-57 Simcoe St S, Oshawa, ON L1H 4G4","postalcode":"L1H 4G4","website":" ","working_hour":"Monday 9:00 am - 5:00 pm   Tuesday 9:00 am - 5:00 pm   Wednesday 9:00 am - 5:00 pm   Thursday 9:00 am - 5:00 pm   Friday 9:00 am - 5:00 pm   Call For Evening Appointments And Class Times!","latitude":"43.895915","longitude":"-78.862867"},{"source":"yellow page","service_name":"Oshawa Driving School","category":"driving tutoring","phone":"905-728-0091","address":"200-342 King St W, Oshawa, ON L1J 2J9","postalcode":"L1J 2J9","website":" ","working_hour":"","latitude":"43.8947437","longitude":"-78.8760969"},{"source":"yellow page","service_name":"ECS","category":"driving tutoring","phone":"905-809-2786","address":"1010 Glen St, Oshawa, ON L1J 6J2","postalcode":"L1J 6J2","website":"http://www.ecswire.com","working_hour":"","latitude":"43.8708084","longitude":"-78.8547236"},{"source":"yellow page","service_name":"Ontario Truck Training Academy","category":"driving tutoring","phone":"905-723-1237","address":"","postalcode":"","website":"http://www.otta.ca","working_hour":"Monday 9:00 am - 5:00 pm   Tuesday 9:00 am - 5:00 pm   Wednesday 9:00 am - 5:00 pm   Thursday 9:00 am - 5:00 pm   Friday 9:00 am - 5:00 pm","latitude":"","longitude":""},{"source":"yellow page","service_name":"Donna's Driving Service","category":"driving tutoring","phone":"905-852-6746","address":"ON","postalcode":"","website":"http://www.donnasdrivingservice.ca","working_hour":"","latitude":"","longitude":""},{"source":"yellow page","service_name":"Drive Test","category":"driving tutoring","phone":"8885706110","address":"109A-91 Rylander Blvd, Scarborough, ON M1B 5M5","postalcode":"M1B 5M5","website":" ","working_hour":"","latitude":"43.797919","longitude":"-79.152666"},{"source":"yellow page","service_name":"Aamco Driving School","category":"driving tutoring","phone":"4162837929","address":"41-1141 Morningside Ave, Scarborough, ON M1B OA7","postalcode":"M1B OA7","website":" ","working_hour":"","latitude":"43.801055","longitude":"-79.199347"},{"source":"yellow page","service_name":"Aamco Driving School","category":"driving tutoring","phone":"4162865600","address":"41-1141 Morningside Ave, Scarborough, ON M1B 0A7","postalcode":"M1B 0A7","website":" ","working_hour":"","latitude":"43.801055","longitude":"-79.199347"},{"source":"yellow page","service_name":"Royal Drivers Training","category":"driving tutoring","phone":"4167849999","address":"451 Military Trail, Scarborough, ON M1E 4E8","postalcode":"M1E 4E8","website":"http://www.royaldrivers.com","working_hour":"","latitude":"43.789153","longitude":"-79.206878"},{"source":"yellow page","service_name":"Corporate Truck & Forklift Driving School","category":"driving tutoring","phone":"4167241103","address":"4379 Kingston Rd, Scarborough, ON M1E 2M9","postalcode":"M1E 2M9","website":" ","working_hour":"Monday 9:00 am - 12:00 pm   Tuesday 9:00 am - 12:00 pm   Wednesday 9:00 am - 12:00 pm   Thursday 9:00 am - 12:00 pm   Friday 9:00 am - 12:00 pm","latitude":"43.76487","longitude":"-79.190889"},{"source":"yellow page","service_name":"Peter's Academy Of Defensive Driving","category":"driving tutoring","phone":"416-282-0160","address":"8130 Sheppard Av E, Scarborough, ON M1L 4C3","postalcode":"M1L 4C3","website":"http://www.petersacademy.com","working_hour":"","latitude":"43.802322","longitude":"-79.198365"},{"source":"yellow page","service_name":"Safe Driving School","category":"driving tutoring","phone":"416-901-8700","address":"4597 Kingston Rd, Scarborough, ON M1E 2P3","postalcode":"M1E 2P3","website":" ","working_hour":"","latitude":"43.773918","longitude":"-79.183209"},{"source":"yellow page","service_name":"Friendly Truck Driving School","category":"driving tutoring","phone":"4162918904","address":"9-850 Tapscott Rd, Scarborough, ON M1X 1N4","postalcode":"M1X 1N4","website":"http://friendlydrive.com","working_hour":"Monday 5:00 am - 9:00 pm   Tuesday 5:00 am - 9:00 pm   Wednesday 5:00 am - 9:00 pm   Thursday 5:00 am - 9:00 pm   Friday 5:00 am - 9:00 pm   Saturday 5:00 am - 9:00 pm   Sunday 5:00 am - 9:00 pm","latitude":"43.8219408","longitude":"-79.241415"},{"source":"yellow page","service_name":"Arrow Star Driving School","category":"driving tutoring","phone":"4165642311","address":"18 Robbinstone Dr, Scarborough, ON M1B 2E6","postalcode":"M1B 2E6","website":" ","working_hour":"Monday 3:00 pm - 7:00 pm   Tuesday 3:00 pm - 7:00 pm   Wednesday 3:00 pm - 7:00 pm   Thursday 3:00 pm - 7:00 pm   Saturday 9:30 am - 12:00 pm","latitude":"43.79734","longitude":"-79.237219"},{"source":"yellow page","service_name":"All Pass Driving School","category":"driving tutoring","phone":"905-642-2211","address":"117 Ringwood Dr, Stouffville, ON L4A 8C1","postalcode":"L4A 8C1","website":" ","working_hour":"Appointment Only","latitude":"43.963275","longitude":"-79.272441"},{"source":"yellow page","service_name":"Chico's Driving School","category":"driving tutoring","phone":"905-294-8422","address":"Markham, ON L6E 2B9","postalcode":"L6E 2B9","website":"http://www.drivingschool.ca","working_hour":"","latitude":"43.907291","longitude":"-79.272538"},{"source":"yellow page","service_name":"AAA All Star Driving Scl","category":"driving tutoring","phone":"289-859-7527","address":"5990 16th Ave, Markham, ON L3P 7R2","postalcode":"L3P 7R2","website":"http://www.allstardriving.ca","working_hour":"Office Is Only Open During Class Times - Customer Can Call To Get Info And To Register   24 Hrs / 7 Days","latitude":"43.891477","longitude":"-79.265553"},{"source":"yellow page","service_name":"A Plus Driving Education","category":"driving tutoring","phone":"905-471-5585","address":"9889 Hwy 48, Markham, ON L6E 0B7","postalcode":"L6E 0B7","website":" ","working_hour":"","latitude":"43.906758","longitude":"-79.267541"},{"source":"yellow page","service_name":"Young Drivers","category":"driving tutoring","phone":"9056401229","address":"11-20 Freel Lane, Stouffville, ON L4A 8B9","postalcode":"L4A 8B9","website":"http://youngdrivers.com","working_hour":"","latitude":"43.971406","longitude":"-79.249116"},{"source":"yellow page","service_name":"Aapex Driving Academy","category":"driving tutoring","phone":"1-866-249-1755","address":"1249 Garrison Rd, Fort Erie, ON L2A 1P2","postalcode":"L2A 1P2","website":"http://www.aapexdriving.com","working_hour":"","latitude":"42.9047737","longitude":"-78.9623167"},{"source":"yellow page","service_name":"Ontario Driving School Of London","category":"driving tutoring","phone":"519-751-4111","address":"","postalcode":"","website":"http://www.otds.com","working_hour":"Monday 8:30 am - 5:30 pm   Tuesday 8:30 am - 5:30 pm   Wednesday 8:30 am - 5:30 pm   Thursday 8:30 am - 5:30 pm   Friday 8:30 am - 5:30 pm","latitude":"","longitude":""},{"source":"yellow page","service_name":"Fort Erie Driving School","category":"driving tutoring","phone":"2893208252","address":"1264 Garrison Rd, Fort Erie, ON L2A 1P1","postalcode":"L2A 1P1","website":" ","working_hour":"","latitude":"42.904781","longitude":"-78.9624"},{"source":"yellow page","service_name":"Young Drivers","category":"driving tutoring","phone":"9056806220","address":"366 Bunting Rd, St Catharines, ON L2M 3Y6","postalcode":"L2M 3Y6","website":" ","working_hour":"","latitude":"43.185302","longitude":"-79.210603"},{"source":"yellow page","service_name":"Drive Test","category":"driving tutoring","phone":"4163258580","address":"1-285 Bunting Road, St-Catharines, ON L2M 7T9","postalcode":"L2M 7T9","website":" ","working_hour":"","latitude":"43.178031","longitude":"-79.210272"},{"source":"yellow page","service_name":"Aapex Driving Academy","category":"driving tutoring","phone":"1-800-463-1436","address":"4699 Queen St, Niagara Falls, ON L2E 2L9","postalcode":"L2E 2L9","website":" ","working_hour":"Monday 9:00 am - 5:00 pm   Tuesday 9:00 am - 5:00 pm   Wednesday 9:00 am - 5:00 pm   Thursday 9:00 am - 5:00 pm   Friday 9:00 am - 5:00 pm","latitude":"43.106623","longitude":"-79.071324"},{"source":"yellow page","service_name":"Fort Erie Driving School","category":"driving tutoring","phone":"2892966419","address":"6-5846 Drummond Rd, Niagara Falls, ON L2G 4L5","postalcode":"L2G 4L5","website":" ","working_hour":"","latitude":"43.089928","longitude":"-79.097787"},{"source":"yellow page","service_name":"Young Drivers","category":"driving tutoring","phone":"905-680-6220","address":"204-4300 Drummond Rd, St Catharines, ON L2E 6C3","postalcode":"L2E 6C3","website":"http://www.yd.com","working_hour":"","latitude":"43.111055","longitude":"-79.0988"},{"source":"yellow page","service_name":"Aapex Driving Academy","category":"driving tutoring","phone":"905-788-2327","address":"21 Charlotte St, Port Colborne, ON L3K 3C7","postalcode":"L3K 3C7","website":"http://www.aapexdriving.com","working_hour":"","latitude":"42.885201","longitude":"-79.250721"},{"source":"yellow page","service_name":"Truck Training Academy","category":"driving tutoring","phone":"2897690734","address":"1-298 Grays Rd, Hamilton, ON L8E 1V5","postalcode":"L8E 1V5","website":" ","working_hour":"","latitude":"43.231327","longitude":"-79.740747"},{"source":"yellow page","service_name":"Transport Training Centres Of Canada","category":"driving tutoring","phone":"905-561-4575","address":"400 Grays Rd, Hamilton, ON L8E 3J6","postalcode":"L8E 3J6","website":" ","working_hour":"","latitude":"43.23541","longitude":"-79.738979"},{"source":"yellow page","service_name":"Truck Training Academy Of Stoney Creek","category":"driving tutoring","phone":"9055730882","address":"1-298 Grays Rd, Hamilton, ON L8E 1V5","postalcode":"L8E 1V5","website":"http://trucktrainingacademy.ca/","working_hour":"Monday 9:30 am - 5:00 pm   Tuesday 9:30 am - 5:00 pm   Wednesday 9:30 am - 6:30 pm   Thursday 9:30 am - 5:00 pm   Friday 9:30 am - 5:00 pm   In Vehicle Training MON - SUN 8am - 8pm","latitude":"43.231327","longitude":"-79.740747"},{"source":"yellow page","service_name":"Truck Drivers of Ontario Ltd","category":"driving tutoring","phone":"905-573-3188","address":"315 Highland Rd W, Stoney Creek, ON L8J 2S2","postalcode":"L8J 2S2","website":" ","working_hour":"","latitude":"43.186663","longitude":"-79.797186"},{"source":"yellow page","service_name":"Drive Test","category":"driving tutoring","phone":"9055610648","address":"370 Kenora Ave, Hamilton, ON L8E 2W2","postalcode":"L8E 2W2","website":"http://www.drivetest.ca","working_hour":"Monday 8:30 am - 5:00 pm   Tuesday 8:30 am - 5:00 pm   Wednesday 8:30 am - 5:00 pm   Thursday 8:30 am - 5:00 pm   Friday 8:30 am - 5:00 pm","latitude":"43.240967","longitude":"-79.764371"},{"source":"yellow page","service_name":"Ivor Trans-Truck Training Academy Of StoneyCreek","category":"driving tutoring","phone":"905-573-3635","address":"1-298 Grays Rd, Hamilton, ON L8E 1V5","postalcode":"L8E 1V5","website":"http://www.trucktrainingacademy.ca","working_hour":"Monday 9:30 am - 4:30 pm   Tuesday 9:30 am - 4:30 pm   Wednesday 9:30 am - 4:30 pm   Thursday 9:30 am - 4:30 pm   Friday 9:30 am - 4:30 pm","latitude":"43.231327","longitude":"-79.740747"},{"source":"yellow page","service_name":"A-1 Academy Of Driving","category":"driving tutoring","phone":"905-578-7776","address":"40 Centennial Pky N, Hamilton, ON L8E 1H6","postalcode":"L8E 1H6","website":"http://www.a1academyofdriving.ca","working_hour":"","latitude":"43.229325","longitude":"-79.763658"},{"source":"yellow page","service_name":"International Driving School","category":"driving tutoring","phone":"9055455009","address":"359 Queenston Rd, Hamilton, ON L8K 1H8","postalcode":"L8K 1H8","website":"http://www.international-driving.ca","working_hour":"","latitude":"43.233293","longitude":"-79.788348"},{"source":"yellow page","service_name":"Roadworthy Driving School","category":"driving tutoring","phone":"9056641500","address":"302 Grays Rd, Hamilton, ON L8E 1V5","postalcode":"L8E 1V5","website":"http://www.roadworthydriving.ca","working_hour":"Monday 9:00 am - 8:00 pm   Tuesday 9:00 am - 8:00 pm   Wednesday 9:00 am - 8:00 pm   Thursday 9:00 am - 8:00 pm   Friday 9:00 am - 8:00 pm   Saturday 9:00 am - 8:00 pm   Sunday 9:00 am - 5:00 pm","latitude":"43.231579","longitude":"-79.74064"},{"source":"yellow page","service_name":"Academy Of Driving Unipol","category":"driving tutoring","phone":"905-662-7769","address":"152 Gray Rd, Stoney Creek, ON L8G 3V2","postalcode":"L8G 3V2","website":" ","working_hour":"Monday 10:00 am - 7:00 pm   Tuesday 10:00 am - 7:00 pm   Wednesday 10:00 am - 7:00 pm   Thursday 10:00 am - 7:00 pm   Friday 10:00 am - 7:00 pm   Saturday 9:00 am - 6:00 pm","latitude":"43.222921","longitude":"-79.744303"},{"source":"yellow page","service_name":"Mountain Driving Centre","category":"driving tutoring","phone":"905-387-4676","address":"1-505 Kenora Ave, Hamilton, ON L8E 3P2","postalcode":"L8E 3P2","website":" ","working_hour":"Monday 9:00 am - 5:00 pm   Tuesday 9:00 am - 5:00 pm   Wednesday 9:00 am - 5:00 pm   Thursday 9:00 am - 5:00 pm   Friday 9:00 am - 5:00 pm","latitude":"43.245202","longitude":"-79.76252"},{"source":"yellow page","service_name":"Ontario Truck Driving School","category":"driving tutoring","phone":"289-975-4774","address":"1-505 Kenora Ave, Hamilton, ON L8E 3P2","postalcode":"L8E 3P2","website":" ","working_hour":"Monday 8:30 am - 5:30 pm   Tuesday 8:30 am - 5:30 pm   Wednesday 8:30 am - 5:30 pm   Thursday 8:30 am - 5:30 pm   Friday 8:30 am - 5:30 pm","latitude":"43.245202","longitude":"-79.76252"},{"source":"yellow page","service_name":"Starlite Drive In Theatre","category":"driving tutoring","phone":"905-662-4800","address":"59 Green Mountain E, Stoney Creek, ON L8J 2W3","postalcode":"L8J 2W3","website":"http://www.starlitehamilton.com","working_hour":"","latitude":"43.197674","longitude":"-79.759497"},{"source":"yellow page","service_name":"Modern Training Centre","category":"driving tutoring","phone":"905-573-9675","address":"308 Kenora Ave, Hamilton, ON L8E 2W2","postalcode":"L8E 2W2","website":"http://www.moderntraining.com","working_hour":"Monday 9:00 am - 5:00 pm   Tuesday 9:00 am - 5:00 pm   Wednesday 9:00 am - 5:00 pm   Thursday 9:00 am - 5:00 pm   Friday 9:00 am - 5:00 pm   Emergency Appointments Available   In Truck Training Available On Saturday And Sunday By Appointment Only","latitude":"43.2386424","longitude":"-79.7652822"},{"source":"yellow page","service_name":"Academy Of Defensive Driving","category":"driving tutoring","phone":"4162930786","address":"5200 Finch Ave E, Toronto, ON M1S 4Z4","postalcode":"M1S 4Z4","website":"http://academyofdefensivedriving.org","working_hour":"","latitude":"43.810033","longitude":"-79.257369"},{"source":"yellow page","service_name":"Alpine Truck Driver Training","category":"driving tutoring","phone":"4168691222","address":"595 Middlefield Rd, Scarborough, ON M1V 3S2","postalcode":"M1V 3S2","website":" ","working_hour":"Monday 8:30 am - 4:30 pm   Tuesday 8:30 am - 4:30 pm   Wednesday 8:30 am - 4:30 pm   Thursday 8:30 am - 4:30 pm   Friday 8:30 am - 4:30 pm   Saturday 10:00 am - 4:00 pm","latitude":"43.813323","longitude":"-79.259172"},{"source":"yellow page","service_name":"Peter's Driving Academy","category":"driving tutoring","phone":"905-294-1001","address":"5762 Hwy 7, Markham, ON M1L 4C3","postalcode":"M1L 4C3","website":"http://www.petersacademy.com","working_hour":"","latitude":"43.871598","longitude":"-79.266439"},{"source":"yellow page","service_name":"St Harvard College","category":"driving tutoring","phone":"416-298-3828","address":"3405 Kennedy Rd, Scarborough, ON M1V 4Y3","postalcode":"M1V 4Y3","website":"http://www.st-harvard-college.scarboroughdirect.ca","working_hour":"Monday 10:00 am - 9:00 pm   Tuesday 10:00 am - 9:00 pm   Wednesday 10:00 am - 9:00 pm   Thursday 10:00 am - 9:00 pm   Friday 10:00 am - 9:00 pm   Saturday 10:00 am - 9:00 pm   Sunday 12:00 pm - 5:00 pm","latitude":"43.81871","longitude":"-79.304841"},{"source":"yellow page","service_name":"TDOT Driving School","category":"driving tutoring","phone":"4163200202","address":"77-20 New Delhi Dr, Markham, ON L3S 0B5","postalcode":"L3S 0B5","website":" ","working_hour":"","latitude":"43.8483028","longitude":"-79.2520449"},{"source":"yellow page","service_name":"King Truck Driving School","category":"driving tutoring","phone":"416-850-0073","address":"3300 McNicoll Ave, Scarborough, ON M1V 5J6","postalcode":"M1V 5J6","website":" ","working_hour":"","latitude":"43.820499","longitude":"-79.260832"},{"source":"yellow page","service_name":"Canadian Academy Of Defensive Driving","category":"driving tutoring","phone":"416-642-8549","address":"208-5005 Steeles Ave E, Scarborough, ON M1V 5K1","postalcode":"M1V 5K1","website":"http://www.caddonline.ca/","working_hour":"Monday 11:00 am - 5:00 pm   Tuesday 11:00 am - 5:00 pm   Wednesday 11:00 am - 5:00 pm   Thursday 11:00 am - 5:00 pm   Friday 11:00 am - 5:00 pm   Saturday 11:00 am - 5:00 pm","latitude":"43.828115","longitude":"-79.287929"},{"source":"yellow page","service_name":"Young Drivers Of Canada","category":"driving tutoring","phone":"905-944-0478","address":"5362 Highway 7, Unionville, ON L3P 3J3","postalcode":"L3P 3J3","website":"http://yd.com","working_hour":"","latitude":"43.868619","longitude":"-79.279206"},{"source":"yellow page","service_name":"Perfect Drivers Of Canada","category":"driving tutoring","phone":"416-291-7555","address":"3331 Markham Rd, Toronto, ON M1X 1S8","postalcode":"M1X 1S8","website":" ","working_hour":"","latitude":"43.835201","longitude":"-79.250995"},{"source":"yellow page","service_name":"AMB Driving School","category":"driving tutoring","phone":"9052018444","address":"8525 McCowan Rd, Unionville, ON L3P 5E5","postalcode":"L3P 5E5","website":" ","working_hour":"Tuesday 3:00 pm - 7:30 pm   Thursday 2:00 pm - 7:00 pm   Saturday 10:00 am - 1:00 pm","latitude":"43.868213","longitude":"-79.284792"},{"source":"yellow page","service_name":"Dean's Defensive Driving School","category":"driving tutoring","phone":"416-716-1741","address":"1005-3601 Highway 7, Markham, ON L3R 0M3","postalcode":"L3R 0M3","website":"http://deansdrive.com/","working_hour":"","latitude":"43.8546949","longitude":"-79.3374615"},{"source":"yellow page","service_name":"Great Canadian Truck Driving School Forklift And Heavy Equipment","category":"driving tutoring","phone":"416-679-9977","address":"301-5200 Finch Ave E, Scarborough, ON M1S 4Z5","postalcode":"M1S 4Z5","website":" ","working_hour":"","latitude":"43.810033","longitude":"-79.257369"},{"source":"yellow page","service_name":"EZ Driving School","category":"driving tutoring","phone":"416-438-7371","address":"2671 Markham Rd, Scarborough, ON M1X 1M4","postalcode":"M1X 1M4","website":"http://find-a-driving-school.ca/ez-student-driving-school/","working_hour":"","latitude":"43.819212","longitude":"-79.245651"},{"source":"yellow page","service_name":"Learn To Drive - Call Today","category":"driving tutoring","phone":"416-451-0767","address":"47 Redhead Cres, Scarborough, ON M1V 3B3","postalcode":"M1V 3B3","website":" ","working_hour":"Monday 10:00 am - 7:00 pm   Tuesday 10:00 am - 7:00 pm   Wednesday 10:00 am - 7:00 pm   Thursday 10:00 am - 7:00 pm   Friday 10:00 am - 7:00 pm   Saturday 9:00 am - 6:00 pm","latitude":"43.81444","longitude":"-79.263702"},{"source":"yellow page","service_name":"Micmar Driving School","category":"driving tutoring","phone":"416-321-9097","address":"29 Coverdale Cres, Scarborough, ON M1V 2S6","postalcode":"M1V 2S6","website":" ","working_hour":"Monday 10:00 am - 7:00 pm   Tuesday 10:00 am - 7:00 pm   Wednesday 10:00 am - 7:00 pm   Thursday 10:00 am - 7:00 pm   Friday 10:00 am - 7:00 pm   Saturday 9:00 am - 6:00 pm","latitude":"43.818624","longitude":"-79.311571"},{"source":"yellow page","service_name":"Kingsway Driving School","category":"driving tutoring","phone":"416-298-0883","address":"318-4168 Finch Ave E, Scarborough, ON M1S 5H6","postalcode":"M1S 5H6","website":" ","working_hour":"","latitude":"43.803184","longitude":"-79.288657"},{"source":"yellow page","service_name":"Best Direction Driving School","category":"driving tutoring","phone":"647-345-1801","address":"4168 Finch Ave E, Scarborough, ON M1S 5H6","postalcode":"M1S 5H6","website":" ","working_hour":"","latitude":"43.803184","longitude":"-79.288657"},{"source":"yellow page","service_name":"Time Driving School","category":"driving tutoring","phone":"4164959421","address":"3030 Don Mills Rd, North York, ON M2J 3C1","postalcode":"M2J 3C1","website":"http://www.allwheelsdriver.ca","working_hour":"","latitude":"43.786246","longitude":"-79.351648"},{"source":"yellow page","service_name":"Basu Dave","category":"driving tutoring","phone":"4164907537","address":"45 Candlebrook Cres, Toronto, ON M1W 4B3","postalcode":"M1W 4B3","website":" ","working_hour":"","latitude":"43.803974","longitude":"-79.323797"},{"source":"yellow page","service_name":"Millennium Driving School","category":"driving tutoring","phone":"4164975548","address":"2942 Finch Ave E, Scarborough, ON M1W 2T4","postalcode":"M1W 2T4","website":" ","working_hour":"","latitude":"43.793402","longitude":"-79.3302037"},{"source":"yellow page","service_name":"David's Academy Of Defence","category":"driving tutoring","phone":"416-495-0000","address":"2942 Finch Ave E, Scarborough, ON M1W 2T4","postalcode":"M1W 2T4","website":"http://davidsacademy.ca","working_hour":"","latitude":"43.793402","longitude":"-79.3302037"},{"source":"yellow page","service_name":"Go Driving School","category":"driving tutoring","phone":"4169840644","address":"215-2760 Victoria Park Ave, North York, ON M2J 4A8","postalcode":"M2J 4A8","website":"http://www.godrivingschool.ca","working_hour":"Monday 12:00 am - 11:59 pm   Tuesday 12:00 am - 11:59 pm   Wednesday 12:00 am - 11:59 pm   Thursday 12:00 am - 11:59 pm   Friday 12:00 am - 11:59 pm   Saturday 12:00 am - 11:59 pm   Sunday 12:00 am - 11:59 pm","latitude":"43.7862514","longitude":"-79.3282054"},{"source":"yellow page","service_name":"A-Class Truck Driving School Ltd","category":"driving tutoring","phone":"4162200036","address":"7355 Bayview Ave, Thornhill, ON L3T 5Z2","postalcode":"L3T 5Z2","website":" ","working_hour":"Appointment only","latitude":"43.813319","longitude":"-79.399794"},{"source":"yellow page","service_name":"Kingsway Driving School","category":"driving tutoring","phone":"905-948-0883","address":"3636 Steeles Ave E, Markham, ON L3R 1K9","postalcode":"L3R 1K9","website":"http://www.kingswaydriving.co.uk/","working_hour":"Monday 10:00 am - 7:00 pm   Tuesday 10:00 am - 7:00 pm   Wednesday 10:00 am - 7:00 pm   Thursday 10:00 am - 7:00 pm   Friday 10:00 am - 7:00 pm   Saturday 9:00 am - 6:00 pm","latitude":"43.818235","longitude":"-79.330551"},{"source":"yellow page","service_name":"Driver Services","category":"driving tutoring","phone":"9054770380","address":"23-25 Valleywood Dr, Markham, ON L3R 5L9","postalcode":"L3R 5L9","website":" ","working_hour":"","latitude":"43.855741","longitude":"-79.362324"},{"source":"yellow page","service_name":"CAA Driver Training","category":"driving tutoring","phone":"416-223-8870","address":"60 Commerce Valley Dr E, Thornhill, ON L3T 7P9","postalcode":"L3T 7P9","website":"http://www.caasco.com/automotive/driver-training","working_hour":"","latitude":"43.839563","longitude":"-79.3803313"},{"source":"yellow page","service_name":"Juan All Wheels Driving","category":"driving tutoring","phone":"4164970204","address":"3030 Don Mills Rd, North York, ON M2J 3C1","postalcode":"M2J 3C1","website":"http://www.allwheelsdriver.com","working_hour":"Monday 1:30 pm - 5:30 pm   Tuesday 1:30 pm - 5:30 pm   Wednesday 1:30 pm - 5:30 pm   Thursday 1:30 pm - 5:30 pm   Friday 1:30 pm - 5:30 pm   Saturday 1:30 pm - 5:30 pm   Sunday 1:30 pm - 5:30 pm","latitude":"43.786246","longitude":"-79.351648"},{"source":"yellow page","service_name":"Your Choice of Defensive Driving","category":"driving tutoring","phone":"647-923-4700","address":"7825 Bayview Ave, Thornhill, ON L3T 7N2","postalcode":"L3T 7N2","website":"http://defensivedriving-school-online.com/","working_hour":"Monday 10:00 am - 7:00 pm   Tuesday 10:00 am - 7:00 pm   Wednesday 10:00 am - 7:00 pm   Thursday 10:00 am - 7:00 pm   Friday 10:00 am - 7:00 pm   Saturday 9:00 am - 6:00 pm","latitude":"43.8213604","longitude":"-79.4017649"},{"source":"yellow page","service_name":"Tomorrow's Drivers","category":"driving tutoring","phone":"289-807-0007","address":"203-3000 Hwy 7, Markham, ON L3R 6E1","postalcode":"L3R 6E1","website":" ","working_hour":"","latitude":"43.8491623","longitude":"-79.3618183"},{"source":"yellow page","service_name":"Bayview Driving School","category":"driving tutoring","phone":"416-250-1100","address":"2A-648 Finch Ave E, North York, ON M2K 2E6","postalcode":"M2K 2E6","website":" ","working_hour":"","latitude":"43.787522","longitude":"-79.380902"},{"source":"yellow page","service_name":"First Canadaian Driving Inc","category":"driving tutoring","phone":"4162259337","address":"6373 Yonge St, North York, ON M2M 3X9","postalcode":"M2M 3X9","website":" ","working_hour":"","latitude":"43.797438","longitude":"-79.419899"},{"source":"yellow page","service_name":"Alpha Driving School","category":"driving tutoring","phone":"6472921912","address":"23 Oneida Cres, Richmond Hill, ON L4B 0A2","postalcode":"L4B 0A2","website":"http://alphag2.com","working_hour":"Monday 9:00 am - 10:00 pm   Tuesday 9:00 am - 10:00 pm   Wednesday 9:00 am - 10:00 pm   Thursday 9:00 am - 10:00 pm   Friday 9:00 am - 10:00 pm   Saturday 9:00 am - 10:00 pm   Sunday 9:00 am - 10:00 pm","latitude":"43.842617","longitude":"-79.424735"},{"source":"yellow page","service_name":"Driving Remedies Inc","category":"driving tutoring","phone":"4168371678","address":"ON M2N 1P4","postalcode":"M2N 1P4","website":" ","working_hour":"","latitude":"43.760626","longitude":"-79.419484"},{"source":"yellow page","service_name":"Yonge Star Driving School","category":"driving tutoring","phone":"905-763-2202","address":"8131 Yonge St, Thornhill, ON L3T 2C6","postalcode":"L3T 2C6","website":" ","working_hour":"","latitude":"43.8255448","longitude":"-79.4266305"},{"source":"yellow page","service_name":"America Best","category":"driving tutoring","phone":"6478834570","address":"1704-145 Hillcrest Ave, North York, ON M2N 3N8","postalcode":"M2N 3N8","website":" ","working_hour":"","latitude":"43.769047","longitude":"-79.405301"},{"source":"yellow page","service_name":"ExExaminers' Blue Chip Driving School","category":"driving tutoring","phone":"416-752-5552","address":"648 Finch Ave E, North York, ON M2K 2E6","postalcode":"M2K 2E6","website":"http://www.bluechipdriving.com","working_hour":"Monday 9:00 am - 5:00 pm   Tuesday 9:00 am - 5:00 pm   Wednesday 9:00 am - 5:00 pm   Thursday 9:00 am - 5:00 pm   Friday 9:00 am - 5:00 pm   Appointment Only","latitude":"43.787522","longitude":"-79.380902"},