{"table":[{"source":"yellow page","service_name":"OTIP","category":"euphonium teacher","phone":"613-590-9595","address":"555 Pocono Cres, Orleans, ON K4A 3J6","postalcode":"K4A 3J6","website":" ","working_hour":"","latitude":"45.468462","longitude":"-75.484808"},{"source":"yellow page","service_name":"Ontario English Catholic Teachers Association Ottawa-Carleton Unit","category":"euphonium teacher","phone":"613-723-0959","address":"30 Concourse Gate, Nepean, ON K2E 7V7","postalcode":"K2E 7V7","website":"http://www.oectaottawa.ca","working_hour":"","latitude":"45.344702","longitude":"-75.708929"},{"source":"yellow page","service_name":"Canadian Association Of University Teachers","category":"euphonium teacher","phone":"613-820-2270","address":"2705 Queensview Dr, Ottawa, ON K2B 8K2","postalcode":"K2B 8K2","website":"#","working_hour":"","latitude":"45.35231","longitude":"-75.789214"},{"source":"yellow page","service_name":"Canadian Immigrant Teachers' Association","category":"euphonium teacher","phone":"613-799-3895","address":"128 Spartina St, Ottawa, ON K1T 0G5","postalcode":"K1T 0G5","website":" ","working_hour":"","latitude":"45.3158418","longitude":"-75.6067764"},{"source":"yellow page","service_name":"Canadian Association Of Second Language Teachers","category":"euphonium teacher","phone":"613-727-0994","address":"2490 Don Reid Dr, Ottawa, ON K1H 1E1","postalcode":"K1H 1E1","website":"http://www.caslt.org","working_hour":"","latitude":"45.377485","longitude":"-75.636941"},{"source":"yellow page","service_name":"Ottawa Carleton Elementary Teachers' Federation","category":"euphonium teacher","phone":"613-596-3932","address":"1150 Morrison Dr, Ottawa, ON K2H 8S9","postalcode":"K2H 8S9","website":"http://www.ocetf.org","working_hour":"","latitude":"45.344828","longitude":"-75.796967"},{"source":"yellow page","service_name":"United TESOL College Of Teacher Training Inc","category":"euphonium teacher","phone":"613-562-8370","address":"41 York St & University of Ottawa Campus, Ottawa, ON K1A 0A4","postalcode":"K1A 0A4","website":"#","working_hour":"","latitude":"45.4280544","longitude":"-75.6934877"},{"source":"yellow page","service_name":"Ontario Secondary School Teachers Federation","category":"euphonium teacher","phone":"613-258-2980","address":"201-215 Sanders St, Kemptville, ON K0G 1J0","postalcode":"K0G 1J0","website":"http://www.osstf.on.ca","working_hour":"","latitude":"45.0181004","longitude":"-75.6477213"},{"source":"yellow page","service_name":"Craig Visser - Guitarist & Teacher","category":"euphonium teacher","phone":"6133171636","address":"3400 Paul Anka Dr, Ottawa, ON K1V 0C9","postalcode":"K1V 0C9","website":"#","working_hour":"Monday 10:00 am - 9:00 pm   Tuesday 10:00 am - 9:00 pm   Wednesday 10:00 am - 9:00 pm   Thursday 10:00 am - 9:00 pm   Friday 10:00 am - 9:00 pm   Saturday 9:00 am - 12:00 pm   Sunday 9:00 am - 12:00 pm","latitude":"45.3480681","longitude":"-75.6754276"},{"source":"yellow page","service_name":"Ontario Secondary School Teachers Federation Dis trict 25","category":"euphonium teacher","phone":"6137297211","address":"9 Corvus Crt, Nepean, ON K2E 7Z4","postalcode":"K2E 7Z4","website":"http://osstf25.on.ca","working_hour":"","latitude":"45.327149","longitude":"-75.713117"},{"source":"yellow page","service_name":"Ottawa Carleton Elementary Occasional Teachers' Association","category":"euphonium teacher","phone":"613-221-9135","address":"1150 Morrison Dr, Ottawa, ON K2H 8S9","postalcode":"K2H 8S9","website":"http://www.oceota.com","working_hour":"","latitude":"45.344828","longitude":"-75.796967"},{"source":"yellow page","service_name":"Teacher of Consciousness","category":"euphonium teacher","phone":"613-865-8672","address":"ON","postalcode":"","website":" ","working_hour":"","latitude":"","longitude":""},{"source":"yellow page","service_name":"ETFO Upper Canada Teacher Local","category":"euphonium teacher","phone":"6133454893","address":"200-125 Stewart Blvd, Brockville, ON K6V 4W4","postalcode":"K6V 4W4","website":"http://www.etfo.ca","working_hour":"","latitude":"44.5979448","longitude":"-75.6967069"},{"source":"yellow page","service_name":"Teacher Project Software","category":"euphonium teacher","phone":"613-756-1014","address":"ON","postalcode":"","website":" ","working_hour":"","latitude":"","longitude":""},{"source":"yellow page","service_name":"OTIP","category":"euphonium teacher","phone":"613-837-8413","address":"125 Northfield Dr W, Waterloo, ON N2J 3Z9","postalcode":"N2J 3Z9","website":" ","working_hour":"","latitude":"43.498029","longitude":"-80.543475"},{"source":"yellow page","service_name":"Ontario Registered Music Teachers Assoc (OttawaBranch)","category":"euphonium teacher","phone":"613-226-6768","address":"","postalcode":"","website":" ","working_hour":"","latitude":"","longitude":""},{"source":"yellow page","service_name":"Canadian Teachers Federation","category":"euphonium teacher","phone":"613-688-4302","address":"ON","postalcode":"","website":" ","working_hour":"","latitude":"","longitude":""},{"source":"yellow page","service_name":"Ontario Registered Music Teachers Association","category":"euphonium teacher","phone":"6132266768","address":"Nepean, ON K2E 7J5","postalcode":"K2E 7J5","website":"http://www.ormtaottawa.ca","working_hour":"","latitude":"","longitude":""},{"source":"yellow page","service_name":"Ontario English Catholic Teachers Assoc","category":"euphonium teacher","phone":"705-742-7843","address":"176 McDonnel St, Peterborough, ON K9H 2V9","postalcode":"K9H 2V9","website":"http://pvncoecta.ca","working_hour":"","latitude":"44.3096124","longitude":"-78.3212261"},{"source":"yellow page","service_name":"Kawartha Pineridge Ontario Teachers Federation","category":"euphonium teacher","phone":"705-743-8573","address":"2155 Davis Rd, Peterborough, ON K9J 6X4","postalcode":"K9J 6X4","website":"http://www.kpretfo.ca","working_hour":"","latitude":"44.2591142","longitude":"-78.4072844"},{"source":"yellow page","service_name":"Occassional Elementary Teachers' Federation of Ontario Kawartha Pine Ridge Local","category":"euphonium teacher","phone":"7057437364","address":"2155 Davis, Peterborough, ON","postalcode":"","website":"http://www.kproccasionals.com","working_hour":"","latitude":"43.651893","longitude":"-79.381713"},{"source":"yellow page","service_name":"Ontario Secondary School Teachers' Federation","category":"euphonium teacher","phone":"905-668-7100","address":"601 Palace St, Whitby, ON L1N 6S5","postalcode":"L1N 6S5","website":"http://district13.on.ca","working_hour":"","latitude":"43.885851","longitude":"-78.951369"},{"source":"yellow page","service_name":"ETFO Durham Occasional Teachers' Local","category":"euphonium teacher","phone":"905-404-0411","address":"1077 Boundary Rd, Oshawa, ON L1J 8P8","postalcode":"L1J 8P8","website":"http://www.etfodotl.com","working_hour":"Monday 9:00 am - 5:00 pm   Tuesday 9:00 am - 5:00 pm   Wednesday 9:00 am - 5:00 pm   Thursday 9:00 am - 5:00 pm   Friday 9:00 am - 5:00 pm","latitude":"43.860924","longitude":"-78.88535"},{"source":"yellow page","service_name":"Elementary Teachers Federation Ontario Federation Durham","category":"euphonium teacher","phone":"9056661122","address":"603 Palace St, Whitby, ON L1N 6S5","postalcode":"L1N 6S5","website":"http://www.etfo.ca","working_hour":"","latitude":"43.885257","longitude":"-78.9511029"},{"source":"yellow page","service_name":"Jessy Morrison-Reiki Master/Teacher","category":"euphonium teacher","phone":"705-812-3328","address":"402 Hickling Trail, Barrie, ON L4M 6B2","postalcode":"L4M 6B2","website":" ","working_hour":"","latitude":"44.403994","longitude":"-79.6509528"},{"source":"yellow page","service_name":"Ontario Public School Teachers' Federation","category":"euphonium teacher","phone":"7057285765","address":"226 Little Ave, Barrie, ON L4N 6L3","postalcode":"L4N 6L3","website":" ","working_hour":"","latitude":"44.3645458","longitude":"-79.6722744"},{"source":"yellow page","service_name":"OSSTF","category":"euphonium teacher","phone":"705-726-1722","address":"51 King St, Barrie, ON L4N 6B5","postalcode":"L4N 6B5","website":" ","working_hour":"","latitude":"44.3283545","longitude":"-79.7031966"},{"source":"yellow page","service_name":"Ontario Secondary School Teachers Federation","category":"euphonium teacher","phone":"905-836-5954","address":"110 Pony Dr, Newmarket, ON L3Y 7B6","postalcode":"L3Y 7B6","website":"http://d16.osstf.ca","working_hour":"","latitude":"44.0695706","longitude":"-79.4270005"},{"source":"yellow page","service_name":"Lorenz R Piano Teacher","category":"euphonium teacher","phone":"905-727-9659","address":"39 Dunham Cres, Aurora, ON L4G 2V3","postalcode":"L4G 2V3","website":" ","working_hour":"","latitude":"44.000897","longitude":"-79.473293"},{"source":"yellow page","service_name":"Ontario English Catholic Teachers Association","category":"euphonium teacher","phone":"705-733-9625","address":"12-61 King St, Barrie, ON L4N 6B5","postalcode":"L4N 6B5","website":" ","working_hour":"","latitude":"44.3280935","longitude":"-79.7043698"},{"source":"yellow page","service_name":"Segal Piano Teacher","category":"euphonium teacher","phone":"9057278126","address":"59 October Lane, Aurora, ON L4G 6Z9","postalcode":"L4G 6Z9","website":" ","working_hour":"","latitude":"43.996996","longitude":"-79.444428"},{"source":"yellow page","service_name":"Elementary Teachers Federation Of Ontario-York Region","category":"euphonium teacher","phone":"905-727-7014","address":"126 Wellington St W, Aurora, ON L4G 2N9","postalcode":"L4G 2N9","website":"http://etfo.ca","working_hour":"","latitude":"43.998056","longitude":"-79.474905"},{"source":"yellow page","service_name":"Elementay Teachers Federation Of Ontario York Region Ot","category":"euphonium teacher","phone":"905-726-7925","address":"126 Wellington St W, Aurora, ON L4G 2N9","postalcode":"L4G 2N9","website":"http://etfo.ca","working_hour":"","latitude":"43.998056","longitude":"-79.474905"},{"source":"yellow page","service_name":"Montessori Teachers College","category":"euphonium teacher","phone":"4166401565","address":"12 Bannockburn Ave, North York, ON M5M 2M8","postalcode":"M5M 2M8","website":"#","working_hour":"Monday 9:00 am - 6:00 pm   Tuesday 9:00 am - 6:00 pm   Wednesday 9:00 am - 6:00 pm   Thursday 9:00 am - 6:00 pm   Friday 9:00 am - 6:00 pm","latitude":"43.733643","longitude":"-79.421928"},{"source":"yellow page","service_name":"Moyer's For Parents & Teachers'","category":"euphonium teacher","phone":"416-296-1503","address":"Scarborough Town Centre, Toronto, ON M3H 2W0","postalcode":"M3H 2W0","website":" ","working_hour":"","latitude":"43.753643","longitude":"-79.44687"},{"source":"yellow page","service_name":"Metro Catholic Teachers Long Term Disability Plan Office","category":"euphonium teacher","phone":"4163986583","address":"951 Wilson Ave, North York, ON M3K 2A7","postalcode":"M3K 2A7","website":"http://www.tsuoecta.org","working_hour":"","latitude":"43.728661","longitude":"-79.475597"},{"source":"yellow page","service_name":"Ontario English Catholic Teachers Association","category":"euphonium teacher","phone":"4166335502","address":"951 Wilson Ave, North York, ON M3K 2A7","postalcode":"M3K 2A7","website":"http://www.tect.org","working_hour":"Monday 12:00 am - 11:59 pm   Tuesday 12:00 am - 11:59 pm   Wednesday 12:00 am - 11:59 pm   Thursday 12:00 am - 11:59 pm   Friday 12:00 am - 11:59 pm   Saturday 12:00 am - 11:59 pm   Sunday 12:00 am - 11:59 pm","latitude":"43.728661","longitude":"-79.475597"},{"source":"yellow page","service_name":"Elementary Teachers Of Toronto","category":"euphonium teacher","phone":"4163939930","address":"4211 Yonge St, North York, ON M2P 2A9","postalcode":"M2P 2A9","website":"#","working_hour":"Monday 8:00 am - 4:00 pm   Tuesday 8:00 am - 4:00 pm   Wednesday 8:00 am - 4:00 pm   Thursday 8:00 am - 4:00 pm   Friday 8:00 am - 4:00 pm   Saturday 8:00 am - 4:00 pm   Sunday 8:00 am - 4:00 pm","latitude":"43.7495518","longitude":"-79.4079152"},{"source":"yellow page","service_name":"E T F O Toronto Occassional Teachers","category":"euphonium teacher","phone":"416-227-1866","address":"17 Fairmeadow Ave, North York, ON M2P 1W6","postalcode":"M2P 1W6","website":"http://www.etfo.ca","working_hour":"Monday 7:30 am - 4:00 pm   Tuesday 7:30 am - 4:00 pm   Wednesday 7:30 am - 4:00 pm   Thursday 7:30 am - 4:00 pm   Friday 7:30 am - 4:00 pm","latitude":"43.754616","longitude":"-79.397784"},{"source":"yellow page","service_name":"Teachers@Home","category":"euphonium teacher","phone":"905-482-0157","address":"7825 Bayview Ave, Thornhill, ON L3T 7N2","postalcode":"L3T 7N2","website":" ","working_hour":"","latitude":"43.8213604","longitude":"-79.4017649"},{"source":"yellow page","service_name":"Ontario English Catholic Teachers' Assn","category":"euphonium teacher","phone":"4169252493","address":"100-65 St Clair Ave E, Toronto, ON M4T 2Y3","postalcode":"M4T 2Y3","website":"http://www.oectawaterloo.on.ca","working_hour":"","latitude":"43.688679","longitude":"-79.391443"},{"source":"yellow page","service_name":"Toronto Teachers' Federation","category":"euphonium teacher","phone":"416-656-7015","address":"65 Braemore Gdns, Toronto, ON M6G 2C7","postalcode":"M6G 2C7","website":"#","working_hour":"","latitude":"43.677121","longitude":"-79.42246"},{"source":"yellow page","service_name":"Canadian Music Teachers Network","category":"euphonium teacher","phone":"416-410-4397","address":"47 Parfield Dr, North York, ON M2J 1C2","postalcode":"M2J 1C2","website":"http://www.privatemusiclessons.ca","working_hour":"","latitude":"43.772313","longitude":"-79.348545"},{"source":"yellow page","service_name":"Ontario Teachers' Pension Plan","category":"euphonium teacher","phone":"416-226-2700","address":"5650 Yonge St, Toronto, ON","postalcode":"","website":"#","working_hour":"","latitude":"43.780213","longitude":"-79.415748"},{"source":"yellow page","service_name":"Teachers Resource Centre","category":"euphonium teacher","phone":"647-352-7900","address":"212-3130 Bathurst St, North York, ON M6A 2A1","postalcode":"M6A 2A1","website":" ","working_hour":"","latitude":"43.720706","longitude":"-79.430176"},{"source":"yellow page","service_name":"Ontario English Catholic Teachers Assoc","category":"euphonium teacher","phone":"7053229625","address":"20 Yonge S, Elmvale, ON L0L 1P0","postalcode":"L0L 1P0","website":"http://www.oectasimcoemuskoka.on.ca","working_hour":"","latitude":"44.61576","longitude":"-79.847977"},{"source":"yellow page","service_name":"O S S T F","category":"euphonium teacher","phone":"416-745-2278","address":"3395 Weston Rd, North York, ON M9M 2V9","postalcode":"M9M 2V9","website":" ","working_hour":"","latitude":"43.748516","longitude":"-79.541652"},{"source":"yellow page","service_name":"Omgyan Personnal Yoga Teacher","category":"euphonium teacher","phone":"6472955312","address":"5 Lightwood Dr, Etobicoke, ON M9V 2Z1","postalcode":"M9V 2Z1","website":"http://www.omgyan.com","working_hour":"","latitude":"43.737299","longitude":"-79.57258"},{"source":"yellow page","service_name":"Bible Teachers International Canada","category":"euphonium teacher","phone":"4169400200","address":"4559 Sheppard Ave E, Scarborough, ON M1S 1V3","postalcode":"M1S 1V3","website":"http://www.bibleteachers.com/","working_hour":"","latitude":"43.78862","longitude":"-79.263645"},{"source":"yellow page","service_name":"Soheil Dehbasti Violin,Guitar teacher ____ ______ ____ ____ _____ ________","category":"euphonium teacher","phone":"416-819-2817","address":"29 Ormerod Lane, Richmond Hill, ON L4S 0G3","postalcode":"L4S 0G3","website":" ","working_hour":"","latitude":"43.89491","longitude":"-79.41246"},{"source":"yellow page","service_name":"Ontario Registered Music Teachers Assoc","category":"euphonium teacher","phone":"705-726-3236","address":"ON","postalcode":"","website":"http://www.barrieormta.com","working_hour":"","latitude":"","longitude":""},{"source":"yellow page","service_name":"Elson-Brown Carol Singing Registered Teacher","category":"euphonium teacher","phone":"705-737-3515","address":"","postalcode":"","website":"http://www.barrievocals.com","working_hour":"","latitude":"","longitude":""},{"source":"yellow page","service_name":"Halton Secondary Teachers (Dist 20)","category":"euphonium teacher","phone":"905-332-1228","address":"980 Fraser Dr, Burlington, ON L7L 5P5","postalcode":"L7L 5P5","website":"http://www.osstfd20.ca/","working_hour":"Monday 8:30 am - 4:30 pm   Tuesday 8:30 am - 4:30 pm   Wednesday 8:30 am - 4:30 pm   Thursday 8:30 am - 4:30 pm   Friday 8:30 am - 4:30 pm","latitude":"43.366991","longitude":"-79.783769"},{"source":"yellow page","service_name":"Internet Spanish Teacher","category":"euphonium teacher","phone":"289-337-9997","address":"ON","postalcode":"","website":" ","working_hour":"Monday 9:00 am - 5:00 pm   Tuesday 9:00 am - 5:00 pm   Wednesday 9:00 am - 5:00 pm   Thursday 9:00 am - 5:00 pm   Friday 9:00 am - 5:00 pm","latitude":"","longitude":""},{"source":"yellow page","service_name":"Halton Elementary Occasional Teachers","category":"euphonium teacher","phone":"905-332-6840","address":"3390 South Service Rd, Burlington, ON L7N 3J5","postalcode":"L7N 3J5","website":"http://www.haltonot.ca","working_hour":"","latitude":"43.362242","longitude":"-79.791928"},{"source":"yellow page","service_name":"Teacher's Petz","category":"euphonium teacher","phone":"905-324-1769","address":"ON","postalcode":"","website":" ","working_hour":"","latitude":"","longitude":""},{"source":"yellow page","service_name":"Ontario English Catholic Teachers Association","category":"euphonium teacher","phone":"905-735-7015","address":"610 Broadway, Welland, ON L3C 5M7","postalcode":"L3C 5M7","website":"http://www.niagaraelementaryoecta.com","working_hour":"","latitude":"42.9745486","longitude":"-79.2692319"},{"source":"yellow page","service_name":"Catholic Teachers Assn","category":"euphonium teacher","phone":"905-732-9530","address":"505 Lincoln St, Welland, ON L3B 4N9","postalcode":"L3B 4N9","website":"http://www.oecta.on.ca/","working_hour":"","latitude":"42.984123","longitude":"-79.2349997"},{"source":"yellow page","service_name":"Elementary Public Teachers Niagara","category":"euphonium teacher","phone":"905-892-2917","address":"2601 Regional 20 Rd, Fenwick, ON L0S 1E0","postalcode":"L0S 1E0","website":" ","working_hour":"","latitude":"43.043298","longitude":"-79.28561"},{"source":"yellow page","service_name":"Ontario Secondary School Teachers' Federation","category":"euphonium teacher","phone":"905-892-6524","address":"1877 Merrittville Hwy RR 1, Fonthill, ON L0S 1E6","postalcode":"L0S 1E6","website":"http://www.d22.osstf.ca","working_hour":"Monday 8:30 am - 4:30 pm   Tuesday 8:30 am - 4:30 pm   Wednesday 8:30 am - 4:30 pm   Thursday 8:30 am - 4:30 pm   Friday 8:30 am - 4:30 pm","latitude":"43.0623988","longitude":"-79.2504783"},{"source":"yellow page","service_name":"Mortgage Teacher Ltd","category":"euphonium teacher","phone":"289-755-1135","address":"660 Fennell Ave E, Hamilton, ON L8V 1V1","postalcode":"L8V 1V1","website":"http://www.sarahpauls.com","working_hour":"Monday 9:00 am - 5:00 pm   Tuesday 9:00 am - 5:00 pm   Wednesday 9:00 am - 5:00 pm   Thursday 9:00 am - 5:00 pm   Friday 9:00 am - 5:00 pm","latitude":"43.230759","longitude":"-79.850718"},{"source":"yellow page","service_name":"Hamilton Wentworth Occasional Teachers","category":"euphonium teacher","phone":"905-547-7221","address":"152 Hester St, Hamilton, ON L9A 2N8","postalcode":"L9A 2N8","website":" ","working_hour":"Monday 9:00 am - 4:30 pm   Tuesday 9:00 am - 4:30 pm   Wednesday 9:00 am - 4:30 pm   Thursday 9:00 am - 4:30 pm   Friday 9:00 am - 4:30 pm","latitude":"43.222939","longitude":"-79.874482"},{"source":"yellow page","service_name":"Ontario Christian School Teachers' Association","category":"euphonium teacher","phone":"905-648-1200","address":"777 Garner Rd E, Ancaster, ON L9K 1J4","postalcode":"L9K 1J4","website":"http://www.ocsta.org","working_hour":"","latitude":"43.207231","longitude":"-79.948816"},{"source":"yellow page","service_name":"Hamilton Wentworth Elementary Teachers Local","category":"euphonium teacher","phone":"905-318-2771","address":"105 Nebo Rd, Hamilton, ON L8W 2E1","postalcode":"L8W 2E1","website":" ","working_hour":"","latitude":"43.195247","longitude":"-79.836027"},{"source":"yellow page","service_name":"Ontario Secondary School Teachers' Federation Ha milton Wentworth District 21","category":"euphonium teacher","phone":"905-574-8285","address":"1423 Upper Ottawa, Hamilton, ON L8W 3J6","postalcode":"L8W 3J6","website":"http://www.osstf21.posterous.com","working_hour":"","latitude":"43.197321","longitude":"-79.8413049"},{"source":"yellow page","service_name":"The Teacher Tutor","category":"euphonium teacher","phone":"905-515-8460","address":"18 Ogilvie St, Dundas, ON L9H 2S2","postalcode":"L9H 2S2","website":" ","working_hour":"","latitude":"43.26537","longitude":"-79.954666"},{"source":"yellow page","service_name":"Canadian Reformed Teachers College","category":"euphonium teacher","phone":"905-385-0634","address":"410 Crerar Dr, Hamilton, ON L9A 5K3","postalcode":"L9A 5K3","website":"http://www.covenantteacherscollege.com","working_hour":"Monday 9:00 am - 6:00 pm   Tuesday 9:00 am - 6:00 pm   Wednesday 9:00 am - 6:00 pm   Thursday 9:00 am - 6:00 pm   Friday 9:00 am - 6:00 pm","latitude":"43.208615","longitude":"-79.872037"},{"source":"yellow page","service_name":"Peel Elementary Occasional Teacher's Local","category":"euphonium teacher","phone":"905-568-9937","address":"5805 Whittle Rd, Mississauga, ON L4Z 2J1","postalcode":"L4Z 2J1","website":"http://www.peot.ca/","working_hour":"Monday 9:00 am - 12:00 pm   Tuesday 9:00 am - 12:00 pm   Wednesday 9:00 am - 12:00 pm   Thursday 9:00 am - 12:00 pm   Friday 9:00 am - 12:00 pm","latitude":"43.6247532","longitude":"-79.6723054"},{"source":"yellow page","service_name":"Dufferin Peel Occasional Teachers Local","category":"euphonium teacher","phone":"905-206-9200","address":"5720 Timberlea Blvd, Mississauga, ON L4W 4W2","postalcode":"L4W 4W2","website":"http://dpeel-ot.org","working_hour":"","latitude":"43.638522","longitude":"-79.650169"},{"source":"yellow page","service_name":"Teachers Life","category":"euphonium teacher","phone":"416-620-1140","address":"916 The East Mall, Etobicoke, ON M9B 6K1","postalcode":"M9B 6K1","website":"http://www.teacherslife.com","working_hour":"","latitude":"43.6691796","longitude":"-79.5727744"},{"source":"yellow page","service_name":"Linda The Piano Teacher","category":"euphonium teacher","phone":"905-599-9779","address":"ON","postalcode":"","website":" ","working_hour":"","latitude":"","longitude":""},{"source":"yellow page","service_name":"Certified Piano Teacher","category":"euphonium teacher","phone":"4162750959","address":"Oakville, ON","postalcode":"","website":" ","working_hour":"","latitude":"","longitude":""},{"source":"yellow page","service_name":"Timesavers for Teachers","category":"euphonium teacher","phone":"905-874-0902","address":"ON","postalcode":"","website":" ","working_hour":"","latitude":"","longitude":""},{"source":"yellow page","service_name":"Ontario Secondary School Teachers' Federation District 18","category":"euphonium teacher","phone":"519-843-3284","address":"265 Bridge St, Fergus, ON N1M 1T7","postalcode":"N1M 1T7","website":"http://www.d18.osstf.ca","working_hour":"","latitude":"43.7032069","longitude":"-80.3761769"},{"source":"yellow page","service_name":"Upper Grand Elementary Teachers' Federation Of Ontario","category":"euphonium teacher","phone":"519-837-0090","address":"5420 Highway 6, Guelph, ON N1H 6J2","postalcode":"N1H 6J2","website":" ","working_hour":"","latitude":"43.634513","longitude":"-80.289567"},{"source":"yellow page","service_name":"The Travelin' Piano Teacher","category":"euphonium teacher","phone":"9055497299","address":"ON","postalcode":"","website":" ","working_hour":"","latitude":"43.651893","longitude":"-79.381713"},{"source":"yellow page","service_name":"Ken Adam Tutor Teacher","category":"euphonium teacher","phone":"905-875-8196","address":"1014 Barclay Cir, Milton, ON L9T 5W5","postalcode":"L9T 5W5","website":"http://www.kenadamtutorteacher.com/","working_hour":"Tuesday 9:00 am - 9:00 pm","latitude":"43.515449","longitude":"-79.84839"},{"source":"yellow page","service_name":"Ancaster Piano Teacher","category":"euphonium teacher","phone":"905-741-3083","address":"ON","postalcode":"","website":" ","working_hour":"","latitude":"","longitude":""},{"source":"yellow page","service_name":"OSSTF","category":"euphonium teacher","phone":"416-751-3111","address":"60 Mobile Dr, North York, ON M4A 2P2","postalcode":"M4A 2P2","website":" ","working_hour":"","latitude":"43.724324","longitude":"-79.31932"},{"source":"yellow page","service_name":"District 30 Provincial Schools Authority Teachers","category":"euphonium teacher","phone":"416-757-6667","address":"35 Mobile Dr, North York, ON M4A 2P6","postalcode":"M4A 2P6","website":" ","working_hour":"","latitude":"43.724742","longitude":"-79.317374"},{"source":"yellow page","service_name":"The Ontario Secondary School Teachers' Federation","category":"euphonium teacher","phone":"647-362-2267","address":"60 Mobile Dr, North York, ON M4A 2P2","postalcode":"M4A 2P2","website":"http://www.osstf.on.ca","working_hour":"","latitude":"43.724324","longitude":"-79.31932"},{"source":"yellow page","service_name":"Ontario Teachers Group Investment Fund","category":"euphonium teacher","phone":"4167529410","address":"57 Mobile Dr, North York, ON M4A 1H5","postalcode":"M4A 1H5","website":" ","working_hour":"","latitude":"43.724357","longitude":"-79.319165"},{"source":"yellow page","service_name":"Progessional Teacher Educators Program","category":"euphonium teacher","phone":"647-727-4045","address":"789 Don Mills Rd, North York, ON M3C 1T5","postalcode":"M3C 1T5","website":" ","working_hour":"","latitude":"43.7177405","longitude":"-79.3377364"},{"source":"yellow page","service_name":"Rea Kelly Paint Parties and Art Teacher","category":"euphonium teacher","phone":"416-720-4367","address":"169 Floyd Ave, East York,, ON M4J 2H9","postalcode":"M4J 2H9","website":"http://www.reakelly.com","working_hour":"Monday 9:00 am - 5:00 pm   Tuesday 9:00 am - 5:00 pm   Wednesday 9:00 am - 5:00 pm   Thursday 9:00 am - 5:00 pm   Friday 9:00 am - 5:00 pm   Saturday 9:00 am - 5:00 pm   Sunday 9:00 am - 5:00 pm   Appointment Only","latitude":"43.687754","longitude":"-79.347113"},{"source":"yellow page","service_name":"Elementary Teachers Federation","category":"euphonium teacher","phone":"4166422077","address":"136 Isabella St, Toronto, ON M4Y 1P6","postalcode":"M4Y 1P6","website":"http://www.etfo.ca/","working_hour":"","latitude":"43.669127","longitude":"-79.377932"},{"source":"yellow page","service_name":"Ontario Teachers Federation","category":"euphonium teacher","phone":"4169260295","address":"136 Isabella St, Toronto, ON M4Y 1P6","postalcode":"M4Y 1P6","website":" ","working_hour":"","latitude":"43.669127","longitude":"-79.377932"},{"source":"yellow page","service_name":"Elementary Teachers Of Federation Of Ont","category":"euphonium teacher","phone":"4169250228","address":"136 Isabella St, Toronto, ON M4Y 1P6","postalcode":"M4Y 1P6","website":"http://www.etfo.ca","working_hour":"Monday 8:30 am - 5:00 pm   Tuesday 8:30 am - 5:00 pm   Wednesday 8:30 am - 5:00 pm   Thursday 8:30 am - 5:00 pm   Friday 8:30 am - 5:00 pm","latitude":"43.669127","longitude":"-79.377932"},{"source":"yellow page","service_name":"Elementary Teachers Federation Of Ont","category":"euphonium teacher","phone":"4169623836","address":"136 Isabella St, Toronto, ON M4Y 1P6","postalcode":"M4Y 1P6","website":"http://etfo-torots.org","working_hour":"Monday 8:30 am - 5:00 pm   Tuesday 8:30 am - 5:00 pm   Wednesday 8:30 am - 5:00 pm   Thursday 8:30 am - 5:00 pm   Friday 8:30 am - 5:00 pm","latitude":"43.669127","longitude":"-79.377932"},{"source":"yellow page","service_name":"Elementary Teachers","category":"euphonium teacher","phone":"416-642-2072","address":"136 Isabella, ON M4Y 1P6","postalcode":"M4Y 1P6","website":" ","working_hour":"","latitude":"43.669127","longitude":"-79.377932"},{"source":"yellow page","service_name":"Ontario Teachers Federation","category":"euphonium teacher","phone":"4169663424","address":"1300 Yonge St, Toronto, ON M4T 1X3","postalcode":"M4T 1X3","website":"http://www.otffeo.on.ca","working_hour":"","latitude":"43.684212","longitude":"-79.39252"},{"source":"yellow page","service_name":"Elementary Teachers Fed","category":"euphonium teacher","phone":"416-642-2418","address":"136 Isabella St, Toronto, ON M4Y 1P6","postalcode":"M4Y 1P6","website":" ","working_hour":"","latitude":"43.669127","longitude":"-79.377932"},{"source":"yellow page","service_name":"Ontario Teacher's Federation","category":"euphonium teacher","phone":"4169660784","address":"1300 Yonge St, Toronto, ON M4T 1X3","postalcode":"M4T 1X3","website":"http://www.otffeo.on.ca","working_hour":"","latitude":"43.684212","longitude":"-79.39252"},{"source":"yellow page","service_name":"Toronto Piano Teachers - Piano Teachers Connect","category":"euphonium teacher","phone":"416-735-5543","address":"208 Carlton St, Toronto, ON M5A 2L1","postalcode":"M5A 2L1","website":"#","working_hour":"Monday 9:00 am - 10:00 pm   Tuesday 9:00 am - 10:00 pm   Wednesday 9:00 am - 10:00 pm   Thursday 9:00 am - 10:00 pm   Friday 9:00 am - 10:00 pm   Saturday 9:00 am - 10:00 pm   Sunday 9:00 am - 10:00 pm   Appointment Only","latitude":"43.663797","longitude":"-79.370072"},{"source":"yellow page","service_name":"Retired Teachers Of Ontario","category":"euphonium teacher","phone":"416-924-4313","address":"18 Spadina Rd, Toronto, ON M5R 2S7","postalcode":"M5R 2S7","website":" ","working_hour":"","latitude":"43.66845","longitude":"-79.404577"},{"source":"yellow page","service_name":"The Retired Teachers of Ontario","category":"euphonium teacher","phone":"416-962-9463","address":"18 Spadina Rd, Toronto, ON M5R 2S7","postalcode":"M5R 2S7","website":"#","working_hour":"Monday 8:30 am - 4:30 pm   Tuesday 8:30 am - 4:30 pm   Wednesday 8:30 am - 4:30 pm   Thursday 8:30 am - 4:30 pm   Friday 8:30 am - 4:30 pm","latitude":"43.66845","longitude":"-79.404577"},{"source":"yellow page","service_name":"Gren Teacher","category":"euphonium teacher","phone":"4169253474","address":"28 Lennox St, Toronto, ON M6G 1J4","postalcode":"M6G 1J4","website":"#","working_hour":"","latitude":"43.663743","longitude":"-79.411144"},{"source":"yellow page","service_name":"Ontario College of Teachers","category":"euphonium teacher","phone":"416-961-8800","address":"101 Bloor St W, Toronto, ON M5S 2Z7","postalcode":"M5S 2Z7","website":"#","working_hour":"Monday 8:30 am - 5:00 pm   Tuesday 8:30 am - 5:00 pm   Wednesday 8:30 am - 5:00 pm   Thursday 8:30 am - 5:00 pm   Friday 8:30 am - 5:00 pm","latitude":"43.669226","longitude":"-79.391143"},{"source":"yellow page","service_name":"Encaustic Painter-Sculptress -Teacher","category":"euphonium teacher","phone":"2264402402","address":"ON","postalcode":"","website":" ","working_hour":"","latitude":"43.651893","longitude":"-79.381713"},{"source":"yellow page","service_name":"US GTF - Golf Teachers Federation","category":"euphonium teacher","phone":"4165258205","address":"ON","postalcode":"","website":" ","working_hour":"","latitude":"43.651893","longitude":"-79.381713"},{"source":"yellow page","service_name":"Green Teacher","category":"euphonium teacher","phone":"4169601244","address":"401 Richmond St W, Toronto, ON M5V 3A8","postalcode":"M5V 3A8","website":"http://www.greenteacher.com","working_hour":"","latitude":"43.648052","longitude":"-79.394859"},{"source":"yellow page","service_name":"Green Teacher","category":"euphonium teacher","phone":"647-258-1037","address":"95 Robert St, Toronto, ON M5S 2K5","postalcode":"M5S 2K5","website":"#","working_hour":"Monday 10:00 am - 4:00 pm   Tuesday 10:00 am - 4:00 pm   Wednesday 10:00 am - 4:00 pm   Thursday 10:00 am - 4:00 pm   Friday 10:00 am - 4:00 pm","latitude":"43.661437","longitude":"-79.403346"},{"source":"yellow page","service_name":"Elementary Teacher Tutor's You","category":"euphonium teacher","phone":"416-255-2701","address":"ON","postalcode":"","website":" ","working_hour":"","latitude":"","longitude":""},{"source":"yellow page","service_name":"Ontario Secondary School Teachers' Federation","category":"euphonium teacher","phone":"519-571-0331","address":"225 Centennial Crt, Kitchener, ON N2B 3X2","postalcode":"N2B 3X2","website":"http://www.osstf9.com","working_hour":"","latitude":"43.476062","longitude":"-80.427336"},{"source":"yellow page","service_name":"Etfo Waterloo Teacher Local","category":"euphonium teacher","phone":"5198967172","address":"610 Wabanaki Dr, Kitchener, ON N2C 2K4","postalcode":"N2C 2K4","website":"http://etfo-wr.on.ca","working_hour":"","latitude":"43.4094308","longitude":"-80.4406347"},{"source":"yellow page","service_name":"Ontario English Catholic Teachers Association Waterloo Unit","category":"euphonium teacher","phone":"519-744-8051","address":"219 Hartwood Ave, Waterloo, ON N2J 1B2","postalcode":"N2J 1B2","website":"http://www.oectawaterloo.on.ca","working_hour":"","latitude":"43.464104","longitude":"-80.501737"},{"source":"yellow page","service_name":"Ontario Public School Men Teachers' Federation","category":"euphonium teacher","phone":"5198483540","address":"Arthur, ON N0G 1A0","postalcode":"N0G 1A0","website":" ","working_hour":"","latitude":"","longitude":""},{"source":"yellow page","service_name":"Ontario Secondary School Teachers' Federation-Waterloo County","category":"euphonium teacher","phone":"519-571-1033","address":"540 Riverbend Dr, Kitchener, ON N2K 3S2","postalcode":"N2K 3S2","website":" ","working_hour":"","latitude":"43.47506","longitude":"-80.479694"},{"source":"yellow page","service_name":"Waterloo Region Occasional Teachers Locl","category":"euphonium teacher","phone":"519-571-0222","address":"130 Highland Rd E, Kitchener, ON N2M 3V9","postalcode":"N2M 3V9","website":"http://www.etfowatots.ca","working_hour":"","latitude":"43.439323","longitude":"-80.493899"},{"source":"yellow page","service_name":"The Ontario Secondary Teachers Federation","category":"euphonium teacher","phone":"519-363-0222","address":"ON","postalcode":"","website":"http://www.osstf.on.ca","working_hour":"","latitude":"","longitude":""},{"source":"yellow page","service_name":"Ontario Secondary School Teachers' Federation","category":"euphonium teacher","phone":"519-426-8545","address":"115 Windham East Quarter Line Rd, Simcoe, ON N3Y 4K6","postalcode":"N3Y 4K6","website":" ","working_hour":"","latitude":"42.8449232","longitude":"-80.3526493"},{"source":"yellow page","service_name":"Etfo Thames Valley Teacher Local","category":"euphonium teacher","phone":"519-474-3150","address":"2911 Bateman Trail, London, ON N6L 0A6","postalcode":"N6L 0A6","website":" ","working_hour":"","latitude":"42.9345439","longitude":"-81.253289"},{"source":"yellow page","service_name":"Ontario English Catholic Teachers Association-London District Local","category":"euphonium teacher","phone":"519-667-0842","address":"109 Meg Dr, London, ON N6E 3T7","postalcode":"N6E 3T7","website":" ","working_hour":"","latitude":"42.920679","longitude":"-81.23077"},{"source":"yellow page","service_name":"Grand Erie Elementary Teachers","category":"euphonium teacher","phone":"519-753-9291","address":"1-49 Dalkeith Dr, Brantford, ON N3P 1M1","postalcode":"N3P 1M1","website":"http://gefed.on.ca","working_hour":"Monday 8:30 am - 4:30 pm   Tuesday 8:30 am - 4:30 pm   Wednesday 8:30 am - 4:30 pm   Thursday 8:30 am - 4:30 pm","latitude":"43.177576","longitude":"-80.235331"},{"source":"yellow page","service_name":"Teachers Credit Union","category":"euphonium teacher","phone":"5197522553","address":"25-27 King George Rd, Brantford, ON N3R 5J8","postalcode":"N3R 5J8","website":"http://www.teacherscreditunion.com","working_hour":"","latitude":"43.1621319","longitude":"-80.2737169"},{"source":"yellow page","service_name":"Advanced Teacher Training","category":"euphonium teacher","phone":"519-645-4965","address":"383 Richmond St, London, ON N6A 3C4","postalcode":"N6A 3C4","website":" ","working_hour":"","latitude":"42.98277","longitude":"-81.249228"},{"source":"yellow page","service_name":"MacKinnon Karen REIKI Master Teacher","category":"euphonium teacher","phone":"519-871-0227","address":"Wortley Village, Wortley Village, ON N6C 1N6","postalcode":"N6C 1N6","website":" ","working_hour":"","latitude":"42.969353","longitude":"-81.256272"},{"source":"yellow page","service_name":"ETFO-Avon Maitland Teachers' Local","category":"euphonium teacher","phone":"5195272484","address":"28 Centennial Dr, Seaforth, ON N0K 1W0","postalcode":"N0K 1W0","website":"http://www.ametfo.ca","working_hour":"","latitude":"43.5507308","longitude":"-81.3865024"},{"source":"yellow page","service_name":"Elementary Teachers","category":"euphonium teacher","phone":"5195272702","address":"28 Centennial Dr, Seaforth, ON N0K 1W0","postalcode":"N0K 1W0","website":"http://www.etfo.ca","working_hour":"","latitude":"43.5507308","longitude":"-81.3865024"},{"source":"yellow page","service_name":"ETFO Thames Valley Occasional Teachers","category":"euphonium teacher","phone":"519-641-3936","address":"521 Nottinghill Rd, London, ON N6K 4L4","postalcode":"N6K 4L4","website":"http://www.etfotvots.com","working_hour":"","latitude":"42.9524502","longitude":"-81.2972058"},{"source":"yellow page","service_name":"Mortgage Teacher","category":"euphonium teacher","phone":"2262892991","address":"1-121 Oxford St E, London, ON N6A 1T4","postalcode":"N6A 1T4","website":"#","working_hour":"","latitude":"42.9942441","longitude":"-81.2574503"},{"source":"yellow page","service_name":"Michelle Natareno-Mortgage Teacher","category":"euphonium teacher","phone":"519-675-8798","address":"121 Oxford St E, London, ON N6A 1T4","postalcode":"N6A 1T4","website":"#","working_hour":"Monday 9:00 am - 5:00 pm   Tuesday 9:00 am - 5:00 pm   Wednesday 9:00 am - 5:00 pm   Thursday 9:00 am - 5:00 pm   Friday 9:00 am - 5:00 pm   After Hours Appointments Available","latitude":"42.9942441","longitude":"-81.2574503"},{"source":"yellow page","service_name":"Allison Cooke Chelio Teacher","category":"euphonium teacher","phone":"519-824-9279","address":"ON","postalcode":"","website":" ","working_hour":"","latitude":"","longitude":""},{"source":"yellow page","service_name":"Teachers Credit Union","category":"euphonium teacher","phone":"519-752-0967","address":"","postalcode":"","website":"http://www.teacherscreditunion.com","working_hour":"","latitude":"","longitude":""},{"source":"yellow page","service_name":"Retired Women Teachers Of Ontario","category":"euphonium teacher","phone":"519-676-0043","address":"19730 Four Rod Rd RR 1, Blenheim, ON N0P 1A0","postalcode":"N0P 1A0","website":"http://rwto.org","working_hour":"","latitude":"42.249208","longitude":"-82.104082"},{"source":"yellow page","service_name":"Ontario Teachers","category":"euphonium teacher","phone":"705-389-2540","address":"8A Pitt, Dunchurch, ON P0A 1G0","postalcode":"P0A 1G0","website":" ","working_hour":"","latitude":"","longitude":""},{"source":"yellow page","service_name":"Ontario Secondary School Teacher Federation","category":"euphonium teacher","phone":"7056721011","address":"584 Lake Shore Rd, Hlyby, ON","postalcode":"","website":" ","working_hour":"","latitude":"","longitude":""},{"source":"yellow page","service_name":"Kirkland Lake Women's Teacher Association","category":"euphonium teacher","phone":"7055679424","address":"3-23 Prospect Ave, Kirkland Lake, ON P2N 2V3","postalcode":"P2N 2V3","website":" ","working_hour":"","latitude":"48.1504473","longitude":"-80.0341235"},{"source":"yellow page","service_name":"Nipissing English Catholic Teachers Assn","category":"euphonium teacher","phone":"705-476-7909","address":"347 Sherbrooke St, North Bay, ON P1B 2C1","postalcode":"P1B 2C1","website":"http://neuoecta.com","working_hour":"","latitude":"46.307905","longitude":"-79.461045"},{"source":"yellow page","service_name":"Element Teachers Fed","category":"euphonium teacher","phone":"7054751118","address":"201 Pinewood Park Dr, North Bay, ON P1B 8Z4","postalcode":"P1B 8Z4","website":" ","working_hour":"","latitude":"46.259485","longitude":"-79.3892165"},{"source":"yellow page","service_name":"Lakehead Elementary Teachers' Assoc","category":"euphonium teacher","phone":"807-624-9149","address":"5-1112 Russell St, Thunder Bay, ON P7B 5N2","postalcode":"P7B 5N2","website":" ","working_hour":"","latitude":"48.4028483","longitude":"-89.2541259"}]}