{"table":[{"source":"yellow page","service_name":"Legit Fitness","category":"fitness training","phone":"613-864-6365","address":"433B Donald B. Munro Dr, Carp, ON K0A 1L0","postalcode":"K0A 1L0","website":" ","working_hour":"","latitude":"45.3444389","longitude":"-76.0361725"},{"source":"yellow page","service_name":"YMCA","category":"fitness training","phone":"6138321234","address":"1620 Sixth Line Rd, Dunrobin, ON K0A 1T0","postalcode":"K0A 1T0","website":" ","working_hour":"","latitude":"45.410736","longitude":"-75.933562"},{"source":"yellow page","service_name":"Azera Fitness","category":"fitness training","phone":"613-832-7892","address":"3924 Woodkilton Rd, Woodlawn, ON K0A 1T0","postalcode":"K0A 1T0","website":" ","working_hour":"","latitude":"45.458904","longitude":"-76.095207"},{"source":"yellow page","service_name":"Arnprior Health And Fitness Club","category":"fitness training","phone":"613-623-1030","address":"1 KenwoodPl, Arnprior, ON","postalcode":"","website":" ","working_hour":"","latitude":"45.434313","longitude":"-76.360517"},{"source":"yellow page","service_name":"Fitness With Katrina","category":"fitness training","phone":"6136225705","address":"","postalcode":"","website":" ","working_hour":"","latitude":"","longitude":""},{"source":"yellow page","service_name":"Goalie Reaction Ball","category":"fitness training","phone":"613-612-3242","address":"110 Westhunt Dr, Carp, ON K0A 1L0","postalcode":"K0A 1L0","website":" ","working_hour":"","latitude":"45.295701","longitude":"-75.971657"},{"source":"yellow page","service_name":"Ultimate Fitness","category":"fitness training","phone":"613-433-8282","address":"640 Barnet Bl, Renfrew, ON K7V 2M4","postalcode":"K7V 2M4","website":" ","working_hour":"","latitude":"45.471009","longitude":"-76.659974"},{"source":"yellow page","service_name":"Thunderbird Sports Centre","category":"fitness training","phone":"6138362256","address":"1927 Richardson Side Road, Kanata, ON K2K 1X4","postalcode":"K2K 1X4","website":" ","working_hour":"","latitude":"45.302844","longitude":"-75.957098"},{"source":"yellow page","service_name":"The Fitness Touch","category":"fitness training","phone":"613-623-2933","address":"ON","postalcode":"","website":" ","working_hour":"","latitude":"","longitude":""},{"source":"yellow page","service_name":"Curves","category":"fitness training","phone":"613-432-3444","address":"303 Raglan St S, Renfrew, ON K7V 1R6","postalcode":"K7V 1R6","website":"http://www.curves.com","working_hour":"","latitude":"45.4703373","longitude":"-76.6820963"},{"source":"yellow page","service_name":"Lifestyles","category":"fitness training","phone":"705-267-3462","address":"66-1115 Mclean Dr","postalcode":"","website":" ","working_hour":"","latitude":"45.4681263","longitude":"-76.4644531"},{"source":"yellow page","service_name":"Ultimate Fitness","category":"fitness training","phone":"6136239726","address":"53 James St, Arnprior, ON K7S 1C9","postalcode":"K7S 1C9","website":" ","working_hour":"","latitude":"45.427205","longitude":"-76.356532"},{"source":"yellow page","service_name":"Almonte Fitness","category":"fitness training","phone":"613-256-5411","address":"500 Ottawa St RR 4, Almonte, ON K0A 1A0","postalcode":"K0A 1A0","website":" ","working_hour":"","latitude":"45.2356684","longitude":"-76.1817572"},{"source":"yellow page","service_name":"Nordic Walkfit","category":"fitness training","phone":"613-832-4407","address":"3041 Ridgetop Rd, Dunrobin, ON K0A 1T0","postalcode":"K0A 1T0","website":" ","working_hour":"","latitude":"45.414108","longitude":"-76.06152"},{"source":"yellow page","service_name":"Yantha Cycle","category":"fitness training","phone":"613-635-7433","address":"295 Trafalgar Road, Pembroke, ON K8A 5A7","postalcode":"K8A 5A7","website":"http://www.yanthacycle.com","working_hour":"","latitude":"45.8233912","longitude":"-77.1304134"},{"source":"yellow page","service_name":"Orange Theory Fitness","category":"fitness training","phone":"587-481-8765","address":"","postalcode":"","website":" ","working_hour":"","latitude":"","longitude":""},{"source":"yellow page","service_name":"Body Break Fitness Center","category":"fitness training","phone":"613-642-3370","address":"41 Anik St RR 6, Alexandria, ON K0C 1A0","postalcode":"K0C 1A0","website":" ","working_hour":"Monday 9:00 am - 9:00 pm   Tuesday 9:00 am - 9:00 pm   Wednesday 9:00 am - 9:00 pm   Thursday 9:00 am - 9:00 pm   Friday 9:00 am - 9:00 pm   Saturday 9:00 am - 4:00 pm   Sunday 9:00 am - 4:00 pm","latitude":"45.3010878","longitude":"-74.6292276"},{"source":"yellow page","service_name":"Snap Fitness Rockland","category":"fitness training","phone":"613-446-9910","address":"2901 rue Laurier, Rockland, ON K4K 1R3","postalcode":"K4K 1R3","website":"http://snapfitnessrockland.com","working_hour":"","latitude":"45.5393977","longitude":"-75.3031013"},{"source":"yellow page","service_name":"YMCA","category":"fitness training","phone":"613-446-7679","address":"1500 du Parc Ave, Rockland, ON K4K 1C3","postalcode":"K4K 1C3","website":"http://www.ymca.ca","working_hour":"","latitude":"45.5495465","longitude":"-75.2874109"},{"source":"yellow page","service_name":"Fit Life Gym","category":"fitness training","phone":"6136325433","address":"452 CR-17, Hawkesbury, ON K6A 2R2","postalcode":"K6A 2R2","website":"http://fitlifegym.ca","working_hour":"","latitude":"45.585063","longitude":"-74.656114"},{"source":"yellow page","service_name":"VC Gym","category":"fitness training","phone":"613-487-2929","address":"2115 Laval, Bourget, ON K0A 1E0","postalcode":"K0A 1E0","website":"http://milanopizzeria.ca","working_hour":"","latitude":"45.4321439","longitude":"-75.1681423"},{"source":"yellow page","service_name":"Crossfit Rush","category":"fitness training","phone":"613-446-9496","address":"729 rue Industrielle, Rockland, ON K4K 1T2","postalcode":"K4K 1T2","website":" ","working_hour":"","latitude":"45.558653","longitude":"-75.276833"},{"source":"yellow page","service_name":"Studio Sante Gym","category":"fitness training","phone":"613-632-9764","address":"501 Main St E, Hawkesbury, ON K6A 1B3","postalcode":"K6A 1B3","website":" ","working_hour":"","latitude":"45.610433","longitude":"-74.603301"},{"source":"yellow page","service_name":"Goodlife Fitness","category":"fitness training","phone":"6136794006","address":"2890 Presqu'ile, Alfred, ON K0B 1J0","postalcode":"K0B 1J0","website":"http://www.goodlifefitness.com","working_hour":"","latitude":"45.633095","longitude":"-74.808986"},{"source":"yellow page","service_name":"Martial Arts","category":"fitness training","phone":"613-443-5252","address":"1025 Notre Dame St, Russell, ON K0A 1W0","postalcode":"K0A 1W0","website":" ","working_hour":"","latitude":"45.2738239","longitude":"-75.2755964"},{"source":"yellow page","service_name":"Gymma Inc","category":"fitness training","phone":"6137645335","address":"1 Industrial, Casselman, ON K0A 1M0","postalcode":"K0A 1M0","website":" ","working_hour":"","latitude":"45.3086283","longitude":"-75.0818674"},{"source":"yellow page","service_name":"Curves","category":"fitness training","phone":"613-443-3315","address":"866 Notre Dame St, Embrun, ON K0A 1W0","postalcode":"K0A 1W0","website":"http://curves.com","working_hour":"","latitude":"45.2705139","longitude":"-75.2916295"},{"source":"yellow page","service_name":"Canadian Hockey Academy","category":"fitness training","phone":"613-833-9090","address":"822 Como Cres, Ottawa, ON K4A 3Z8","postalcode":"K4A 3Z8","website":" ","working_hour":"","latitude":"45.477058","longitude":"-75.473711"},{"source":"yellow page","service_name":"Summit Health & Fitness","category":"fitness training","phone":"6139302445","address":"1515 Pitt St, Cornwall, ON K6J 3T9","postalcode":"K6J 3T9","website":"http://summitfitnessclub.ca","working_hour":"","latitude":"45.037794","longitude":"-74.743335"},{"source":"yellow page","service_name":"Studio Energie 148","category":"fitness training","phone":"819-427-6195","address":"371 Papineau, Papineauville, QC J0V 1R0","postalcode":"J0V 1R0","website":"http://studioenergie.ca","working_hour":"","latitude":"45.6167936","longitude":"-75.02572"},{"source":"yellow page","service_name":"Aki Ikwe Energy Healing Center","category":"fitness training","phone":"613-240-3939","address":"2348 Colonial Rd, Navan, ON K4B 1J1","postalcode":"K4B 1J1","website":" ","working_hour":"","latitude":"45.433545","longitude":"-75.374462"},{"source":"yellow page","service_name":"Casselman Ifit","category":"fitness training","phone":"613-764-3488","address":"24 Industrial St, Casselman, ON K0A 1M0","postalcode":"K0A 1M0","website":" ","working_hour":"","latitude":"45.3061423","longitude":"-75.0802825"},{"source":"yellow page","service_name":"Amped Sports Lab","category":"fitness training","phone":"613-822-9000","address":"2600 Leitrim Rd, Gloucester, ON K1T 3V3","postalcode":"K1T 3V3","website":" ","working_hour":"","latitude":"45.318818","longitude":"-75.626854"},{"source":"yellow page","service_name":"Curves","category":"fitness training","phone":"613-543-9009","address":"1-B-147 Main St, Morrisburg, ON K0C 1X0","postalcode":"K0C 1X0","website":"http://curves.com","working_hour":"","latitude":"44.902072","longitude":"-75.180276"},{"source":"yellow page","service_name":"Vitality Fitness Training","category":"fitness training","phone":"613-258-4001","address":"24 Prescott, Kemptville, ON K0G 1J0","postalcode":"K0G 1J0","website":"http://www.vitalityfitnesstraining.com","working_hour":"","latitude":"44.979769","longitude":"-75.545295"},{"source":"yellow page","service_name":"Mind Body Holistic & Fitness Health Club","category":"fitness training","phone":"613-632-6333","address":"5-162 Bon Pasteur St, Hawkesbury, ON K6A 2K5","postalcode":"K6A 2K5","website":" ","working_hour":"Monday 5:30 am - 10:00 pm   Tuesday 5:30 am - 10:00 pm   Wednesday 5:30 am - 10:00 pm   Thursday 5:30 am - 10:00 pm   Friday 5:30 am - 10:00 pm   Saturday 8:00 am - 4:00 pm   Sunday 8:00 am - 4:00 pm","latitude":"45.60768","longitude":"-74.617957"},{"source":"yellow page","service_name":"Greco Lean and Fit","category":"fitness training","phone":"613-692-1577","address":"5700 Longshadow St, Manotick, ON K2M 1M2","postalcode":"K2M 1M2","website":"http://grecoleanandfit.com","working_hour":"","latitude":"45.245209","longitude":"-75.644808"},{"source":"yellow page","service_name":"O'Reilly Training Centre","category":"fitness training","phone":"613-215-0845","address":"31 Clothier St E, Kemptville, ON K0G 1J0","postalcode":"K0G 1J0","website":" ","working_hour":"","latitude":"45.0169491","longitude":"-75.6469834"},{"source":"yellow page","service_name":"Goodlife Fitness","category":"fitness training","phone":"613-938-3923","address":"31 Ninth St E, Cornwall, ON K6H 6R3","postalcode":"K6H 6R3","website":" ","working_hour":"","latitude":"45.028907","longitude":"-74.733829"},{"source":"yellow page","service_name":"Anytime Fitness","category":"fitness training","phone":"613-258-2121","address":"309 Colonnade Dr, Kemptville, ON K0G 1J0","postalcode":"K0G 1J0","website":" ","working_hour":"","latitude":"45.0297666","longitude":"-75.6328852"},{"source":"yellow page","service_name":"Anytime Fitness","category":"fitness training","phone":"613-491-1290","address":"1160 Beaverwood Road, Ottawa, ON","postalcode":"","website":" ","working_hour":"","latitude":"45.224118","longitude":"-75.684773"},{"source":"yellow page","service_name":"Curves","category":"fitness training","phone":"613-936-9797","address":"6-691 Brookdale Ave, Cornwall, ON K6J 5C6","postalcode":"K6J 5C6","website":"http://www.curves.com","working_hour":"Monday 6:00 am - 8:00 pm   Tuesday 6:00 am - 8:00 pm   Wednesday 6:00 am - 8:00 pm   Thursday 6:00 am - 8:00 pm   Friday 6:00 am - 6:00 pm   Saturday 9:00 am - 12:00 pm","latitude":"45.021294","longitude":"-74.746356"},{"source":"yellow page","service_name":"JR Fitness","category":"fitness training","phone":"613-443-3030","address":"767 rue Notre Dame RR 3, Embrun, ON K0A 1W1","postalcode":"K0A 1W1","website":" ","working_hour":"","latitude":"45.2674491","longitude":"-75.3016779"},{"source":"yellow page","service_name":"Goalie Life","category":"fitness training","phone":"613-258-9446","address":"12 Voyageur Dr, Kemptville, ON K0G 1J0","postalcode":"K0G 1J0","website":" ","working_hour":"","latitude":"45.0348502","longitude":"-75.6875617"},{"source":"yellow page","service_name":"Action Innovation","category":"fitness training","phone":"613-296-0021","address":"Ottawa, K0A 2P0","postalcode":"K0A 2P0","website":" ","working_hour":"","latitude":"45.240439","longitude":"-75.413115"},{"source":"yellow page","service_name":"Silhouettes Body Toning & Shaping","category":"fitness training","phone":"6139334170","address":"4762 Wodland Rd, Martintown, ON K0C 1S0","postalcode":"K0C 1S0","website":"http://www.silhouettescanada.ca","working_hour":"","latitude":"45.1694233","longitude":"-74.6937281"},{"source":"yellow page","service_name":"Gym-Max Buckingham","category":"fitness training","phone":"819-986-5496","address":"999 rue Dollard, Buckingham, QC J8L 3E6","postalcode":"J8L 3E6","website":" ","working_hour":"","latitude":"45.576026","longitude":"-75.406914"},{"source":"yellow page","service_name":"Curves","category":"fitness training","phone":"613-382-7692","address":"168 King St E, Gananoque, ON K7G 1G2","postalcode":"K7G 1G2","website":"http://www.curves.com/","working_hour":"Monday 9:00 am - 5:00 pm   Tuesday 9:00 am - 5:00 pm   Wednesday 9:00 am - 5:00 pm   Thursday 9:00 am - 5:00 pm   Friday 9:00 am - 5:00 pm","latitude":"44.330407","longitude":"-76.1612303"},{"source":"yellow page","service_name":"Curves","category":"fitness training","phone":"613-342-5804","address":"40 Brock St, Brockville, ON K6V 4W4","postalcode":"K6V 4W4","website":"http://www.curvesforwomen.com","working_hour":"","latitude":"44.59272","longitude":"-75.689028"},{"source":"yellow page","service_name":"Curves","category":"fitness training","phone":"6135314065","address":"2-677 Innovation Dr, Kingston, ON K7K 7E7","postalcode":"K7K 7E7","website":" ","working_hour":"","latitude":"44.2717844","longitude":"-76.4430775"},{"source":"yellow page","service_name":"Sweat Fitness","category":"fitness training","phone":"613-876-7327","address":"166 King St E, Gananoque, ON K7G 1G2","postalcode":"K7G 1G2","website":" ","working_hour":"","latitude":"44.3303852","longitude":"-76.1612652"},{"source":"yellow page","service_name":"Martial Arts aXis","category":"fitness training","phone":"613-214-2305","address":"629 Division St, Kingston, ON K7K 4B7","postalcode":"K7K 4B7","website":"http://www.martialartsaxis.com","working_hour":"","latitude":"44.247729","longitude":"-76.495508"},{"source":"yellow page","service_name":"Bats Fitness","category":"fitness training","phone":"6139250220","address":"220 Churchill W, Prescott, ON K0E 1T0","postalcode":"K0E 1T0","website":" ","working_hour":"Monday 6:00 am - 8:30 pm   Tuesday 6:00 am - 8:30 pm   Wednesday 6:00 am - 8:30 pm   Thursday 6:00 am - 8:30 pm   Friday 6:00 am - 8:30 pm   Saturday 8:00 am - 4:00 pm   Sunday 8:00 am - 3:00 pm","latitude":"44.722896","longitude":"-75.552725"},{"source":"yellow page","service_name":"Snap Fitness Brockville","category":"fitness training","phone":"613-342-2348","address":"1365 California Av, Brockville, ON K6V 5W1","postalcode":"K6V 5W1","website":" ","working_hour":"Monday 12:00 am - 12:00 am   Tuesday 12:00 am - 12:00 am   Wednesday 12:00 am - 12:00 am   Thursday 12:00 am - 12:00 am   Friday 12:00 am - 12:00 am   Saturday 12:00 am - 12:00 am   Sunday 12:00 am - 12:00 am","latitude":"44.620604","longitude":"-75.696289"},{"source":"yellow page","service_name":"Healthybodies","category":"fitness training","phone":"613-359-9932","address":"96 Perth, Elgin, ON K0G 1E0","postalcode":"K0G 1E0","website":" ","working_hour":"","latitude":"44.591848","longitude":"-76.309409"},{"source":"yellow page","service_name":"GoodLife Fitness","category":"fitness training","phone":"613-345-4623","address":"1972 Parkedale Ave, Brockville, ON K6V 5T2","postalcode":"K6V 5T2","website":" ","working_hour":"Monday 7:00 am - 10:00 pm   Tuesday 7:00 am - 10:00 pm   Wednesday 7:00 am - 10:00 pm   Thursday 7:00 am - 10:00 pm   Friday 7:00 am - 9:00 pm   Saturday 8:00 am - 6:00 pm   Sunday 9:00 am - 5:00 pm","latitude":"44.612341","longitude":"-75.687584"},{"source":"yellow page","service_name":"Movement Options - Enjoy The Freedom Of Choice","category":"fitness training","phone":"613-548-8333","address":"206-31 Steve Fonyo Dr, Kingston, ON K7M 8P1","postalcode":"K7M 8P1","website":"http://www.movementoptions.ca/aboutUs.html","working_hour":"","latitude":"44.262555","longitude":"-76.52119"},{"source":"yellow page","service_name":"GoodLife Fitness","category":"fitness training","phone":"613-547-3220","address":"64 Barrack St, Kingston, ON K7K 7A9","postalcode":"K7K 7A9","website":" ","working_hour":"Monday 5:00 am - 12:00 am   Tuesday 12:00 am - 12:00 am   Wednesday 12:00 am - 12:00 am   Thursday 12:00 am - 12:00 am   Friday 12:00 am - 10:00 pm   Saturday 8:00 am - 6:00 pm   Sunday 8:00 am - 6:00 pm","latitude":"44.233319","longitude":"-76.481536"},{"source":"yellow page","service_name":"Kingston Fencing Club","category":"fitness training","phone":"613-547-5580","address":"83 Terry Fox Dr, Kingston, ON K7M 8N4","postalcode":"K7M 8N4","website":" ","working_hour":"Monday 3:30 pm - 8:30 pm   Tuesday 11:30 am - 8:30 pm   Thursday 4:00 pm - 8:00 pm   Saturday 9:00 am - 1:00 pm","latitude":"44.260832","longitude":"-76.523949"},{"source":"yellow page","service_name":"Taoist Tai Chi Society of Canada","category":"fitness training","phone":"6135444733","address":"302 Montreal St, Kingston, ON K7K 3H1","postalcode":"K7K 3H1","website":"http://www.taoist.org","working_hour":"","latitude":"44.239883","longitude":"-76.486266"},{"source":"yellow page","service_name":"Focus Personal Fitness Studio","category":"fitness training","phone":"613-544-7999","address":"22-4 Cataraqui St, Kingston, ON K7K 1Z7","postalcode":"K7K 1Z7","website":"http://www.focuspersonalfitness.com","working_hour":"Monday 5:00 am - 10:00 pm   Tuesday 5:00 am - 10:00 pm   Wednesday 5:00 am - 10:00 pm   Thursday 5:00 am - 10:00 pm   Friday 5:00 am - 10:00 pm   Saturday 5:00 am - 10:00 pm   Sunday 5:00 am - 10:00 pm","latitude":"44.242224","longitude":"-76.48078"},{"source":"yellow page","service_name":"Crossfit Queen Street","category":"fitness training","phone":"613-776-9888","address":"221 Queen St, Kingston, ON K7K 1B4","postalcode":"K7K 1B4","website":" ","working_hour":"","latitude":"44.233429","longitude":"-76.488335"},{"source":"yellow page","service_name":"YMCA","category":"fitness training","phone":"6133427961","address":"345 Park St, Brockville, ON K6V 5Y7","postalcode":"K6V 5Y7","website":" ","working_hour":"","latitude":"44.60298","longitude":"-75.691427"},{"source":"yellow page","service_name":"YMCA","category":"fitness training","phone":"613-273-5273","address":"3555 Bolingbroke Rd, Maberly, ON K0H 2B0","postalcode":"K0H 2B0","website":"http://www.ymca.ca","working_hour":"","latitude":"44.7835315","longitude":"-76.5027774"},{"source":"yellow page","service_name":"Reflections Training Studio","category":"fitness training","phone":"6135078348","address":"1440 Princess St, Kingston, ON K7M 3E5","postalcode":"K7M 3E5","website":" ","working_hour":"","latitude":"44.250639","longitude":"-76.531711"},{"source":"yellow page","service_name":"Movement Performance Centre","category":"fitness training","phone":"613-542-3222","address":"785 Sir John A MacDonald Blvd, Kingston, ON K7L 1H3","postalcode":"K7L 1H3","website":" ","working_hour":"","latitude":"44.2470129","longitude":"-76.5179313"},{"source":"yellow page","service_name":"YMCA","category":"fitness training","phone":"613-546-2647","address":"100 Wright Cres, Kingston, ON K7L 4T9","postalcode":"K7L 4T9","website":" ","working_hour":"","latitude":"44.2387728","longitude":"-76.5167542"},{"source":"yellow page","service_name":"Foundations Training Centre","category":"fitness training","phone":"613-449-9832","address":"2795 Princess St, Kingston, ON K7P 2X1","postalcode":"K7P 2X1","website":" ","working_hour":"","latitude":"44.259473","longitude":"-76.581819"},{"source":"yellow page","service_name":"Compass Fitness Kingston","category":"fitness training","phone":"613-507-8880","address":"1-675 Arlington Park Pl, Kingston, ON K7M 7E4","postalcode":"K7M 7E4","website":"http://compassfitnesskingston.com","working_hour":"Appointment Only","latitude":"44.249197","longitude":"-76.570564"},{"source":"yellow page","service_name":"Mercury Strength And Conditioning","category":"fitness training","phone":"613-329-6861","address":"550 Cataraqui Woods Dr, Kingston, ON K7P 2Y5","postalcode":"K7P 2Y5","website":" ","working_hour":"","latitude":"44.268112","longitude":"-76.563624"},{"source":"yellow page","service_name":"YMCA","category":"fitness training","phone":"6133756295","address":"1194 Sugarbush Lane, Parham, ON K0H 2K0","postalcode":"K0H 2K0","website":" ","working_hour":"","latitude":"44.669054","longitude":"-76.710943"},{"source":"yellow page","service_name":"Prescribed Exercise Clinic","category":"fitness training","phone":"613-634-3488","address":"704 Arlington Park Pl, Kingston, ON K7M 7N7","postalcode":"K7M 7N7","website":"http://prescribedexerciseclinic.com","working_hour":"","latitude":"44.2492055","longitude":"-76.5705738"},{"source":"yellow page","service_name":"Sport Check Cataraqui Town Centre","category":"fitness training","phone":"6136347557","address":"945 Gardiners Rd, Kingston, ON K7M 7H4","postalcode":"K7M 7H4","website":"http://www.sportchek.ca","working_hour":"","latitude":"44.256425","longitude":"-76.568771"},{"source":"yellow page","service_name":"Pf Kingston Fitness","category":"fitness training","phone":"613-544-9111","address":"955 Futures Gate, Kingston, ON K7M 8T6","postalcode":"K7M 8T6","website":" ","working_hour":"","latitude":"44.257732","longitude":"-76.5542938"},{"source":"yellow page","service_name":"Gymboree","category":"fitness training","phone":"6133897419","address":"L10-945 Gardiners Rd, Kingston, ON K7M 7H4","postalcode":"K7M 7H4","website":" ","working_hour":"","latitude":"44.256484","longitude":"-76.571908"},{"source":"yellow page","service_name":"GoodLife Fitness","category":"fitness training","phone":"613-389-8383","address":"824 Norwest Rd, Kingston, ON K7P 2N4","postalcode":"K7P 2N4","website":" ","working_hour":"","latitude":"44.2574243","longitude":"-76.5740039"},{"source":"yellow page","service_name":"Power Of You","category":"fitness training","phone":"6134011842","address":"1 Doran St, Petawawa, ON K8H 1P6","postalcode":"K8H 1P6","website":"http://www.powerofyou.ca","working_hour":"","latitude":"45.8963378","longitude":"-77.2815996"},{"source":"yellow page","service_name":"Dundonald Hall Fitness Sports & AquaticCentreCFB","category":"fitness training","phone":"613-687-4500","address":"57 Festubert Bld, ON K8H 2X3","postalcode":"K8H 2X3","website":"http://www.cg.cfpsa.ca/cg-pc/Petawawa/EN/Facilities/Pages/DundonaldHall.aspx","working_hour":"","latitude":"45.901883","longitude":"-77.321985"},{"source":"yellow page","service_name":"Phaze 1","category":"fitness training","phone":"613-735-0475","address":"100 Pembroke St E, Pembroke, ON K8A 8A3","postalcode":"K8A 8A3","website":"http://www.Phaze1Fitness.ca","working_hour":"Monday 5:30 am - 10:00 pm   Tuesday 5:30 am - 10:00 pm   Wednesday 5:30 am - 10:00 pm   Thursday 5:30 am - 10:00 pm   Friday 5:30 am - 8:00 pm   Saturday 9:00 am - 5:00 pm   Sunday 10:00 am - 5:00 pm","latitude":"45.8266732","longitude":"-77.1107951"},{"source":"yellow page","service_name":"Power Of You","category":"fitness training","phone":"6136876480","address":"74 Ortona Ave, Petawawa, ON K8H 1B3","postalcode":"K8H 1B3","website":"http://powerofyou.ca","working_hour":"","latitude":"45.9108167","longitude":"-77.2706174"},{"source":"yellow page","service_name":"Starz In Motion Dance Studio","category":"fitness training","phone":"613-735-2800","address":"1946 Petawawa Blvd, Pembroke, ON K8A 7H2","postalcode":"K8A 7H2","website":"http://www.starzinmotion.ca","working_hour":"","latitude":"45.855032","longitude":"-77.211318"},{"source":"yellow page","service_name":"Best Western","category":"fitness training","phone":"613-735-0474","address":"1 International Dr, Pembroke, ON K8A 6W5","postalcode":"K8A 6W5","website":"http://www.BestPembroke.com","working_hour":"","latitude":"45.7992666","longitude":"-77.1143987"},{"source":"yellow page","service_name":"Fit 4 Life","category":"fitness training","phone":"613-308-9558","address":"309 Bridge St W, Napanee, ON K7R 2G4","postalcode":"K7R 2G4","website":" ","working_hour":"","latitude":"44.2399518","longitude":"-76.9694265"},{"source":"yellow page","service_name":"Native New Life Training Centre","category":"fitness training","phone":"6133962311","address":"120 Hwy 49, Deseronto, ON K0K 1X0","postalcode":"K0K 1X0","website":" ","working_hour":"","latitude":"44.202229","longitude":"-77.06923"},{"source":"yellow page","service_name":"Fitt For You","category":"fitness training","phone":"613-354-3500","address":"174 Robinson St, Napanee, ON K7R 2S4","postalcode":"K7R 2S4","website":"http://www.garderie4saisons.ca","working_hour":"Monday 7:00 am - 8:00 pm   Tuesday 7:00 am - 8:00 pm   Wednesday 7:00 am - 8:00 pm   Thursday 7:00 am - 8:00 pm   Friday 7:00 am - 8:00 pm   Saturday 7:00 am - 8:00 pm","latitude":"44.2474953","longitude":"-76.9563644"},{"source":"yellow page","service_name":"Curves","category":"fitness training","phone":"613-962-3399","address":"2-51 Adam St, Belleville, ON K8N 5K3","postalcode":"K8N 5K3","website":"https://www.curves.com/","working_hour":"","latitude":"44.1903315","longitude":"-77.3846512"},{"source":"yellow page","service_name":"Callanetics Studio","category":"fitness training","phone":"613-967-4447","address":"158 George St, Belleville, ON K8N 3H2","postalcode":"K8N 3H2","website":"http://www.CallaneticsStudio.ca","working_hour":"","latitude":"44.1629399","longitude":"-77.3774142"},{"source":"yellow page","service_name":"Gold Performance Training","category":"fitness training","phone":"613-969-1110","address":"1753 Blessington Rd, Corbyville, ON K0K 1V0","postalcode":"K0K 1V0","website":" ","working_hour":"","latitude":"44.260002","longitude":"-77.2888357"},{"source":"yellow page","service_name":"Joe's Personal Training and Fitness","category":"fitness training","phone":"613-967-0410","address":"5980 Old Hwy 2, Shannonville, ON K0K 3A0","postalcode":"K0K 3A0","website":" ","working_hour":"","latitude":"44.2035214","longitude":"-77.2146801"},{"source":"yellow page","service_name":"Misuraca's Karate Academy","category":"fitness training","phone":"613-969-8936","address":"6833 HWY-62, Belleville, ON K8N 4Z5","postalcode":"K8N 4Z5","website":"http://www.misuracakarate.com","working_hour":"Monday 5:00 pm - 8:00 pm   Tuesday 5:00 pm - 8:00 pm   Wednesday 5:00 pm - 8:00 pm   Thursday 5:00 pm - 8:00 pm   Friday 5:00 pm - 8:00 pm","latitude":"44.2112999","longitude":"-77.4072793"},{"source":"yellow page","service_name":"Body By Sergio","category":"fitness training","phone":"613-967-2336","address":"B 110 North Front St, Belleville, ON K8P 3B5","postalcode":"K8P 3B5","website":"http://www.bodybysergio.com","working_hour":"Monday 9:30 am - 8:00 pm   Tuesday 9:30 am - 8:00 pm   Wednesday 9:30 am - 8:00 pm   Thursday 9:30 am - 8:00 pm   Friday 9:00 am - 5:00 pm","latitude":"44.175888","longitude":"-77.389831"},{"source":"yellow page","service_name":"Crossfit Belleville","category":"fitness training","phone":"6139665301","address":"6833 Hwy 62, Belleville, ON K8N 4Z5","postalcode":"K8N 4Z5","website":" ","working_hour":"","latitude":"44.2112999","longitude":"-77.4072793"},{"source":"yellow page","service_name":"Tyendinaga Fitness Resource Centre","category":"fitness training","phone":"613-962-2822","address":"1-14 York Rd, Shannonville, ON K0K 3A0","postalcode":"K0K 3A0","website":"http://mbq-tmt.org/community-services/tyendinaga-fitness-resource-centre","working_hour":"Monday 6:30 am - 8:00 pm   Tuesday 6:30 am - 8:00 pm   Wednesday 6:30 am - 8:00 pm   Thursday 6:30 am - 8:00 pm   Friday 6:30 am - 6:00 pm   Saturday 8:00 am - 1:00 pm","latitude":"44.1968007","longitude":"-77.2301512"},{"source":"yellow page","service_name":"Achieve Fitness Training","category":"fitness training","phone":"6134034348","address":"23 Spruce Gdns, Belleville, ON K8N 5W3","postalcode":"K8N 5W3","website":"http://www.achieve-fitness.com/","working_hour":"","latitude":"44.180977","longitude":"-77.347771"},{"source":"yellow page","service_name":"Richmond Fitness Centre","category":"fitness training","phone":"613-354-2454","address":"16 McPherson Dr, Napanee, ON K7R 3L1","postalcode":"K7R 3L1","website":" ","working_hour":"Monday 9:00 am - 6:00 pm   Tuesday 9:00 am - 6:00 pm   Wednesday 9:00 am - 6:00 pm   Thursday 9:00 am - 6:00 pm   Friday 9:00 am - 6:00 pm   Saturday 8:00 am - 3:00 pm   Sunday 8:00 am - 3:00 pm","latitude":"44.2594955","longitude":"-76.9705438"},{"source":"yellow page","service_name":"Bancroft Fitness","category":"fitness training","phone":"613-332-6257","address":"26596 Hwy 62, Bancroft, ON K0L 2L0","postalcode":"K0L 2L0","website":"http://bancroftfitness.com","working_hour":"","latitude":"45.0334116","longitude":"-77.8214958"},{"source":"yellow page","service_name":"Curves Alexandria","category":"fitness training","phone":"613-525-0149","address":"325 Alexandria Main, Alexandria, ON K0K 1A0","postalcode":"K0K 1A0","website":" ","working_hour":"Monday 7:00 am - 8:00 pm   Tuesday 7:00 am - 8:00 pm   Wednesday 7:00 am - 8:00 pm   Thursday 7:00 am - 8:00 pm   Friday 7:00 am - 6:00 pm   Saturday 8:00 am - 12:00 pm","latitude":"44.081596","longitude":"-77.395078"},{"source":"yellow page","service_name":"GoodLife Fitness","category":"fitness training","phone":"613-968-5628","address":"390 North Front St, Belleville, ON K8P 3E1","postalcode":"K8P 3E1","website":" ","working_hour":"24 hours a day - 7 days a week","latitude":"44.188332","longitude":"-77.3964436"},{"source":"yellow page","service_name":"Youngs Fitness Point","category":"fitness training","phone":"7056528222","address":"2108 Nathaway Dr, ON K0L 2H0","postalcode":"K0L 2H0","website":" ","working_hour":"","latitude":"44.583732","longitude":"-78.191368"},{"source":"yellow page","service_name":"Fitness Powers","category":"fitness training","phone":"613-471-1515","address":"231 Picton Main St, Picton, ON K0K 2T0","postalcode":"K0K 2T0","website":" ","working_hour":"","latitude":"44.0077066","longitude":"-77.1410077"},{"source":"yellow page","service_name":"Body Shop X-Training Company","category":"fitness training","phone":"613-827-4159","address":"32 County Rd 3, Belleville, ON K8N 4Z7","postalcode":"K8N 4Z7","website":" ","working_hour":"","latitude":"44.1409616","longitude":"-77.3858006"},{"source":"yellow page","service_name":"YMCA","category":"fitness training","phone":"613-966-9622","address":"433 Victoria Ave, Belleville, ON K8N 2G1","postalcode":"K8N 2G1","website":" ","working_hour":"","latitude":"44.1740915","longitude":"-77.356019"},{"source":"yellow page","service_name":"Keep Fit Fitness","category":"fitness training","phone":"6133361003","address":"14163 41 Hwy, Cloyne, ON K0H 1K0","postalcode":"K0H 1K0","website":"http://keepfitbreda.nl","working_hour":"","latitude":"44.837991","longitude":"-77.14378"},{"source":"yellow page","service_name":"Kenzo Dozono's Tai-Chi School","category":"fitness training","phone":"613-962-8551","address":"497 Dundas St W, Belleville, ON K8P 1B6","postalcode":"K8P 1B6","website":" ","working_hour":"Monday 9:00 am - 5:00 pm   Tuesday 9:00 am - 5:00 pm   Wednesday 9:00 am - 5:00 pm   Thursday 9:00 am - 5:00 pm   Friday 9:00 am - 5:00 pm","latitude":"44.1454476","longitude":"-77.4135143"},{"source":"yellow page","service_name":"Curves","category":"fitness training","phone":"6133324433","address":"124 Hastings St N, Bancroft, ON K0L 1C0","postalcode":"K0L 1C0","website":" ","working_hour":"","latitude":"45.0618205","longitude":"-77.8563103"},{"source":"yellow page","service_name":"Push Fitness","category":"fitness training","phone":"7053135486","address":"2455 Deer Bay Rd, Lakefield, ON K0L 1J0","postalcode":"K0L 1J0","website":" ","working_hour":"","latitude":"44.5409868","longitude":"-78.2885215"},{"source":"yellow page","service_name":"YMCA","category":"fitness training","phone":"705-457-2132","address":"1883 Koshlong Lake Rd, Haliburton, ON K0M 1S0","postalcode":"K0M 1S0","website":"http://ymca.ca","working_hour":"","latitude":"44.9782046","longitude":"-78.4743041"},{"source":"yellow page","service_name":"Sherrie McKinney Personal Trainer","category":"fitness training","phone":"6139210608","address":"369 MacDonald Ave, Belleville, ON K8N 3Z5","postalcode":"K8N 3Z5","website":" ","working_hour":"","latitude":"44.1745597","longitude":"-77.3698816"},{"source":"yellow page","service_name":"Just Movement Fitness","category":"fitness training","phone":"705-455-7270","address":"2867 County Rd 21, Minden, ON K0M 2K0","postalcode":"K0M 2K0","website":"http://justmovementfitness.com","working_hour":"","latitude":"44.9821004","longitude":"-78.6215761"},{"source":"yellow page","service_name":"Temple Knights","category":"fitness training","phone":"705-767-1177","address":"Muskoka, Bracebridge, ON P1L 1T7","postalcode":"P1L 1T7","website":" ","working_hour":"","latitude":"45.045439","longitude":"-79.215505"},{"source":"yellow page","service_name":"Goodlife Fitness Clubs","category":"fitness training","phone":"705-750-4653","address":"1154 Chemong Rd, Peterborough, ON K9H 7J6","postalcode":"K9H 7J6","website":"http://www.goldsgym.com","working_hour":"","latitude":"44.328227","longitude":"-78.340449"},{"source":"yellow page","service_name":"Curves","category":"fitness training","phone":"705-328-2555","address":"418 County Road 36, Lindsay, ON K9V 4R3","postalcode":"K9V 4R3","website":"http://www.curves.com","working_hour":"","latitude":"44.3685299","longitude":"-78.7226213"},{"source":"yellow page","service_name":"Trent Athletics Centre","category":"fitness training","phone":"7057481257","address":"1650 West Bank Dr, Peterborough, ON K9J 7B8","postalcode":"K9J 7B8","website":" ","working_hour":"Monday 9:00 am - 5:00 pm   Tuesday 9:00 am - 5:00 pm   Wednesday 9:00 am - 5:00 pm   Thursday 9:00 am - 5:00 pm   Friday 9:00 am - 5:00 pm","latitude":"44.3554262","longitude":"-78.2955767"},{"source":"yellow page","service_name":"Lakefield Athletic Club","category":"fitness training","phone":"705-652-0323","address":"57 Bridge St, Lakefield, ON K0L 2H0","postalcode":"K0L 2H0","website":"http://www.lakefieldathleticclub.ca","working_hour":"Monday 5:30 am - 8:00 pm   Tuesday 5:30 am - 8:00 pm   Wednesday 5:30 am - 8:00 pm   Thursday 5:30 am - 8:00 pm   Friday 5:30 am - 7:00 pm   Saturday 8:00 am - 1:00 pm","latitude":"44.4207246","longitude":"-78.2768015"},{"source":"yellow page","service_name":"T-Zone Peterborough","category":"fitness training","phone":"705-775-5506","address":"180 Barnardo Ave, Peterborough, ON K9H 5V3","postalcode":"K9H 5V3","website":"http://www.tzonepeterborough.com","working_hour":"","latitude":"44.319297","longitude":"-78.320982"},{"source":"yellow page","service_name":"GoodLife Fitness","category":"fitness training","phone":"705-743-9439","address":"1154 Chemong Rd, Peterborough, ON K9H 7J6","postalcode":"K9H 7J6","website":" ","working_hour":"24 hours a day - 7 days a week","latitude":"44.328227","longitude":"-78.340449"},{"source":"yellow page","service_name":"Prowess Strenght & Conditioning","category":"fitness training","phone":"705-761-4630","address":"1729 Bissonette Dr, Peterborough, ON K9H 0B7","postalcode":"K9H 0B7","website":" ","working_hour":"","latitude":"44.3377039","longitude":"-78.305632"},{"source":"yellow page","service_name":"Francis Fitness Systems Inc","category":"fitness training","phone":"705-880-2100","address":"6 Ridout St, Lindsay, ON K9V 2A9","postalcode":"K9V 2A9","website":" ","working_hour":"","latitude":"44.3555139","longitude":"-78.734082"},{"source":"yellow page","service_name":"Soldiers of Fitness Lindsay","category":"fitness training","phone":"705-464-0529","address":"107 Lindsay St S, Lindsay, ON K9V 2M5","postalcode":"K9V 2M5","website":" ","working_hour":"","latitude":"44.3499009","longitude":"-78.7322365"},{"source":"yellow page","service_name":"World Championship Martial Arts","category":"fitness training","phone":"705-400-8245","address":"871 Chemong Rd, Peterborough, ON K9H 5Z5","postalcode":"K9H 5Z5","website":" ","working_hour":"Monday 7:00 am - 10:00 pm   Tuesday 7:00 am - 10:00 pm   Wednesday 7:00 am - 10:00 pm   Thursday 7:00 am - 10:00 pm   Friday 7:00 am - 10:00 pm   Saturday 9:30 am - 4:00 pm","latitude":"44.319364","longitude":"-78.331887"},{"source":"yellow page","service_name":"Empowered Fitness","category":"fitness training","phone":"7059310245","address":"866 Chemong Rd, Peterborough, ON K9H 5Z8","postalcode":"K9H 5Z8","website":" ","working_hour":"Monday 5:00 am - 9:00 pm   Tuesday 5:00 am - 9:00 pm   Wednesday 5:00 am - 9:00 pm   Thursday 5:00 am - 9:00 pm   Friday 5:00 am - 9:00 pm   Saturday 6:30 am - 4:00 pm   Sunday 10:00 am - 12:00 pm","latitude":"44.319553","longitude":"-78.332079"},{"source":"yellow page","service_name":"Goodlife Fitness Centres","category":"fitness training","phone":"6137497418","address":"1525 City Park Dr, Gloucester, ON K1J 1H3","postalcode":"K1J 1H3","website":" ","working_hour":"","latitude":"45.4314125","longitude":"-75.6176001"},{"source":"yellow page","service_name":"Curves","category":"fitness training","phone":"613-747-2100","address":"C1-2200 Montreal Rd, Gloucester, ON K1J 6M5","postalcode":"K1J 6M5","website":"http://curves.com","working_hour":"","latitude":"45.450262","longitude":"-75.587074"},{"source":"yellow page","service_name":"Anytime Fitness","category":"fitness training","phone":"6136804777","address":"2084 Montreal Rd, Gloucester, ON K1J 6M9","postalcode":"K1J 6M9","website":" ","working_hour":"","latitude":"45.447494","longitude":"-75.593701"},{"source":"yellow page","service_name":"Peak Performance (Ottawa)","category":"fitness training","phone":"613-748-0514","address":"2397 Ogilvie Rd, Gloucester, ON K1J 7N4","postalcode":"K1J 7N4","website":" ","working_hour":"","latitude":"45.457357","longitude":"-75.600622"},{"source":"yellow page","service_name":"Beaudoin Karaté Gatineau","category":"fitness training","phone":"819-663-3365","address":"914, boul Maloney E, Gatineau, QC J8P 1H5","postalcode":"J8P 1H5","website":" ","working_hour":"","latitude":"45.489869","longitude":"-75.596487"},{"source":"yellow page","service_name":"Popeye's Supplements","category":"fitness training","phone":"613-741-6486","address":"1021 Cyrville Road, Ottawa, ON K1K 3B5","postalcode":"K1K 3B5","website":"http://www.popeyescanada.com/","working_hour":"","latitude":"45.425395","longitude":"-75.637007"},{"source":"yellow page","service_name":"Château Nouvel Age","category":"fitness training","phone":"819-663-9393","address":"818, boul Maloney E, Gatineau, QC J8P 1G8","postalcode":"J8P 1G8","website":"http://www.chateaunouvelage.com","working_hour":"","latitude":"45.483707","longitude":"-75.611034"},{"source":"yellow page","service_name":"Team Busido Mma Fitness CenterInc.","category":"fitness training","phone":"613-260-8262","address":"1580 Liverpool Crt, Ottawa, ON K1B 4L2","postalcode":"K1B 4L2","website":"http://www.ottawammaonline.com","working_hour":"","latitude":"45.411704","longitude":"-75.623289"},{"source":"yellow page","service_name":"HEO Performance Centre","category":"fitness training","phone":"613-740-0123","address":"813 Shefford Rd, Gloucester, ON K1J 8H9","postalcode":"K1J 8H9","website":" ","working_hour":"","latitude":"45.45738","longitude":"-75.59214"},{"source":"yellow page","service_name":"Epic Fitness Ottawa","category":"fitness training","phone":"613-741-4348","address":"1459 Ogilvie Rd, Gloucester, ON K1J 8K6","postalcode":"K1J 8K6","website":" ","working_hour":"","latitude":"45.431955","longitude":"-75.617298"},{"source":"yellow page","service_name":"Global Fitness Solutions","category":"fitness training","phone":"6137478984","address":"2013 Ogilvie Rd, Gloucester, ON K1J 7P2","postalcode":"K1J 7P2","website":" ","working_hour":"","latitude":"45.435913","longitude":"-75.607617"},{"source":"yellow page","service_name":"Proflex Gym","category":"fitness training","phone":"819-669-6100","address":"630, boul Maloney E, Gatineau, QC J8P 7M4","postalcode":"J8P 7M4","website":" ","working_hour":"Monday 7:00 am - 10:00 pm   Tuesday 7:00 am - 10:00 pm   Wednesday 7:00 am - 10:00 pm   Thursday 7:00 am - 10:00 pm   Friday 7:00 am - 10:00 pm   Saturday 10:00 am - 4:00 pm   Sunday 10:00 am - 4:00 pm","latitude":"45.484008","longitude":"-75.627226"},{"source":"yellow page","service_name":"GoodLife Fitness","category":"fitness training","phone":"613-746-6410","address":"1980 Ogilvie Rd, Ottawa, ON K1J 9L3","postalcode":"K1J 9L3","website":" ","working_hour":"Monday 7:00 am - 10:00 pm   Tuesday 7:00 am - 10:00 pm   Wednesday 7:00 am - 10:00 pm   Thursday 7:00 am - 9:00 pm   Friday 7:00 am - 9:00 pm   Saturday 8:00 am - 6:00 pm   Sunday 9:00 am - 5:00 pm","latitude":"45.434174","longitude":"-75.611513"},{"source":"yellow page","service_name":"GYM LE 1870","category":"fitness training","phone":"819-669-0303","address":"630, boul Maloney E, Gatineau, QC J8P 7M4","postalcode":"J8P 7M4","website":" ","working_hour":"","latitude":"45.484008","longitude":"-75.627226"},{"source":"yellow page","service_name":"Enterprise D'Entrainement","category":"fitness training","phone":"6137420633","address":"325 Montreal Rd, Vanier, ON K1L 6B4","postalcode":"K1L 6B4","website":" ","working_hour":"","latitude":"45.437676","longitude":"-75.657256"},{"source":"yellow page","service_name":"Function to Fitness","category":"fitness training","phone":"613-296-8276","address":"136 Carwood Cir, Ottawa, ON K1K 4V6","postalcode":"K1K 4V6","website":" ","working_hour":"","latitude":"45.444586","longitude":"-75.631117"},{"source":"yellow page","service_name":"NX Martial Arts & Fitness","category":"fitness training","phone":"6138414111","address":"1344 Youville Dr, Orleans, ON K1C 2X8","postalcode":"K1C 2X8","website":"http://www.nxmartialarts.com","working_hour":"","latitude":"45.462335","longitude":"-75.549606"},{"source":"yellow page","service_name":"Oodi Boodi","category":"fitness training","phone":"6138996923","address":"1786 Stonehenge Cres, Gloucester, ON K1B 4Z9","postalcode":"K1B 4Z9","website":" ","working_hour":"Monday 10:00 am - 8:00 pm   Tuesday 10:00 am - 8:00 pm   Wednesday 10:00 am - 8:00 pm   Thursday 10:00 am - 8:00 pm   Friday 10:00 am - 8:00 pm   Saturday 10:00 am - 8:00 pm   Sunday 10:00 am - 8:00 pm","latitude":"45.418676","longitude":"-75.602301"},{"source":"yellow page","service_name":"GoodLife Fitness","category":"fitness training","phone":"613-741-2566","address":"43-1200 St. Laurent Blvd, Ottawa, ON K1K 3B8","postalcode":"K1K 3B8","website":" ","working_hour":"Monday 5:30 am - 12:00 am   Tuesday 12:00 am - 12:00 am   Wednesday 12:00 am - 12:00 am   Thursday 12:00 am - 12:00 am   Friday 12:00 am - 10:00 pm   Saturday 8:00 am - 9:00 pm   Sunday 8:00 am - 6:00 pm","latitude":"45.423347","longitude":"-75.63691"},{"source":"yellow page","service_name":"Empower Fitness","category":"fitness training","phone":"613-884-9401","address":"A-2640 Lancaster Rd, Ottawa, ON K1B 4Z4","postalcode":"K1B 4Z4","website":" ","working_hour":"","latitude":"45.398801","longitude":"-75.611277"},{"source":"yellow page","service_name":"Rockland Fitness Wharehouse","category":"fitness training","phone":"6138376912","address":"2181 St. Joseph Blvd, Orleans, ON K1C 1E7","postalcode":"K1C 1E7","website":" ","working_hour":"","latitude":"45.467067","longitude":"-75.533706"},{"source":"yellow page","service_name":"Movati Athletic","category":"fitness training","phone":"613-824-4100","address":"3772 Innes Rd, Orleans, ON K1W 0C8","postalcode":"K1W 0C8","website":" ","working_hour":"","latitude":"45.4510655","longitude":"-75.5160924"},{"source":"yellow page","service_name":"Greco Lean and Fit","category":"fitness training","phone":"613-526-5326","address":"2525 Lancaster Rd, Ottawa, ON K1B 4L5","postalcode":"K1B 4L5","website":"http://grecoleanandfit.com","working_hour":"","latitude":"45.401352","longitude":"-75.614895"},{"source":"yellow page","service_name":"Barry Jones","category":"fitness training","phone":"613-837-4774","address":"6000 Voyageur Dr, Orleans, ON K1C 2K1","postalcode":"K1C 2K1","website":" ","working_hour":"","latitude":"45.475991","longitude":"-75.548378"},{"source":"yellow page","service_name":"Capital Courts","category":"fitness training","phone":"613-841-2282","address":"1671 Vimont Crt, Orléans, ON K4A 3M3","postalcode":"K4A 3M3","website":" ","working_hour":"","latitude":"45.491298","longitude":"-75.48446"},{"source":"yellow page","service_name":"The Athletic Club","category":"fitness training","phone":"6138249714","address":"3772 Innes Rd, Orleans, ON K1W 0C8","postalcode":"K1W 0C8","website":" ","working_hour":"","latitude":"45.4510655","longitude":"-75.5160924"},{"source":"yellow page","service_name":"Starr Gymnastics","category":"fitness training","phone":"613-424-7827","address":"520 Lacolle Way, Orleans, ON K4A 0N9","postalcode":"K4A 0N9","website":"http://starrgymnastics.com","working_hour":"","latitude":"45.490578","longitude":"-75.48204"},{"source":"yellow page","service_name":"National Capital Fitness","category":"fitness training","phone":"613-276-3481","address":"1543 Prestwick Dr, Orleans, ON K1E 1S4","postalcode":"K1E 1S4","website":" ","working_hour":"","latitude":"45.470358","longitude":"-75.498338"},{"source":"yellow page","service_name":"GoodLife Fitness","category":"fitness training","phone":"6138376462","address":"110 Place D'Orleans Dr, Ottawa, ON K1C 2L9","postalcode":"K1C 2L9","website":" ","working_hour":"","latitude":"45.479578","longitude":"-75.51685"},{"source":"yellow page","service_name":"GoodLife Fitness","category":"fitness training","phone":"613-824-6482","address":"1777 Tenth Line Rd, Orleans, ON K1E 3X2","postalcode":"K1E 3X2","website":" ","working_hour":"24 hours a day - 7 days a week","latitude":"45.4657759","longitude":"-75.4905667"},{"source":"yellow page","service_name":"Greco Lean and Fit","category":"fitness training","phone":"613-841-7777","address":"1224 Place d'Orleans Dr, Ottawa, ON K1C 7K3","postalcode":"K1C 7K3","website":" ","working_hour":"","latitude":"45.4772812","longitude":"-75.5202165"},{"source":"yellow page","service_name":"Synergy Spa","category":"fitness training","phone":"613-824-5655","address":"1-1180 Place D'Orleans Dr, Orleans, ON K1C 7K3","postalcode":"K1C 7K3","website":"http://synergyspa.ca","working_hour":"Monday 9:00 am - 5:00 pm   Tuesday 9:00 am - 9:00 pm   Wednesday 9:00 am - 9:00 pm   Thursday 9:00 am - 9:00 pm   Friday 9:00 am - 8:00 pm   Saturday 9:00 am - 5:00 pm   Sunday 11:00 am - 5:00 pm","latitude":"45.4763995","longitude":"-75.5193914"},{"source":"yellow page","service_name":"YMCA","category":"fitness training","phone":"6138304199","address":"265 Centrum Blvd, Orléans, ON K1E 3X7","postalcode":"K1E 3X7","website":" ","working_hour":"","latitude":"45.481007","longitude":"-75.508957"},{"source":"yellow page","service_name":"Anytime Fitness","category":"fitness training","phone":"613-424-6900","address":"2-2288 Tenth Line Rd, Orleans, ON K4A 0X4","postalcode":"K4A 0X4","website":" ","working_hour":"","latitude":"45.4510191","longitude":"-75.4823167"},{"source":"yellow page","service_name":"Centre D'Entrainement","category":"fitness training","phone":"819-669-9090","address":"208, boul de l'Aéroport, Gatineau, QC J8R 3X3","postalcode":"J8R 3X3","website":" ","working_hour":"","latitude":"45.510024","longitude":"-75.561824"},{"source":"yellow page","service_name":"100% Gym","category":"fitness training","phone":"8196433040","address":"365 ch Industriel, Gatineau, QC J8R 3S6","postalcode":"J8R 3S6","website":"http://www.100pourcentgym.com/","working_hour":"Monday 6:00 am - 10:00 pm   Tuesday 6:00 am - 10:00 pm   Wednesday 6:00 am - 10:00 pm   Thursday 6:00 am - 10:00 pm   Friday 6:00 am - 9:00 pm   Saturday 9:00 am - 4:00 pm   Sunday 9:00 am - 4:00 pm","latitude":"45.514992","longitude":"-75.563"},{"source":"yellow page","service_name":"Curves","category":"fitness training","phone":"613-733-7305","address":"1A-1574 Walkley Rd, Ottawa, ON K1V 6P5","postalcode":"K1V 6P5","website":"http://curves.com","working_hour":"","latitude":"45.37662","longitude":"-75.646851"},{"source":"yellow page","service_name":"Body Basics","category":"fitness training","phone":"6135215777","address":"5-2285D St. Laurent Blvd, Ottawa, ON K1G 4Z7","postalcode":"K1G 4Z7","website":" ","working_hour":"","latitude":"45.3855409","longitude":"-75.6164261"},{"source":"yellow page","service_name":"Harvest House Training Centre","category":"fitness training","phone":"6137389280","address":"2295 Stevenage Dr, Ottawa, ON K1G 3W1","postalcode":"K1G 3W1","website":" ","working_hour":"","latitude":"45.378838","longitude":"-75.611193"},{"source":"yellow page","service_name":"Movati Athletic","category":"fitness training","phone":"613-789-7736","address":"195 Trainyards Dr, Ottawa, ON K1G 3X8","postalcode":"K1G 3X8","website":" ","working_hour":"","latitude":"45.4148655","longitude":"-75.64289"},{"source":"yellow page","service_name":"100 Percent Martial Arts & Fitness","category":"fitness training","phone":"6132481616","address":"1529 Bank St, Ottawa, ON K1H 7Z1","postalcode":"K1H 7Z1","website":" ","working_hour":"","latitude":"45.3808963","longitude":"-75.668754"},{"source":"yellow page","service_name":"Orange Theory Fitness","category":"fitness training","phone":"6138000860","address":"1001 Daze St, Ottawa, ON K1V 2G3","postalcode":"K1V 2G3","website":" ","working_hour":"","latitude":"45.3542833","longitude":"-75.6523608"},{"source":"yellow page","service_name":"Athletics Canada","category":"fitness training","phone":"6132605580","address":"2445 St. Laurent Blvd, Ottawa, ON K1G 6C3","postalcode":"K1G 6C3","website":" ","working_hour":"","latitude":"45.381758","longitude":"-75.626471"},{"source":"yellow page","service_name":"Fitness Depot","category":"fitness training","phone":"613-247-8888","address":"499 Industrial Ave, Ottawa, ON K1G 0Z1","postalcode":"K1G 0Z1","website":"http://www.fitnessdepotottawa.com","working_hour":"","latitude":"45.412037","longitude":"-75.648221"},{"source":"yellow page","service_name":"New Body Dimensions","category":"fitness training","phone":"613-733-1911","address":"1800 St. Laurent Blvd, Ottawa, ON K1G 1A2","postalcode":"K1G 1A2","website":"http://newbodydimensions.ca/","working_hour":"Monday 5:00 am - 11:30 pm   Tuesday 5:00 am - 11:30 pm   Wednesday 5:00 am - 11:30 pm   Thursday 5:00 am - 11:30 pm   Friday 5:00 am - 11:30 pm   Saturday 8:00 am - 8:00 pm   Sunday 9:00 am - 7:00 pm","latitude":"45.404288","longitude":"-75.626134"},{"source":"yellow page","service_name":"City of Ottawa","category":"fitness training","phone":"613-580-2805","address":"363 Lorry Greenberg Dr, Ottawa, ON K1T 3P8","postalcode":"K1T 3P8","website":" ","working_hour":"","latitude":"45.3631576","longitude":"-75.634682"},{"source":"yellow page","service_name":"GoodLife Fitness","category":"fitness training","phone":"613-526-0917","address":"2020 Walkley Rd, Ottawa, ON K1G 6S6","postalcode":"K1G 6S6","website":" ","working_hour":"","latitude":"45.384253","longitude":"-75.62896"},{"source":"yellow page","service_name":"YMCA","category":"fitness training","phone":"6137885000","address":"180 Argyle Ave, Ottawa, ON K2P 1B7","postalcode":"K2P 1B7","website":" ","working_hour":"","latitude":"45.411689","longitude":"-75.689621"},{"source":"yellow page","service_name":"Free Form Fitness","category":"fitness training","phone":"6137024606","address":"787 Bank St, Ottawa, ON K1S 3V5","postalcode":"K1S 3V5","website":" ","working_hour":"","latitude":"45.4031331","longitude":"-75.688427"},{"source":"yellow page","service_name":"In-Side-Out Consulting Wellness Centre AndNutrition Consultation","category":"fitness training","phone":"613-795-4175","address":"1-81 Florence St, Ottawa, ON K1R 5N1","postalcode":"K1R 5N1","website":" ","working_hour":"","latitude":"45.411499","longitude":"-75.697154"},{"source":"yellow page","service_name":"YMCA","category":"fitness training","phone":"6132385462","address":"308-240 Catherine St, Ottawa, ON K2P 2G8","postalcode":"K2P 2G8","website":" ","working_hour":"","latitude":"45.40908","longitude":"-75.693077"},{"source":"yellow page","service_name":"Greco Lean and Fit","category":"fitness training","phone":"613-565-6060","address":"34 Beech St, Ottawa, ON K1S 3J6","postalcode":"K1S 3J6","website":"http://grecoleanandfit.com","working_hour":"","latitude":"45.4009467","longitude":"-75.7083381"},{"source":"yellow page","service_name":"Greco Lean and Fit","category":"fitness training","phone":"6136955326","address":"1650 Queensdale Ave, Gloucester, ON K1T 1N8","postalcode":"K1T 1N8","website":"http://grecoleanandfit.com","working_hour":"","latitude":"45.3469025","longitude":"-75.6270546"},{"source":"yellow page","service_name":"AIM Fitness","category":"fitness training","phone":"613-869-3246","address":"Fourth Av, ON K1S 2L4","postalcode":"K1S 2L4","website":" ","working_hour":"","latitude":"45.401723","longitude":"-75.689123"},{"source":"yellow page","service_name":"GoodLife Fitness","category":"fitness training","phone":"6135237083","address":"501 Smyth Rd, Ottawa, ON K1H 8L6","postalcode":"K1H 8L6","website":" ","working_hour":"","latitude":"45.399315","longitude":"-75.6485685"},{"source":"yellow page","service_name":"Curves","category":"fitness training","phone":"6135211333","address":"1185 Bank St, Ottawa, ON K1S 3X7","postalcode":"K1S 3X7","website":" ","working_hour":"","latitude":"45.3920642","longitude":"-75.6816297"},{"source":"yellow page","service_name":"GoodLife Fitness","category":"fitness training","phone":"6132389668","address":"110-900 Exhibition Way, Ottawa, ON K1S 5J3","postalcode":"K1S 5J3","website":" ","working_hour":"Monday 5:30 am - 12:00 am   Tuesday 12:00 am - 12:00 am   Wednesday 12:00 am - 12:00 am   Thursday 12:00 am - 12:00 am   Friday 12:00 am - 10:00 pm   Saturday 7:00 am - 7:00 pm   Sunday 7:00 am - 7:00 pm","latitude":"45.399103","longitude":"-75.684722"},{"source":"yellow page","service_name":"Topshape Fitness","category":"fitness training","phone":"613-236-3670","address":"18 Louisa St, Ottawa, ON K1R 6Y6","postalcode":"K1R 6Y6","website":"http://www.topshape.ca","working_hour":"24 hours a day - 7 days a week","latitude":"45.405687","longitude":"-75.706026"},{"source":"yellow page","service_name":"Glebe Fitness Inc","category":"fitness training","phone":"613-237-4747","address":"858 Rue Bank, Ottawa, ON K1S 3W3","postalcode":"K1S 3W3","website":"http://www.glebefitness.com","working_hour":"","latitude":"45.401191","longitude":"-75.687516"},{"source":"yellow page","service_name":"Anytime Fitness","category":"fitness training","phone":"6136952407","address":"901 Carling Ave, Ottawa, ON K1Y 4E3","postalcode":"K1Y 4E3","website":" ","working_hour":"","latitude":"45.395917","longitude":"-75.7116269"},{"source":"yellow page","service_name":"Curves Gatineau","category":"fitness training","phone":"819-663-3000","address":"267, rue Notre-Dame, Gatineau, QC J8P 1K5","postalcode":"J8P 1K5","website":" ","working_hour":"","latitude":"45.4819032","longitude":"-75.645928"},{"source":"yellow page","service_name":"Gym Max Gatineau","category":"fitness training","phone":"819-246-0496","address":"105, rue Bellehumeur, Gatineau, QC J8T 6K5","postalcode":"J8T 6K5","website":"http://www.gym-max.com","working_hour":"24 hours a day - 7 days a week   Open 24 Hours","latitude":"45.476357","longitude":"-75.692208"},{"source":"yellow page","service_name":"Survivor Bootcamp Ottawa","category":"fitness training","phone":"613-618-8400","address":"New Edinburgh Park, Ottawa, ON K1M 1P2","postalcode":"K1M 1P2","website":" ","working_hour":"","latitude":"45.439709","longitude":"-75.687573"},{"source":"yellow page","service_name":"Enterprise D'Entrainement","category":"fitness training","phone":"6137441012","address":"1st-290 Dupuis St, Vanier, ON K1L 1A2","postalcode":"K1L 1A2","website":" ","working_hour":"","latitude":"45.435635","longitude":"-75.661365"},{"source":"yellow page","service_name":"The Shift - Yoga with Alison - RYT","category":"fitness training","phone":"343-777-5590","address":"18 Langevin Ave, Ottawa, ON K1M 1E9","postalcode":"K1M 1E9","website":" ","working_hour":"","latitude":"45.441014","longitude":"-75.674658"},{"source":"yellow page","service_name":"Curves","category":"fitness training","phone":"819-246-6669","address":"3/4-130, boul Gréber, Gatineau, QC J8T 6H5","postalcode":"J8T 6H5","website":"http://curves.com","working_hour":"","latitude":"45.467934","longitude":"-75.70055"},{"source":"yellow page","service_name":"GoodLife Fitness","category":"fitness training","phone":"613-842-8797","address":"100 McArthur Ave, Vanier, ON K1L 6P9","postalcode":"K1L 6P9","website":" ","working_hour":"Monday 7:00 am - 10:00 pm   Tuesday 7:00 am - 10:00 pm   Wednesday 7:00 am - 10:00 pm   Thursday 7:00 am - 9:00 pm   Friday 7:00 am - 9:00 pm   Saturday 8:00 am - 6:00 pm   Sunday 9:00 am - 6:00 pm","latitude":"45.43096","longitude":"-75.664937"},{"source":"yellow page","service_name":"Wild Spirit Yoga","category":"fitness training","phone":"613-897-5244","address":"245 Glynn Ave, Ottawa, ON K1K 1S2","postalcode":"K1K 1S2","website":" ","working_hour":"","latitude":"45.426181","longitude":"-75.656614"},{"source":"yellow page","service_name":"Gym Xtrême","category":"fitness training","phone":"819-205-1398","address":"775, rue Jacques-Cartier, Gatineau, QC J8T 2V2","postalcode":"J8T 2V2","website":" ","working_hour":"","latitude":"45.4578613","longitude":"-75.7003105"},{"source":"yellow page","service_name":"Anytime Fitness","category":"fitness training","phone":"6134219523","address":"96 George St, Ottawa, ON K1N 5W1","postalcode":"K1N 5W1","website":" ","working_hour":"","latitude":"45.4278178","longitude":"-75.6904813"},{"source":"yellow page","service_name":"Urban Ocean","category":"fitness training","phone":"613-808-6655","address":"10 Lady Grey Dr, Ottawa, ON K1A 0G8","postalcode":"K1A 0G8","website":" ","working_hour":"","latitude":"45.4344221","longitude":"-75.6997227"},{"source":"yellow page","service_name":"Therien Marshall Arts","category":"fitness training","phone":"6137465402","address":"59 Montreal Rd, Vanier, ON K1L 6E8","postalcode":"K1L 6E8","website":"http://www.jiu-jitsu.com","working_hour":"","latitude":"45.433612","longitude":"-75.6679599"},{"source":"yellow page","service_name":"Fitness Fusion","category":"fitness training","phone":"6136807276","address":"333 Cumberland St, Ottawa, ON K1N 7J3","postalcode":"K1N 7J3","website":"http://www.fitnessfusionstudio.com","working_hour":"","latitude":"45.430145","longitude":"-75.689243"},{"source":"yellow page","service_name":"Nautilus Plus","category":"fitness training","phone":"819-561-6555","address":"920, boul Maloney O, Gatineau, QC J8T 3R6","postalcode":"J8T 3R6","website":" ","working_hour":"","latitude":"45.479267","longitude":"-75.689874"},{"source":"yellow page","service_name":"Free Form Fitness","category":"fitness training","phone":"613-695-4348","address":"281 Rue Dalhousie, Ottawa, ON K1N 7E5","postalcode":"K1N 7E5","website":" ","working_hour":"","latitude":"45.429992","longitude":"-75.6920523"},{"source":"yellow page","service_name":"Éconofitness","category":"fitness training","phone":"8192054493","address":"85 ch de la Savane, Gatineau, QC J8T 6G3","postalcode":"J8T 6G3","website":" ","working_hour":"Monday 6:00 am - 11:00 pm   Tuesday 6:00 am - 11:00 pm   Wednesday 6:00 am - 11:00 pm   Thursday 6:00 am - 11:00 pm   Friday 6:00 am - 11:00 pm   Saturday 8:00 am - 8:00 pm   Sunday 8:00 am - 8:00 pm","latitude":"45.474329","longitude":"-75.695109"},{"source":"yellow page","service_name":"Greco Lean and Fit","category":"fitness training","phone":"6136956466","address":"700 Sussex Dr, Ottawa, ON K1N 1K4","postalcode":"K1N 1K4","website":" ","working_hour":"","latitude":"45.425902","longitude":"-75.693741"},{"source":"yellow page","service_name":"Executive Fitness Leaders","category":"fitness training","phone":"613-560-7337","address":"11 Colonel By Dr, Ottawa, ON K1N 9H4","postalcode":"K1N 9H4","website":" ","working_hour":"","latitude":"45.4251051","longitude":"-75.6929806"},{"source":"yellow page","service_name":"GoodLife Fitness","category":"fitness training","phone":"613-567-0037","address":"50 Rideau St, Ottawa, ON K1N 9J7","postalcode":"K1N 9J7","website":" ","working_hour":"Monday 6:00 am - 12:00 am   Tuesday 6:00 am - 12:00 am   Wednesday 6:00 am - 12:00 am   Thursday 6:00 am - 12:00 am   Friday 6:00 am - 12:00 am   Saturday 9:00 am - 6:00 pm   Sunday 9:00 am - 6:00 pm","latitude":"45.4259914","longitude":"-75.6921741"},{"source":"yellow page","service_name":"Champagne Fitness Center - City Of Ottawa","category":"fitness training","phone":"613-244-4402","address":"321 King Edward Ave, Ottawa, ON K1N 7M5","postalcode":"K1N 7M5","website":" ","working_hour":"","latitude":"45.430496","longitude":"-75.687096"},{"source":"yellow page","service_name":"Melt Method Ottawa","category":"fitness training","phone":"613-882-6358","address":"88-110 Didsbury Rd, Kanata, ON K2T 0C2","postalcode":"K2T 0C2","website":" ","working_hour":"","latitude":"45.3084335","longitude":"-75.9160284"},{"source":"yellow page","service_name":"Peak Centre For Human Performance","category":"fitness training","phone":"613-912-1275","address":"1565 Maple Grove Rd, Kanata, ON K2V 1A3","postalcode":"K2V 1A3","website":" ","working_hour":"","latitude":"45.29612","longitude":"-75.908705"},{"source":"yellow page","service_name":"YMCA","category":"fitness training","phone":"6135910667","address":"3A-145 Roland Michener Dr, Ottawa, ON K2T 1G7","postalcode":"K2T 1G7","website":" ","working_hour":"","latitude":"45.3086704","longitude":"-75.9126881"},{"source":"yellow page","service_name":"Fortius Strength & Conditioning Inc","category":"fitness training","phone":"613-599-9828","address":"103 Schneider Rd, Kanata, ON K2K 1Y3","postalcode":"K2K 1Y3","website":" ","working_hour":"","latitude":"45.339292","longitude":"-75.902724"},{"source":"yellow page","service_name":"Curves","category":"fitness training","phone":"613-254-5704","address":"6-474 Hazeldean Rd, Kanata, ON K2L 4E5","postalcode":"K2L 4E5","website":"http://curves.com","working_hour":"","latitude":"45.297753","longitude":"-75.888866"},{"source":"yellow page","service_name":"Movati Athletic","category":"fitness training","phone":"613-832-7700","address":"19 Frank Nighbor Pl, Kanata, ON K2V 0B2","postalcode":"K2V 0B2","website":"http://www.movatiathletic.com","working_hour":"","latitude":"45.300461","longitude":"-75.9172688"},{"source":"yellow page","service_name":"Free Form Fitness","category":"fitness training","phone":"613-270-0501","address":"4043 Carling Ave, Kanata, ON K2K 2A4","postalcode":"K2K 2A4","website":" ","working_hour":"","latitude":"45.338285","longitude":"-75.904643"},{"source":"yellow page","service_name":"Greco Lean and Fit","category":"fitness training","phone":"6138360388","address":"95 Abbeyhill Dr, Kanata, ON K2L 2M8","postalcode":"K2L 2M8","website":"http://grecoleanandfit.com","working_hour":"","latitude":"45.300208","longitude":"-75.876093"},{"source":"yellow page","service_name":"Fitness Partner Canada","category":"fitness training","phone":"613-858-1994","address":"444 Hazeldean Rd, Kanata, ON K2L 1V2","postalcode":"K2L 1V2","website":" ","working_hour":"","latitude":"45.3000722","longitude":"-75.8851797"},{"source":"yellow page","service_name":"GoodLife Fitness","category":"fitness training","phone":"613-831-9849","address":"484 Hazeldean Rd, Kanata, ON K2L 1V4","postalcode":"K2L 1V4","website":" ","working_hour":"24 hours a day - 7 days a week","latitude":"45.29678","longitude":"-75.8903744"},{"source":"yellow page","service_name":"Fitness Depot","category":"fitness training","phone":"6135918988","address":"255 Kanata Ave, Kanata, ON K2T 1K5","postalcode":"K2T 1K5","website":"http://shop.fitnessdepot.ca","working_hour":"","latitude":"45.312297","longitude":"-75.906457"},{"source":"yellow page","service_name":"Greco Lean and Fit","category":"fitness training","phone":"613-591-0348","address":"100 Schneider Rd, Kanata, ON K2K 1Y2","postalcode":"K2K 1Y2","website":" ","working_hour":"","latitude":"45.339524","longitude":"-75.902829"},{"source":"yellow page","service_name":"Rink Eye Development Center","category":"fitness training","phone":"613-599-7111","address":"50 Frank Nighbor Pl, Kanata, ON K2V 1B9","postalcode":"K2V 1B9","website":" ","working_hour":"","latitude":"45.299873","longitude":"-75.916842"},{"source":"yellow page","service_name":"Evolution Physiotherapy","category":"fitness training","phone":"613-271-5800","address":"200-436 Hazeldean Rd, Kanata, ON K2L 4C6","postalcode":"K2L 4C6","website":" ","working_hour":"","latitude":"45.300961","longitude":"-75.883697"},{"source":"yellow page","service_name":"2444662Ontario Inc","category":"fitness training","phone":"6138311227","address":"457 Hazeldean, Kanata, ON K2L 1V1","postalcode":"K2L 1V1","website":" ","working_hour":"","latitude":"45.2993599","longitude":"-75.8865791"},{"source":"yellow page","service_name":"Excalibur Fencing Club","category":"fitness training","phone":"613-852-3832","address":"120 University Pvt, Ottawa, ON K1N 6N5","postalcode":"K1N 6N5","website":"http://ottawafencing.ca","working_hour":"","latitude":"45.425392","longitude":"-75.686142"},{"source":"yellow page","service_name":"Free Form Fitness","category":"fitness training","phone":"6136800413","address":"1198 Wellington St W, Ottawa, ON K1Y 2Z7","postalcode":"K1Y 2Z7","website":" ","working_hour":"","latitude":"45.4003757","longitude":"-75.730149"},{"source":"yellow page","service_name":"ACF - Andrew Clearly Fitness","category":"fitness training","phone":"6137974301","address":"5 Melrose Ave, Ottawa, ON K1Y 1T8","postalcode":"K1Y 1T8","website":" ","working_hour":"","latitude":"45.403101","longitude":"-75.72489"},{"source":"yellow page","service_name":"Free form fitness","category":"fitness training","phone":"613-422-0650","address":"1200A Wellington St W, Ottawa, ON K1Y 2Z7","postalcode":"K1Y 2Z7","website":" ","working_hour":"","latitude":"45.4003497","longitude":"-75.7302187"},{"source":"yellow page","service_name":"Ottawa Pole Fitness","category":"fitness training","phone":"613-695-7653","address":"100-1066 Somerset St W, Ottawa, ON K1Y 4T3","postalcode":"K1Y 4T3","website":" ","working_hour":"","latitude":"45.406589","longitude":"-75.720171"},{"source":"yellow page","service_name":"Iron North Fitness","category":"fitness training","phone":"613-695-2453","address":"1089 Somerset St W, Ottawa, ON K1Y 3C6","postalcode":"K1Y 3C6","website":"http://www.ironnorthfitness.com/","working_hour":"Monday 6:00 am - 9:30 pm   Tuesday 6:00 am - 9:30 pm   Wednesday 6:00 am - 9:30 pm   Thursday 6:00 am - 9:30 pm   Friday 6:00 am - 9:30 pm   Saturday 8:00 am - 2:00 pm   ***Opening Hours \"flex\" With Our Class Schedule!","latitude":"45.40625","longitude":"-75.721315"},{"source":"yellow page","service_name":"Marshall Integrated Fitness","category":"fitness training","phone":"6136956467","address":"5 Melrose Ave, Ottawa, ON K1Y 1T8","postalcode":"K1Y 1T8","website":"http://www.marshallshouse.com","working_hour":"","latitude":"45.403101","longitude":"-75.72489"},{"source":"yellow page","service_name":"Crossfit Bytown","category":"fitness training","phone":"613-680-3320","address":"1040 Somerset St W, Ottawa, ON K1Y 4L3","postalcode":"K1Y 4L3","website":" ","working_hour":"Monday 6:00 am - 9:30 pm   Tuesday 6:00 am - 9:30 pm   Wednesday 6:00 am - 9:30 pm   Thursday 6:00 am - 9:30 pm   Friday 6:00 am - 9:30 pm   Saturday 9:00 am - 3:00 pm   Sunday 9:00 am - 3:00 pm","latitude":"45.406705","longitude":"-75.718792"},{"source":"yellow page","service_name":"GoodLife Fitness","category":"fitness training","phone":"6137980824","address":"1053 Carling Ave, Ottawa, ON K1Y 4E9","postalcode":"K1Y 4E9","website":" ","working_hour":"","latitude":"45.391952","longitude":"-75.720724"},{"source":"yellow page","service_name":"Spectrum Fitness Private Studio","category":"fitness training","phone":"613-852-5230","address":"Bank & Somerset, Ottawa, ON K2P 2L6","postalcode":"K2P 2L6","website":"http://www.your-beach-body-boot-camp.com","working_hour":"","latitude":"45.415536","longitude":"-75.696315"},{"source":"yellow page","service_name":"Athletic Centre","category":"fitness training","phone":"613-237-4589","address":"200-384 Bank St, Ottawa, ON K2P 1Y4","postalcode":"K2P 1Y4","website":" ","working_hour":"","latitude":"45.4134895","longitude":"-75.6947645"},{"source":"yellow page","service_name":"Cyclefit","category":"fitness training","phone":"613-422-8766","address":"1-13 Bullman St, Ottawa, ON K1Y 2S2","postalcode":"K1Y 2S2","website":" ","working_hour":"","latitude":"45.403765","longitude":"-75.731663"},{"source":"yellow page","service_name":"Crossfit Wolvish","category":"fitness training","phone":"613-680-0101","address":"3-145 Loretta Ave N, Ottawa, ON K1Y 2J7","postalcode":"K1Y 2J7","website":" ","working_hour":"","latitude":"45.404274","longitude":"-75.716276"},{"source":"yellow page","service_name":"Fitchek Inc","category":"fitness training","phone":"613-627-4364","address":"202-28 Deakin St, Nepean, ON K2E 8B7","postalcode":"K2E 8B7","website":" ","working_hour":"","latitude":"45.331417","longitude":"-75.704223"},{"source":"yellow page","service_name":"Anytime Fitness Hunt Club","category":"fitness training","phone":"613-731-1234","address":"228 Hunt Club, Ottawa, ON K1V 1C1","postalcode":"K1V 1C1","website":"http://www.anytimefitness.com","working_hour":"Monday 9:00 am - 9:00 pm   Tuesday 9:00 am - 9:00 pm   Wednesday 9:00 am - 9:00 pm   Thursday 9:00 am - 9:00 pm   Friday 9:00 am - 9:00 pm   Saturday 9:00 am - 9:00 pm   Sunday 9:00 am - 9:00 pm","latitude":"45.3353448","longitude":"-75.6909489"},{"source":"yellow page","service_name":"Good Life Fitness Club","category":"fitness training","phone":"613-274-0270","address":"1 Roydon Pl, Nepean, ON K2E 1A3","postalcode":"K2E 1A3","website":" ","working_hour":"","latitude":"45.338497","longitude":"-75.724844"},{"source":"yellow page","service_name":"Greco Lean and Fit","category":"fitness training","phone":"6137275326","address":"46 Colonnade Rd, Nepean, ON K2E 7J6","postalcode":"K2E 7J6","website":" ","working_hour":"","latitude":"45.344286","longitude":"-75.71674"},{"source":"yellow page","service_name":"New Again Fitness","category":"fitness training","phone":"613-324-6639","address":"60 Farlane Blvd, Ottawa, ON K2E 5H6","postalcode":"K2E 5H6","website":" ","working_hour":"","latitude":"45.362848","longitude":"-75.721329"},{"source":"yellow page","service_name":"Wellness On The Rideau","category":"fitness training","phone":"613-220-3141","address":"ON K2G 1E3","postalcode":"K2G 1E3","website":"http://www.wellnessontherideau.com","working_hour":"Monday - Friday By Appointment Only","latitude":"45.335482","longitude":"-75.724218"},{"source":"yellow page","service_name":"100 Percent Martial Arts & Fitness","category":"fitness training","phone":"613-727-0303","address":"1903 Merivale Rd, Nepean, ON K2G 1E7","postalcode":"K2G 1E7","website":"http://www.100martialarts.com","working_hour":"","latitude":"45.330429","longitude":"-75.721514"},{"source":"yellow page","service_name":"GoodLife Fitness","category":"fitness training","phone":"613-739-4070","address":"5 Roydon Pl, Ottawa, ON K2E 1A3","postalcode":"K2E 1A3","website":" ","working_hour":"24 hours a day - 7 days a week","latitude":"45.338465","longitude":"-75.724921"},{"source":"yellow page","service_name":"Movati Athletic","category":"fitness training","phone":"613-515-2665","address":"1395 Meadowlands Dr E, Nepean, ON K2E 0C4","postalcode":"K2E 0C4","website":" ","working_hour":"","latitude":"45.344452","longitude":"-75.716048"},{"source":"yellow page","service_name":"Dymano Fitness","category":"fitness training","phone":"613-695-5330","address":"21 Grenfell Cres, Nepean, ON K2G 0G3","postalcode":"K2G 0G3","website":" ","working_hour":"","latitude":"45.323344","longitude":"-75.721517"},{"source":"yellow page","service_name":"TJ Fit","category":"fitness training","phone":"613-292-5275","address":"338 Somerset St W, Ottawa, ON K2P 0J9","postalcode":"K2P 0J9","website":" ","working_hour":"","latitude":"45.415804","longitude":"-75.695334"},{"source":"yellow page","service_name":"Bounce Personal Training","category":"fitness training","phone":"613-236-8481","address":"203-208 Slater St, Ottawa, ON K1P 5H8","postalcode":"K1P 5H8","website":"http://www.bouncepersonaltraining.com","working_hour":"","latitude":"45.419551","longitude":"-75.699295"},{"source":"yellow page","service_name":"Vertical Reality Inc","category":"fitness training","phone":"613-569-3903","address":"161 Middle St, Ottawa, ON K1R 6K4","postalcode":"K1R 6K4","website":"http://www.verticalreal.com","working_hour":"","latitude":"45.419136","longitude":"-75.716097"},{"source":"yellow page","service_name":"Greco Lean and Fit","category":"fitness training","phone":"8197781717","address":"190-22 rue Eddy, Gatineau, QC J8X 2V6","postalcode":"J8X 2V6","website":" ","working_hour":"","latitude":"45.425538","longitude":"-75.719847"},{"source":"yellow page","service_name":"YMCA","category":"fitness training","phone":"6137277070","address":"1642 Merivale Rd, Ottawa, ON K2G 4A1","postalcode":"K2G 4A1","website":" ","working_hour":"","latitude":"45.345851","longitude":"-75.730563"},{"source":"yellow page","service_name":"Fitness Equipment of Ottawa","category":"fitness training","phone":"6137235303","address":"1547 Merivale Rd, Nepean, ON K2G 4V3","postalcode":"K2G 4V3","website":"http://www.fitnessequipmentottawa.com","working_hour":"","latitude":"45.3547747","longitude":"-75.7356808"},{"source":"yellow page","service_name":"Strength Tek Fitness At Agriculture Canada","category":"fitness training","phone":"6132246922","address":"1303 Baseline Rd, Ottawa, ON","postalcode":"","website":" ","working_hour":"","latitude":"45.3644078","longitude":"-75.7330788"},{"source":"yellow page","service_name":"Movati Athletic Group Inc","category":"fitness training","phone":"6132258974","address":"1585 Merivale Rd, Nepean, ON K2G 3J4","postalcode":"K2G 3J4","website":" ","working_hour":"","latitude":"45.352708","longitude":"-75.734467"},{"source":"yellow page","service_name":"YMCA","category":"fitness training","phone":"6132339331","address":"99 Bank St, Ottawa, ON K1P 5A3","postalcode":"K1P 5A3","website":" ","working_hour":"","latitude":"45.420427","longitude":"-75.700596"},{"source":"yellow page","service_name":"Fitness For Freedom","category":"fitness training","phone":"613-266-8251","address":"1707 Mallard Ave, Ottawa, ON K2C 1A1","postalcode":"K2C 1A1","website":" ","working_hour":"","latitude":"45.359186","longitude":"-75.752488"},{"source":"yellow page","service_name":"Trigger's Taekwon-Do Health & Fitness","category":"fitness training","phone":"6138438301","address":"3-2910 Woodroffe Ave, Nepean, ON K2J 4G3","postalcode":"K2J 4G3","website":" ","working_hour":"","latitude":"45.2920555","longitude":"-75.7276509"},{"source":"yellow page","service_name":"Changes For Women","category":"fitness training","phone":"613-822-1503","address":"665 Earl Armstrong Rd, Gloucester, ON K1V 2G2","postalcode":"K1V 2G2","website":" ","working_hour":"","latitude":"45.269297","longitude":"-75.696482"},{"source":"yellow page","service_name":"Movati Athletic","category":"fitness training","phone":"613-515-2663","address":"15 Crestway Dr, Barrhaven, K2G 6T4","postalcode":"K2G 6T4","website":" ","working_hour":"","latitude":"45.279581","longitude":"-75.714284"},{"source":"yellow page","service_name":"New Path Fitness & Wellness","category":"fitness training","phone":"613-316-8620","address":"ON K1V 1S8","postalcode":"K1V 1S8","website":" ","working_hour":"","latitude":"45.271853","longitude":"-75.695858"},{"source":"yellow page","service_name":"Fitness Group Of Canada","category":"fitness training","phone":"613-440-0009","address":"240 Redpath Dr, Ottawa, ON K2G 6N9","postalcode":"K2G 6N9","website":" ","working_hour":"","latitude":"45.288233","longitude":"-75.712629"},{"source":"yellow page","service_name":"GoodLife Fitness","category":"fitness training","phone":"613-843-9327","address":"3181 Strandherd Dr, Ottawa, ON K2J 5N1","postalcode":"K2J 5N1","website":" ","working_hour":"24 hours a day - 7 days a week","latitude":"45.2750951","longitude":"-75.7209431"},{"source":"yellow page","service_name":"Goalie Army Academy","category":"fitness training","phone":"613-408-2422","address":"49 Woodpark Way, Ottawa, ON K2J 4C6","postalcode":"K2J 4C6","website":" ","working_hour":"","latitude":"45.290105","longitude":"-75.73173"},{"source":"yellow page","service_name":"Snap Fitness","category":"fitness training","phone":"6134403335","address":"3054 Woodroffe Ave, Ottawa, ON K2J 4G3","postalcode":"K2J 4G3","website":" ","working_hour":"","latitude":"45.284487","longitude":"-75.723337"},{"source":"yellow page","service_name":"Greco Lean and Fit","category":"fitness training","phone":"613-725-5326","address":"100-411 Roosevelt Ave, Ottawa, ON K2A 3X9","postalcode":"K2A 3X9","website":" ","working_hour":"","latitude":"45.390415","longitude":"-75.756609"},{"source":"yellow page","service_name":"Strength Tek Fitness Consulting","category":"fitness training","phone":"613-820-9682","address":"707 Highland Ave, Ottawa, ON K2A 2K5","postalcode":"K2A 2K5","website":" ","working_hour":"","latitude":"45.380077","longitude":"-75.754999"},{"source":"yellow page","service_name":"Iron Rose Women's Fitness","category":"fitness training","phone":"613-867-7673","address":"ON K1Z 5P1","postalcode":"K1Z 5P1","website":"http://ironrosepersonaltraining.com","working_hour":"","latitude":"45.3898","longitude":"-75.747487"},{"source":"yellow page","service_name":"Anytime Fitness","category":"fitness training","phone":"613-421-3770","address":"1867 Carling Ave, Ottawa, ON K2A 1E6","postalcode":"K2A 1E6","website":" ","working_hour":"","latitude":"45.376112","longitude":"-75.758016"},{"source":"yellow page","service_name":"Flow Pilates Studio & Fitness by Heather Pugh","category":"fitness training","phone":"613-729-8844","address":"1505 Carling Ave, Ottawa, ON K1Z 7L9","postalcode":"K1Z 7L9","website":"http://www.flowpilatesstudio.com","working_hour":"","latitude":"45.3828","longitude":"-75.742275"},{"source":"yellow page","service_name":"Continuum Fitness and Movement Performance","category":"fitness training","phone":"6135529498","address":"439 Churchill Ave N, Ottawa, ON K1Z 5E1","postalcode":"K1Z 5E1","website":" ","working_hour":"Monday 8:00 am - 8:00 pm   Tuesday 8:00 am - 8:00 pm   Wednesday 7:30 am - 8:00 pm   Thursday 8:00 am - 8:00 pm   Friday 8:00 am - 5:00 pm   Saturday 8:00 am - 12:00 pm   Appointment Only","latitude":"45.3906","longitude":"-75.752864"},{"source":"yellow page","service_name":"Ottawa Lifestyle Centre","category":"fitness training","phone":"613-695-6525","address":"864 Clyde Ave, Ottawa, ON K1Z 5A2","postalcode":"K1Z 5A2","website":" ","working_hour":"","latitude":"45.3768625","longitude":"-75.7487972"},{"source":"yellow page","service_name":"Anytime Fitness","category":"fitness training","phone":"613-422-8456","address":"1339 Wellington St W, Ottawa, ON K1Y 3B8","postalcode":"K1Y 3B8","website":" ","working_hour":"","latitude":"45.3984324","longitude":"-75.7379823"},{"source":"yellow page","service_name":"Trillium Academy of Irish Dance","category":"fitness training","phone":"613-878-9270","address":"1550 Chatelain Ave, Ottawa, ON K1Z 8B5","postalcode":"K1Z 8B5","website":" ","working_hour":"","latitude":"45.3746789","longitude":"-75.7416448"},{"source":"yellow page","service_name":"Université du Québec en Outaouais (UQO)Service des activités physiques et sportives (SAPS)","category":"fitness training","phone":"8195952310","address":"QC J9A 1L8","postalcode":"J9A 1L8","website":" ","working_hour":"","latitude":"45.422601","longitude":"-75.739966"},{"source":"yellow page","service_name":"Soloway Jewish Community Centre","category":"fitness training","phone":"6137989818","address":"21 Nadolny Sachs Pvt, Ottawa, ON K2A 1R9","postalcode":"K2A 1R9","website":"http://jccottawa.com","working_hour":"","latitude":"45.375923","longitude":"-75.752393"},{"source":"yellow page","service_name":"Fit Steal Live Real","category":"fitness training","phone":"343-887-6417","address":"1365 Richmond Rd, Ottawa, ON K2B 6R7","postalcode":"K2B 6R7","website":" ","working_hour":"","latitude":"45.3659737","longitude":"-75.7876977"},{"source":"yellow page","service_name":"Goldenform Sport And Fitness","category":"fitness training","phone":"6137260671","address":"36 Queensline Dr, Nepean, ON K2H 7J2","postalcode":"K2H 7J2","website":" ","working_hour":"","latitude":"45.341428","longitude":"-75.800403"},{"source":"yellow page","service_name":"Ocr Academy","category":"fitness training","phone":"613-726-0909","address":"1140 Morrison Dr, Ottawa, ON K2H 8S9","postalcode":"K2H 8S9","website":" ","working_hour":"Monday 6:00 am - 9:00 pm   Tuesday 6:00 am - 9:00 pm   Wednesday 6:00 am - 9:00 pm   Thursday 6:00 am - 9:00 pm   Friday 6:00 am - 9:00 pm   Saturday 9:00 am - 1:00 pm   Sunday 10:00 am - 12:00 pm   Private bookings/Team Building Avail. On Weekends","latitude":"45.3448390284","longitude":"-75.7972171693"},{"source":"yellow page","service_name":"Your Fit Mind Body","category":"fitness training","phone":"613-695-5225","address":"2D Ullswater Dr, Nepean, ON K2H 5H2","postalcode":"K2H 5H2","website":" ","working_hour":"","latitude":"45.352257","longitude":"-75.8402858"},{"source":"yellow page","service_name":"Creative Wheel Consulting Inc","category":"fitness training","phone":"6138205405","address":"ON K2B 6A6","postalcode":"K2B 6A6","website":" ","working_hour":"","latitude":"45.36715","longitude":"-75.800075"},{"source":"yellow page","service_name":"Pf Bells Corner Fitness","category":"fitness training","phone":"613-829-7111","address":"10 Stafford Rd, Nepean, ON K2H 8V8","postalcode":"K2H 8V8","website":" ","working_hour":"","latitude":"45.32957","longitude":"-75.818158"},{"source":"yellow page","service_name":"Taoist Tai Chi Society Of Canada","category":"fitness training","phone":"6138205042","address":"2930 Carling Ave, Ottawa, ON K2B 7J7","postalcode":"K2B 7J7","website":"http://www.taoist.org","working_hour":"","latitude":"45.356174","longitude":"-75.802451"},{"source":"yellow page","service_name":"Taoist Tai Chi","category":"fitness training","phone":"6132332318","address":"2930 Carling Ave, Ottawa, ON K2B 7J7","postalcode":"K2B 7J7","website":"http://www.taoist.org","working_hour":"","latitude":"45.356174","longitude":"-75.802451"},{"source":"yellow page","service_name":"badassbitchenterprise.com","category":"fitness training","phone":"613-617-3355","address":"Ottawa, ON K2H 5N1","postalcode":"K2H 5N1","website":" ","working_hour":"","latitude":"45.346902","longitude":"-75.832682"},{"source":"yellow page","service_name":"Stronger Everyday Bootcamp","category":"fitness training","phone":"613-763-3222","address":"","postalcode":"","website":" ","working_hour":"","latitude":"45.325223","longitude":"-75.781631"},{"source":"yellow page","service_name":"Starr Gymnastics & Fitness","category":"fitness training","phone":"6137214868","address":"1140 Morrison Dr, Ottawa, ON K2H 8S9","postalcode":"K2H 8S9","website":"http://starrgymnastics.com","working_hour":"","latitude":"45.344809","longitude":"-75.796995"},{"source":"yellow page","service_name":"GoodLife Fitness","category":"fitness training","phone":"613-226-2638","address":"1980 Baseline Rd, Ottawa, ON K2C 0C6","postalcode":"K2C 0C6","website":" ","working_hour":"Monday 7:00 am - 9:00 pm   Tuesday 7:00 am - 9:00 pm   Wednesday 7:00 am - 9:00 pm   Thursday 7:00 am - 9:00 pm   Friday 7:00 am - 9:00 pm   Saturday 8:00 am - 6:00 pm   Sunday 9:00 am - 6:00 pm","latitude":"45.351551","longitude":"-75.759077"},{"source":"yellow page","service_name":"ExerSciz Solutions Inc","category":"fitness training","phone":"613-252-2470","address":"14 Marble Arch Cres, Nepean, ON K2G 5S2","postalcode":"K2G 5S2","website":" ","working_hour":"","latitude":"45.340982","longitude":"-75.774034"},{"source":"yellow page","service_name":"GoodLife Fitness","category":"fitness training","phone":"613-820-9531","address":"2655 Queensview Dr, Ottawa, ON K2B 8K2","postalcode":"K2B 8K2","website":" ","working_hour":"Monday 6:00 am - 12:00 am   Tuesday 12:00 am - 12:00 am   Wednesday 12:00 am - 12:00 am   Thursday 12:00 am - 12:00 am   Friday 12:00 am - 10:30 pm   Saturday 8:00 am - 6:00 pm   Sunday 8:00 am - 6:00 pm","latitude":"45.353333","longitude":"-75.786416"},{"source":"yellow page","service_name":"Swann Aylmer","category":"fitness training","phone":"819-684-1845","address":"21, rue de Carteret, Gatineau, QC J9H 7N4","postalcode":"J9H 7N4","website":" ","working_hour":"","latitude":"45.388641","longitude":"-75.806288"},{"source":"yellow page","service_name":"Reveluketion Fitness","category":"fitness training","phone":"613-878-5874","address":"102 Greenview Ave, Ottawa, ON K2B 8J8","postalcode":"K2B 8J8","website":"http://www.reveluketion.com","working_hour":"","latitude":"45.3637071","longitude":"-75.8020638"},{"source":"yellow page","service_name":"Curves","category":"fitness training","phone":"6138231966","address":"1D-3500 Fallowfield Rd, Nepean, ON K2J 4A7","postalcode":"K2J 4A7","website":" ","working_hour":"","latitude":"45.294079","longitude":"-75.742464"},{"source":"yellow page","service_name":"GoodLife Fitness","category":"fitness training","phone":"613-823-8081","address":"3201 Greenbank Rd, Ottawa, ON K2J 4H9","postalcode":"K2J 4H9","website":" ","working_hour":"Monday 7:00 am - 10:00 pm   Tuesday 7:00 am - 10:00 pm   Wednesday 7:00 am - 10:00 pm   Thursday 7:00 am - 10:00 pm   Friday 7:00 am - 10:00 pm   Saturday 7:00 am - 9:00 pm   Sunday 8:00 am - 7:00 pm","latitude":"45.267771","longitude":"-75.744727"},{"source":"yellow page","service_name":"Anytime Fitness-Barrhaven","category":"fitness training","phone":"613-825-9301","address":"71 Marketplace Ave, Nepean, ON K2J 5G4","postalcode":"K2J 5G4","website":" ","working_hour":"","latitude":"45.270119","longitude":"-75.742335"},{"source":"yellow page","service_name":"Greco Lean and Fit","category":"fitness training","phone":"613-825-0498","address":"3023 Cedarview Rd, Nepean, ON K2J 4A8","postalcode":"K2J 4A8","website":" ","working_hour":"","latitude":"45.265949","longitude":"-75.772396"},{"source":"yellow page","service_name":"Snap Fitness Barrhaven","category":"fitness training","phone":"613-823-6650","address":"4100 Strandherd Dr, Nepean, ON K2J 0V2","postalcode":"K2J 0V2","website":" ","working_hour":"","latitude":"45.2637957","longitude":"-75.7770097"},{"source":"yellow page","service_name":"My Gym Childrens Fitness","category":"fitness training","phone":"613-440-8400","address":"103-220 Kennevale Dr, Nepean, ON K2J 6B6","postalcode":"K2J 6B6","website":" ","working_hour":"","latitude":"45.2650886","longitude":"-75.7761238"},{"source":"yellow page","service_name":"GoodLife Fitness","category":"fitness training","phone":"613-599-2718","address":"555 March Rd, Ottawa, ON K2K 2M5","postalcode":"K2K 2M5","website":" ","working_hour":"24 hours a day - 7 days a week","latitude":"45.347198","longitude":"-75.922645"},{"source":"yellow page","service_name":"Greco Martial Arts & Fitness","category":"fitness training","phone":"613-825-5326","address":"100 Schneider Rd, Kanata, ON K2K 1Y2","postalcode":"K2K 1Y2","website":"http://www.grecoleanandfit.com","working_hour":"","latitude":"45.339524","longitude":"-75.902829"},{"source":"yellow page","service_name":"Capital Missfits Fitness","category":"fitness training","phone":"613-656-2155","address":"215 Terence Matthews Cres, Kanata, ON K2M 1X5","postalcode":"K2M 1X5","website":" ","working_hour":"","latitude":"45.286224","longitude":"-75.874271"},{"source":"yellow page","service_name":"3Sixty Dance & Fitness","category":"fitness training","phone":"6138596356","address":"220 Terence Matthews Cres, Kanata, ON K2M 0E2","postalcode":"K2M 0E2","website":" ","working_hour":"","latitude":"45.285815","longitude":"-75.874771"},{"source":"yellow page","service_name":"CrossFit 613","category":"fitness training","phone":"613-595-1616","address":"220 Terence Matthews Cres, Kanata, ON K2M 2C6","postalcode":"K2M 2C6","website":"http://crossfit613.com","working_hour":"","latitude":"45.285815","longitude":"-75.874771"},{"source":"yellow page","service_name":"Complete Athletics","category":"fitness training","phone":"6137962479","address":"145 Iber Rd, Ottawa, ON K2S 1E9","postalcode":"K2S 1E9","website":" ","working_hour":"","latitude":"45.276039","longitude":"-75.903497"},{"source":"yellow page","service_name":"Fleming Fitness","category":"fitness training","phone":"613-699-0040","address":"632 Rosehill Ave, Stittsville, ON K2S 0K2","postalcode":"K2S 0K2","website":"http://www.flemingfitness.ca","working_hour":"Monday 9:00 am - 5:00 pm   Tuesday 9:00 am - 5:00 pm   Wednesday 9:00 am - 5:00 pm   Thursday 9:00 am - 5:00 pm   Friday 9:00 am - 5:00 pm","latitude":"45.2853585","longitude":"-75.9194857"},{"source":"yellow page","service_name":"Orange Theory Fitness","category":"fitness training","phone":"6135050270","address":"2-5703 Hazeldean Rd, Stittsville, ON K2S 0P6","postalcode":"K2S 0P6","website":" ","working_hour":"","latitude":"45.2837591","longitude":"-75.9111874"},{"source":"yellow page","service_name":"Sculpt Conditioning Inc.","category":"fitness training","phone":"613-907-1515","address":"145 Iber Rd, Ottawa, ON K2S 1E7","postalcode":"K2S 1E7","website":" ","working_hour":"","latitude":"45.275487","longitude":"-75.902604"},{"source":"yellow page","service_name":"GoodLife Fitness","category":"fitness training","phone":"6132700372","address":"100 Michael Cowpland Dr, Ottawa, ON K2M 1X3","postalcode":"K2M 1X3","website":" ","working_hour":"Monday 5:00 am - 11:00 pm   Tuesday 5:00 am - 11:00 pm   Wednesday 5:00 am - 11:00 pm   Thursday 5:00 am - 11:00 pm   Friday 5:00 am - 10:00 pm   Saturday 7:00 am - 7:00 pm   Sunday 7:00 am - 7:00 pm","latitude":"45.285885","longitude":"-75.869917"},{"source":"yellow page","service_name":"J.D Lifestyles","category":"fitness training","phone":"613-324-5141","address":"1809 Maple Grove Rd, Stittsville, ON K2S 0M4","postalcode":"K2S 0M4","website":" ","working_hour":"","latitude":"45.2873648","longitude":"-75.9227759"},{"source":"yellow page","service_name":"Greco Lean and Fit","category":"fitness training","phone":"6139125326","address":"1615 Stittsville Main St, Stittsville, ON K2S 1P1","postalcode":"K2S 1P1","website":" ","working_hour":"","latitude":"45.254876","longitude":"-75.916534"},{"source":"yellow page","service_name":"Curves","category":"fitness training","phone":"6138319500","address":"109-1300 Main Street, Stittsville, ON K2S 1R3","postalcode":"K2S 1R3","website":" ","working_hour":"","latitude":"45.265823","longitude":"-75.930564"},{"source":"yellow page","service_name":"GoodLife Fitness","category":"fitness training","phone":"613-836-6897","address":"1100 Carp Rd, Stittsville, ON K2S 0T2","postalcode":"K2S 0T2","website":" ","working_hour":"24 hours a day - 7 days a week","latitude":"45.269653","longitude":"-75.9418547"},{"source":"yellow page","service_name":"Elite Fitness Canada","category":"fitness training","phone":"613-435-3862","address":"1107 Carp Rd, Stittsville, ON K2S 1B9","postalcode":"K2S 1B9","website":" ","working_hour":"","latitude":"45.269478","longitude":"-75.941537"},{"source":"yellow page","service_name":"All For Dogs Fun and Fitness","category":"fitness training","phone":"613-601-5305","address":"Stittsville, ON K2S 1B5","postalcode":"K2S 1B5","website":" ","working_hour":"","latitude":"45.233082","longitude":"-75.919275"},{"source":"yellow page","service_name":"Gym Max Lachute","category":"fitness training","phone":"450-409-1919","address":"370 Av Bethany, Lachute, QC L8H 4G8","postalcode":"L8H 4G8","website":"http://gym-max.com","working_hour":"24 hours a day - 7 days a week","latitude":"45.646018","longitude":"-74.329242"},{"source":"yellow page","service_name":"Club Ouest Action Sports","category":"fitness training","phone":"450-458-4766","address":"2799, cote Saint-Charles, Saint-Lazare, QC J7T 2H8","postalcode":"J7T 2H8","website":"http://www.clubouest.ca/","working_hour":"Monday 5:30 am - 10:00 pm   Tuesday 5:30 am - 10:00 pm   Wednesday 5:30 am - 10:00 pm   Thursday 5:30 am - 10:00 pm   Friday 5:30 am - 9:00 pm   Saturday 7:30 am - 6:00 pm   Sunday 7:30 am - 6:00 pm","latitude":"45.4410563","longitude":"-74.1706646"},{"source":"yellow page","service_name":"Balance Studio Pilates","category":"fitness training","phone":"514-926-0761","address":"153 Côte Saint-Charles, Hudson, QC J0P 1H0","postalcode":"J0P 1H0","website":"http://www.balancestudiopilates.ca","working_hour":"Monday 7:30 am - 7:00 pm   Tuesday 7:30 am - 7:00 pm   Wednesday 7:30 am - 7:00 pm   Thursday 7:30 am - 7:00 pm   Friday 7:30 am - 7:00 pm   Saturday 8:30 am - 12:00 pm","latitude":"45.4504159","longitude":"-74.1642505"},{"source":"yellow page","service_name":"Entraînement à Domicile","category":"fitness training","phone":"5145851058","address":"166 201 Rte RR 1, Coteau-du-Lac, QC J0P 1B0","postalcode":"J0P 1B0","website":" ","working_hour":"","latitude":"45.3242516","longitude":"-74.1983052"},{"source":"yellow page","service_name":"Curves","category":"fitness training","phone":"450-227-8819","address":"341 rue Principale, Saint-Sauveur, QC J0R 1R0","postalcode":"J0R 1R0","website":" ","working_hour":"","latitude":"45.8914358","longitude":"-74.16079"},{"source":"yellow page","service_name":"YMCA","category":"fitness training","phone":"450-227-2414","address":"673 montée Saint-Elmire, Saint-Sauveur, QC J0R 1R1","postalcode":"J0R 1R1","website":"http://www.ymca.ca","working_hour":"","latitude":"45.854122","longitude":"-74.1808189"},{"source":"yellow page","service_name":"Silhouettes Body Toning & Shaping","category":"fitness training","phone":"613-528-1770","address":"ON","postalcode":"","website":" ","working_hour":"","latitude":"","longitude":""},{"source":"yellow page","service_name":"Anytime Fitness","category":"fitness training","phone":"6139357924","address":"1360 2nd Street E, Cornwall, ON K6H 2B7","postalcode":"K6H 2B7","website":" ","working_hour":"","latitude":"45.026204","longitude":"-74.704874"},{"source":"yellow page","service_name":"Fitness Depot","category":"fitness training","phone":"519-686-9738","address":"94 Bessemer Crt, London, ON N6E 1K7","postalcode":"N6E 1K7","website":"http://shop.fitnessdepot.ca","working_hour":"","latitude":"42.9320591","longitude":"-81.2121687"},{"source":"yellow page","service_name":"Fitness Depot","category":"fitness training","phone":"905-839-8389","address":"2-955 Brock Rd, Pickering, ON L1W 2X9","postalcode":"L1W 2X9","website":" ","working_hour":"","latitude":"43.829984","longitude":"-79.066148"},{"source":"yellow page","service_name":"Fitness Depot","category":"fitness training","phone":"905-361-0155","address":"9-3663 Mavis Rd, Mississauga, ON L5C 2Z2","postalcode":"L5C 2Z2","website":" ","working_hour":"","latitude":"43.5783418","longitude":"-79.6502169"},{"source":"yellow page","service_name":"Nav Fit","category":"fitness training","phone":"6139365024","address":"1950 Montreal Rd, ON K6H 6L2","postalcode":"K6H 6L2","website":"http://navcentre.ca","working_hour":"","latitude":"45.026828","longitude":"-74.680125"},{"source":"yellow page","service_name":"Fitness Depot","category":"fitness training","phone":"416-480-1525","address":"2725 Yonge St, Toronto, ON M4N 2H8","postalcode":"M4N 2H8","website":" ","working_hour":"","latitude":"43.717664","longitude":"-79.400444"},{"source":"yellow page","service_name":"Fitness Depot","category":"fitness training","phone":"647-350-8897","address":"5-38 Blue Jays Way, Toronto, ON M5V 2G3","postalcode":"M5V 2G3","website":" ","working_hour":"","latitude":"43.644981","longitude":"-79.391867"},{"source":"yellow page","service_name":"Own the Ice Hockey Inc","category":"fitness training","phone":"613-935-5269","address":"412 Fifth St E, Cornwall, ON K6H 2M2","postalcode":"K6H 2M2","website":" ","working_hour":"Monday 12:00 pm - 7:00 pm   Tuesday 12:00 pm - 7:00 pm   Wednesday 12:00 pm - 7:00 pm   Thursday 12:00 pm - 7:00 pm   Friday 12:00 pm - 7:00 pm   Saturday 10:00 am - 2:00 pm   Sunday 10:00 am - 2:00 pm","latitude":"45.025235","longitude":"-74.722308"},{"source":"yellow page","service_name":"Quest PTS","category":"fitness training","phone":"613-932-7958","address":"1020 Montreal Rd, Cornwall, ON K6H 1E2","postalcode":"K6H 1E2","website":"http://www.questpts.com","working_hour":"","latitude":"45.019282","longitude":"-74.70097"},{"source":"yellow page","service_name":"Physical Limits Fitness Club","category":"fitness training","phone":"613-932-4766","address":"120 Ninth St E, Cornwall, ON K6H 2T9","postalcode":"K6H 2T9","website":"http://www.physicallimits.com","working_hour":"Monday 5:00 am - 10:00 pm   Tuesday 5:00 am - 10:00 pm   Wednesday 5:00 am - 10:00 pm   Thursday 5:00 am - 10:00 pm   Friday 5:00 am - 9:00 pm   Saturday 8:00 am - 5:00 pm   Sunday 8:00 am - 5:00 pm","latitude":"45.029624","longitude":"-74.731371"},{"source":"yellow page","service_name":"Jack Attack Fitness","category":"fitness training","phone":"6138035093","address":"","postalcode":"","website":" ","working_hour":"","latitude":"","longitude":""},{"source":"yellow page","service_name":"RD Athletics-Therapy & Training","category":"fitness training","phone":"6138030925","address":"ON","postalcode":"","website":" ","working_hour":"","latitude":"43.651893","longitude":"-79.381713"},{"source":"yellow page","service_name":"Crossfit Brockville","category":"fitness training","phone":"613-803-2295","address":"ON","postalcode":"","website":" ","working_hour":"","latitude":"","longitude":""},{"source":"yellow page","service_name":"Zendragon","category":"fitness training","phone":"613-205-1100","address":"39 Chambers St, Smiths Falls, ON K7A 2Y3","postalcode":"K7A 2Y3","website":"http://smithsfallsgym.ca","working_hour":"Monday 9:00 am - 5:00 pm   Tuesday 9:00 am - 5:00 pm   Wednesday 9:00 am - 5:00 pm   Thursday 9:00 am - 5:00 pm   Friday 9:00 am - 5:00 pm   Appointment Only","latitude":"44.898881","longitude":"-76.018604"},{"source":"yellow page","service_name":"Good Vibrations","category":"fitness training","phone":"613-205-1194","address":"50 Lorne St, Smiths Falls, ON K7A 3K7","postalcode":"K7A 3K7","website":" ","working_hour":"","latitude":"44.897749","longitude":"-76.005743"},{"source":"yellow page","service_name":"Jasper Fitness Centre","category":"fitness training","phone":"613-283-8738","address":"Jasper, Smiths Falls, ON K0G 1G0","postalcode":"K0G 1G0","website":"http://www.jasperfitness.com","working_hour":"Monday 9:00 am - 9:00 pm   Tuesday 9:00 am - 9:00 pm   Wednesday 9:00 am - 9:00 pm   Thursday 9:00 am - 9:00 pm   Friday 9:00 am - 9:00 pm   Saturday 9:00 am - 9:00 pm   Sunday 9:00 am - 9:00 pm","latitude":"44.878871","longitude":"-75.939449"},{"source":"yellow page","service_name":"Hua Functional Fitness","category":"fitness training","phone":"6132131525","address":"Brockville, ON","postalcode":"","website":" ","working_hour":"","latitude":"43.651893","longitude":"-79.381713"},