{"table":[{"source":"yellow page","service_name":"Dyntek Canada","category":"IT services","phone":"613-254-5515","address":"1036-555 Legget Dr, Kanata, ON K2K 2X3","postalcode":"K2K 2X3","website":" ","working_hour":"","latitude":"45.348734","longitude":"-75.920697"},{"source":"yellow page","service_name":"Edmond Hetu","category":"IT services","phone":"819-827-4137","address":"12, ch Pau, Chelsea, QC J9B 1B4","postalcode":"J9B 1B4","website":" ","working_hour":"","latitude":"45.4837495","longitude":"-75.8822968"},{"source":"yellow page","service_name":"HubStor","category":"IT services","phone":"613-704-1737","address":"800-515 Legget Dr, Ottawa, ON K2K 3G4","postalcode":"K2K 3G4","website":" ","working_hour":"","latitude":"45.346155","longitude":"-75.917633"},{"source":"yellow page","service_name":"Kanata It Inc","category":"IT services","phone":"613-859-4490","address":"96 Manning Crt, Kanata, ON K2K 3N2","postalcode":"K2K 3N2","website":" ","working_hour":"","latitude":"45.326326","longitude":"-75.925753"},{"source":"yellow page","service_name":"Edgewater Computer Systems","category":"IT services","phone":"6132719114","address":"1125 Innovation Dr, Kanata, ON K2K 3G6","postalcode":"K2K 3G6","website":"http://edgewater.ca","working_hour":"","latitude":"45.343669","longitude":"-75.923655"},{"source":"yellow page","service_name":"Avalon Consulting Services Inc","category":"IT services","phone":"613-832-1002","address":"209 Kilkenny Dr Box 8024, Ottawa, ON K0A 1T0","postalcode":"K0A 1T0","website":" ","working_hour":"","latitude":"45.409695","longitude":"-76.066813"},{"source":"yellow page","service_name":"Toushay","category":"IT services","phone":"613-271-8314","address":"110-390 March Rd, Kanata, ON K2K 0G7","postalcode":"K2K 0G7","website":" ","working_hour":"","latitude":"45.33931","longitude":"-75.912383"},{"source":"yellow page","service_name":"Ingenius Software Inc","category":"IT services","phone":"613-591-9002","address":"350 Legget Dr, Kanata, ON K2K 2W7","postalcode":"K2K 2W7","website":"http://www.ingenius.com","working_hour":"","latitude":"45.341319","longitude":"-75.909911"},{"source":"yellow page","service_name":"Core Software Corp","category":"IT services","phone":"6132710577","address":"362 Terry Fox Dr, Kanata, ON K2K 2P5","postalcode":"K2K 2P5","website":" ","working_hour":"","latitude":"45.350196","longitude":"-75.918982"},{"source":"yellow page","service_name":"George Wadsworth & Associates","category":"IT services","phone":"6136321492","address":"129 Rue Main E, Hawkesbury, ON K6A 1A2","postalcode":"K6A 1A2","website":" ","working_hour":"","latitude":"45.6095923","longitude":"-74.6104755"},{"source":"yellow page","service_name":"Bird Technology","category":"IT services","phone":"613-869-2473","address":"654 des Epinettes Pl RR 4, Casselman, ON K0A 1M0","postalcode":"K0A 1M0","website":" ","working_hour":"Monday 9:00 am - 5:00 pm   Tuesday 9:00 am - 5:00 pm   Wednesday 9:00 am - 5:00 pm   Thursday 9:00 am - 5:00 pm   Friday 9:00 am - 5:00 pm   Saturday 9:00 am - 5:00 pm   Sunday 9:00 am - 5:00 pm","latitude":"45.322542","longitude":"-75.11165"},{"source":"yellow page","service_name":"Outside the Box Computer Solutions","category":"IT services","phone":"6137032810","address":"ON","postalcode":"","website":" ","working_hour":"","latitude":"43.651893","longitude":"-79.381713"},{"source":"yellow page","service_name":"MicroAge","category":"IT services","phone":"613-938-8087","address":"1150 Montreal Rd, Cornwall, ON K6H 1E2","postalcode":"K6H 1E2","website":" ","working_hour":"","latitude":"45.019922","longitude":"-74.697253"},{"source":"yellow page","service_name":"Zinosys Solutions","category":"IT services","phone":"905-598-3180","address":"","postalcode":"","website":" ","working_hour":"","latitude":"","longitude":""},{"source":"yellow page","service_name":"Enterprise Information Systems","category":"IT services","phone":"6138375686","address":"880 Taylor Creek, Orleans, ON K1C 1T1","postalcode":"K1C 1T1","website":" ","working_hour":"","latitude":"45.492397","longitude":"-75.482265"},{"source":"yellow page","service_name":"Abusive Solutions","category":"IT services","phone":"514-418-0679","address":"1 Main St E, Hawkesbury, ON K6A 1A1","postalcode":"K6A 1A1","website":" ","working_hour":"","latitude":"45.6093066","longitude":"-74.6123209"},{"source":"yellow page","service_name":"Northern Express Information Technology","category":"IT services","phone":"613-720-6391","address":"322 Duncan Dr, Ottawa, ON K7S 2T2","postalcode":"K7S 2T2","website":" ","working_hour":"","latitude":"45.435796","longitude":"-76.355471"},{"source":"yellow page","service_name":"AJ Lauzon","category":"IT services","phone":"6133620120","address":"ON","postalcode":"","website":" ","working_hour":"","latitude":"43.651893","longitude":"-79.381713"},{"source":"yellow page","service_name":"Cache Computer Consulting","category":"IT services","phone":"613-837-5718","address":"1432 Talcy Cres, Orleans, ON K4A 3C6","postalcode":"K4A 3C6","website":" ","working_hour":"","latitude":"45.48464","longitude":"-75.476855"},{"source":"yellow page","service_name":"Thompson R W Systems","category":"IT services","phone":"613-839-3364","address":"104 Rostad Ave RR 2, Kinburn, ON K0A 2H0","postalcode":"K0A 2H0","website":" ","working_hour":"","latitude":"45.359735","longitude":"-76.12189"},{"source":"yellow page","service_name":"Jacques Riopel","category":"IT services","phone":"613-675-8890","address":"1050 King St, L'Orignal, ON K0B 1K0","postalcode":"K0B 1K0","website":" ","working_hour":"","latitude":"45.6196543","longitude":"-74.6923114"},{"source":"yellow page","service_name":"Northey Smith & Assoc","category":"IT services","phone":"613-832-0651","address":"3269 Greenland Rd RR 1, Dunrobin, ON K0A 1T0","postalcode":"K0A 1T0","website":" ","working_hour":"","latitude":"45.457302","longitude":"-76.017308"},{"source":"yellow page","service_name":"Middleware Solutions Inc","category":"IT services","phone":"613-724-9600","address":"344 River Ridge Cres, Orleans, ON K1E 3N1","postalcode":"K1E 3N1","website":"http://www.middlewaresolutions.com","working_hour":"","latitude":"45.480647","longitude":"-75.505651"},{"source":"yellow page","service_name":"Pilon Marcel","category":"IT services","phone":"819-983-2012","address":"897-321 Rte N RR 3, Saint-André-Avellin, QC J0V 1W0","postalcode":"J0V 1W0","website":" ","working_hour":"","latitude":"45.7069267","longitude":"-75.0526779"},{"source":"yellow page","service_name":"Bytelan Informatiques","category":"IT services","phone":"514-726-6799","address":"121 St Jean Baptiste E, Rigaud, QC J0P 1P0","postalcode":"J0P 1P0","website":" ","working_hour":"Monday 8:00 am - 7:00 pm   Tuesday 8:00 am - 7:00 pm   Wednesday 8:00 am - 7:00 pm   Thursday 8:00 am - 7:00 pm   Friday 8:00 am - 7:00 pm","latitude":"45.479505","longitude":"-74.2919075"},{"source":"yellow page","service_name":"Contract Community","category":"IT services","phone":"613-832-5500","address":"860 Berry Side Rd RR 2, Dunrobin, ON K0A 1T0","postalcode":"K0A 1T0","website":"http://www.contractcommunity.com","working_hour":"","latitude":"45.404628","longitude":"-75.971249"},{"source":"yellow page","service_name":"IT Advisor Inc","category":"IT services","phone":"613-220-6752","address":"102 Alissia Cres RR 5, Carp, ON K0A 1L0","postalcode":"K0A 1L0","website":" ","working_hour":"","latitude":"45.279834","longitude":"-76.022722"},{"source":"yellow page","service_name":"KM Consulting Services","category":"IT services","phone":"343-369-9373","address":"4 Morrison Dr, Coben, ON K0J 1K0","postalcode":"K0J 1K0","website":" ","working_hour":"","latitude":"45.629046","longitude":"-76.886061"},{"source":"yellow page","service_name":"KSI","category":"IT services","phone":"613-432-8095","address":"1487 Goshen Rd, Renfrew, ON K7V 3Z4","postalcode":"K7V 3Z4","website":"http://ksiolajidebt.com","working_hour":"","latitude":"45.46622","longitude":"-76.60828"},{"source":"yellow page","service_name":"Patterson Innovative Consulting Services","category":"IT services","phone":"613-432-3970","address":"345 Airth Blvd W, Renfrew, ON K7V 4B6","postalcode":"K7V 4B6","website":" ","working_hour":"Monday 8:00 am - 5:00 pm   Tuesday 8:00 am - 5:00 pm   Wednesday 8:00 am - 5:00 pm   Thursday 8:00 am - 5:00 pm   Friday 8:00 am - 5:00 pm","latitude":"45.4648961","longitude":"-76.6836579"},{"source":"yellow page","service_name":"Michael Financial Systems Inc","category":"IT services","phone":"613-795-1589","address":"2836 Tatlock, Ottawa, ON K0A 1A0","postalcode":"K0A 1A0","website":" ","working_hour":"","latitude":"45.218305","longitude":"-76.202328"},{"source":"yellow page","service_name":"Chris Polis","category":"IT services","phone":"613-256-4646","address":"334 Ottawa St, Almonte, ON K0A 1A0","postalcode":"K0A 1A0","website":" ","working_hour":"","latitude":"45.2327796","longitude":"-76.1877585"},{"source":"yellow page","service_name":"Tazabitz Computer Consulting","category":"IT services","phone":"613-831-5444","address":"793 Beavertail Rd RR 2, Carp, ON K0A 1L0","postalcode":"K0A 1L0","website":"http://www.tazabitz.com","working_hour":"","latitude":"45.268748","longitude":"-76.032578"},{"source":"yellow page","service_name":"THC Technology","category":"IT services","phone":"613-989-2824","address":"1759 County Road 1, North Dundas, ON K0E 1W0","postalcode":"K0E 1W0","website":"http://www.thc-technology.com","working_hour":"Monday 8:00 am - 4:00 pm   Tuesday 8:00 am - 4:00 pm   Wednesday 8:00 am - 4:00 pm   Thursday 8:00 am - 4:00 pm   Friday 8:00 am - 4:00 pm","latitude":"45.0658915","longitude":"-75.5208938"},{"source":"yellow page","service_name":"Boucher Deborah L","category":"IT services","phone":"613-692-4264","address":"1021 Boucher Cres, Manotick, ON K4M 1B3","postalcode":"K4M 1B3","website":" ","working_hour":"","latitude":"45.207605","longitude":"-75.655245"},{"source":"yellow page","service_name":"Chapman Software Design Inc","category":"IT services","phone":"613-826-3756","address":"5861 Hugh Cres RR 1, Osgoode, ON K0A 2W0","postalcode":"K0A 2W0","website":"http://www.csdi.ca","working_hour":"","latitude":"45.149265","longitude":"-75.588777"},{"source":"yellow page","service_name":"Surfacesoft","category":"IT services","phone":"647-694-4647","address":"543 Pinawa Cir, Ottawa, ON K2J 5Y2","postalcode":"K2J 5Y2","website":" ","working_hour":"","latitude":"45.2408443","longitude":"-75.7282761"},{"source":"yellow page","service_name":"Cache Computer Consultants","category":"IT services","phone":"613-822-8553","address":"835 Long Point Cir, Gloucester, ON K1T 4G1","postalcode":"K1T 4G1","website":" ","working_hour":"","latitude":"45.319106","longitude":"-75.599565"},{"source":"yellow page","service_name":"Independent Contractors Group","category":"IT services","phone":"613-247-7555","address":"44 Sai Cres, Ottawa, ON K1G 5N8","postalcode":"K1G 5N8","website":" ","working_hour":"","latitude":"45.376286","longitude":"-75.609382"},{"source":"yellow page","service_name":"DTH Software","category":"IT services","phone":"613-822-1997","address":"2609 Fenton Rd, Gloucester, ON K1T 3T8","postalcode":"K1T 3T8","website":" ","working_hour":"","latitude":"45.317687","longitude":"-75.621658"},{"source":"yellow page","service_name":"Blackline Systems Corp","category":"IT services","phone":"613-822-9933","address":"2794 Fenton Rd, Gloucester, ON K1T 3T7","postalcode":"K1T 3T7","website":"http://www.blackline.ca","working_hour":"","latitude":"45.322289","longitude":"-75.617927"},{"source":"yellow page","service_name":"Kovas Consulting Services Ltd","category":"IT services","phone":"613-218-3254","address":"74 Bramblegrove Cres, Ottawa, ON K1T 3E6","postalcode":"K1T 3E6","website":" ","working_hour":"","latitude":"45.367307","longitude":"-75.623909"},{"source":"yellow page","service_name":"Sat Consulting Inc","category":"IT services","phone":"613-943-9323","address":"19 Coronet Ave, Nepean, ON K2G 6R8","postalcode":"K2G 6R8","website":" ","working_hour":"","latitude":"45.288197","longitude":"-75.708462"},{"source":"yellow page","service_name":"MCS-Micrographic Consulting Services Inc","category":"IT services","phone":"613-526-3770","address":"38 Havenhurst Cres, Ottawa, ON K1T 3E8","postalcode":"K1T 3E8","website":" ","working_hour":"","latitude":"45.358437","longitude":"-75.636799"},{"source":"yellow page","service_name":"Stacs DNA","category":"IT services","phone":"613-274-7822","address":"2255 St. Laurent Blvd, Ottawa, ON K1G 4K3","postalcode":"K1G 4K3","website":"http://stacsdna.com","working_hour":"","latitude":"45.387429","longitude":"-75.6162"},{"source":"yellow page","service_name":"Connections Consulting Inc","category":"IT services","phone":"613-822-6028","address":"4100 Farmers Way, Gloucester, ON K0A 1K0","postalcode":"K0A 1K0","website":"http://connectionsconsulting.ca","working_hour":"","latitude":"45.362374","longitude":"-75.507731"},{"source":"yellow page","service_name":"Prologic Systems Limited","category":"IT services","phone":"6132381376","address":"2255 St. Laurent Blvd, Ottawa, ON K1G 4K3","postalcode":"K1G 4K3","website":"http://www.prologicsystems.ca","working_hour":"","latitude":"45.387429","longitude":"-75.6162"},{"source":"yellow page","service_name":"C&S Schultz Tech Solutions","category":"IT services","phone":"613-822-1698","address":"328 Gracewood Cr, Gloucester, ON K1T 3T8","postalcode":"K1T 3T8","website":" ","working_hour":"","latitude":"45.3137715","longitude":"-75.6138786"},{"source":"yellow page","service_name":"Accutech Computer Systems Ltd","category":"IT services","phone":"613-738-0910","address":"2285 St Laurent Blvd, Ottawa, ON K1G 4Z5","postalcode":"K1G 4Z5","website":" ","working_hour":"","latitude":"45.386115","longitude":"-75.61604"},{"source":"yellow page","service_name":"Spectra FX Inc","category":"IT services","phone":"613-526-3762","address":"3553 Wyman Cres, Gloucester, ON K1V 0Z2","postalcode":"K1V 0Z2","website":" ","working_hour":"","latitude":"45.345711","longitude":"-75.658573"},{"source":"yellow page","service_name":"IOC Information On-Line Corporation","category":"IT services","phone":"613-291-2270","address":"2285 Boulevard St Laurent, Ottawa, ON K1G 4Z7","postalcode":"K1G 4Z7","website":" ","working_hour":"","latitude":"45.386115","longitude":"-75.61604"},{"source":"yellow page","service_name":"Students for Seniors Inc","category":"IT services","phone":"613-701-1378","address":"325 Riversedge Cres, Gloucester, ON K1V 0Y7","postalcode":"K1V 0Y7","website":" ","working_hour":"Monday 8:00 am - 4:00 pm   Tuesday 8:00 am - 4:00 pm   Wednesday 8:00 am - 4:00 pm   Thursday 8:00 am - 4:00 pm   Friday 8:00 am - 4:00 pm   Saturday 10:00 am - 2:00 pm   Appointments Are Available Outside Office Hours.   Appointment Only   Emergency Appointments Available","latitude":"45.276258","longitude":"-75.697678"},{"source":"yellow page","service_name":"Woodsurrection","category":"IT services","phone":"613-269-3769","address":"","postalcode":"","website":"http://www.bitsandbaits.com","working_hour":"","latitude":"44.8832319","longitude":"-75.8754662"},{"source":"yellow page","service_name":"Eliot Research & Consulting","category":"IT services","phone":"613-634-9555","address":"805 Bayridge Dr, Kingston, ON K7P 1T5","postalcode":"K7P 1T5","website":" ","working_hour":"","latitude":"44.25182","longitude":"-76.588946"},{"source":"yellow page","service_name":"Eliot Research & Consulting","category":"IT services","phone":"613-583-6425","address":"643 Braeside Cres, Kingston, ON K7P 1G6","postalcode":"K7P 1G6","website":"http://eliotresearch.com","working_hour":"Monday 9:00 am - 6:00 pm   Tuesday 9:00 am - 6:00 pm   Wednesday 9:00 am - 6:00 pm   Thursday 9:00 am - 6:00 pm   Friday 9:00 am - 6:00 pm","latitude":"44.252456","longitude":"-76.572584"},{"source":"yellow page","service_name":"Greg Hartle Consulting","category":"IT services","phone":"613-925-0622","address":"1639 County Road 2 W RR 1, Prescott, ON K0E 1T0","postalcode":"K0E 1T0","website":" ","working_hour":"Monday 9:00 am - 12:00 pm   Tuesday 9:00 am - 12:00 pm   Wednesday 9:00 am - 12:00 pm   Thursday 9:00 am - 12:00 pm   Friday 9:00 am - 12:00 pm","latitude":"44.722896","longitude":"-75.552725"},{"source":"yellow page","service_name":"Cunningham Computer Solutions Inc","category":"IT services","phone":"613-273-7135","address":"PO Box 275, Glenburnie, ON K0H 1X0","postalcode":"K0H 1X0","website":" ","working_hour":"","latitude":"44.364058","longitude":"-76.539838"},{"source":"yellow page","service_name":"CanTech Solutions","category":"IT services","phone":"6135491258","address":"303 Bagot St, Kingston, ON K7K 5W7","postalcode":"K7K 5W7","website":"http://www.ctsolutions.com/","working_hour":"Monday 9:00 am - 12:00 pm   Tuesday 9:00 am - 12:00 pm   Wednesday 9:00 am - 12:00 pm   Thursday 9:00 am - 12:00 pm   Friday 9:00 am - 12:00 pm","latitude":"44.232299","longitude":"-76.484022"},{"source":"yellow page","service_name":"Newnumber.ca","category":"IT services","phone":"289-609-6666","address":"1-11 Forsythe Ave, Kingston, ON K7M 2L9","postalcode":"K7M 2L9","website":" ","working_hour":"","latitude":"44.227008","longitude":"-76.518911"},{"source":"yellow page","service_name":"Kingston Software Factory","category":"IT services","phone":"613-545-1308","address":"4 Cataraqui St, Kingston, ON K7K 1Z7","postalcode":"K7K 1Z7","website":"http://www.kingstonsf.com","working_hour":"Monday 9:00 am - 12:00 pm   Tuesday 9:00 am - 12:00 pm   Wednesday 9:00 am - 12:00 pm   Thursday 9:00 am - 12:00 pm   Friday 9:00 am - 12:00 pm","latitude":"44.242224","longitude":"-76.48078"},{"source":"yellow page","service_name":"Micro Movers","category":"IT services","phone":"613-223-0236","address":"50 B12 RR 1, Lombardy, ON K0G 1L0","postalcode":"K0G 1L0","website":"http://www.micromovers.com","working_hour":"","latitude":"44.820006","longitude":"-76.083223"},{"source":"yellow page","service_name":"Common Goals Software","category":"IT services","phone":"6139251265","address":"301-193 Water W, Prescott, ON K0E 1T0","postalcode":"K0E 1T0","website":"http://commongoals.com","working_hour":"Monday 8:30 am - 5:00 pm   Tuesday 8:30 am - 5:00 pm   Wednesday 8:30 am - 5:00 pm   Thursday 8:30 am - 5:00 pm   Friday 8:30 am - 5:00 pm","latitude":"44.7091428","longitude":"-75.5137656"},{"source":"yellow page","service_name":"King's IT Services","category":"IT services","phone":"3433330079","address":"3-101 Toronto St, Kingston, ON K7L 4A5","postalcode":"K7L 4A5","website":" ","working_hour":"","latitude":"44.232434","longitude":"-76.503939"},{"source":"yellow page","service_name":"Quinte Computer Services Ltd","category":"IT services","phone":"613-634-7671","address":"654 Norris Crt, Kingston, ON K7P 2R9","postalcode":"K7P 2R9","website":"http://quintecomputerservices.com","working_hour":"","latitude":"44.263362","longitude":"-76.56827"},{"source":"yellow page","service_name":"NaszTech Systems","category":"IT services","phone":"613-342-1755","address":"1 Court Terr, Brockville, ON K6V 4T4","postalcode":"K6V 4T4","website":"http://www.nasztech.com","working_hour":"","latitude":"44.590069","longitude":"-75.68569"},{"source":"yellow page","service_name":"On Serve","category":"IT services","phone":"613-634-8125","address":"700 Progress Ave, Kingston, ON K7M 4W9","postalcode":"K7M 4W9","website":" ","working_hour":"","latitude":"44.246637","longitude":"-76.570777"},{"source":"yellow page","service_name":"Kingston Information Technologies Ltd","category":"IT services","phone":"613-536-9648","address":"202-993 Princess St, Kingston, ON K7L 1H3","postalcode":"K7L 1H3","website":"http://www.kingstoninfotech.com","working_hour":"Monday 9:00 am - 12:00 pm   Tuesday 9:00 am - 12:00 pm   Wednesday 9:00 am - 12:00 pm   Thursday 9:00 am - 12:00 pm   Friday 9:00 am - 12:00 pm","latitude":"44.242562","longitude":"-76.514414"},{"source":"yellow page","service_name":"Paper Plus (Kingston)","category":"IT services","phone":"613-544-2178","address":"1 Nottingham Pl, Kingston, ON K7M 7H1","postalcode":"K7M 7H1","website":" ","working_hour":"","latitude":"44.248223","longitude":"-76.521274"},{"source":"yellow page","service_name":"Fusix Corp","category":"IT services","phone":"613-384-6610","address":"83 Sunset Blvd, Kingston, ON K7M 4W2","postalcode":"K7M 4W2","website":"http://www.fusix.com","working_hour":"","latitude":"44.230958","longitude":"-76.576485"},{"source":"yellow page","service_name":"Quinte Computer Services Ltd","category":"IT services","phone":"613-966-3070","address":"141 William St, Belleville, ON K8N 3J8","postalcode":"K8N 3J8","website":"http://www.quinte.com","working_hour":"","latitude":"44.1629998","longitude":"-77.3761007"},{"source":"yellow page","service_name":"Nesda Technologies Ltd","category":"IT services","phone":"613-966-5593","address":"3 Dundas St E, Belleville, ON K8N 1B6","postalcode":"K8N 1B6","website":"http://www.nesda.ca","working_hour":"Monday 8:00 am - 5:00 pm   Tuesday 8:00 am - 5:00 pm   Wednesday 8:00 am - 5:00 pm   Thursday 8:00 am - 5:00 pm   Friday 8:00 am - 5:00 pm","latitude":"44.1608724","longitude":"-77.3823362"},{"source":"yellow page","service_name":"MicroAge","category":"IT services","phone":"613-384-4141","address":"708 Arlington Park Place, Kingston, ON K7M 7N7","postalcode":"K7M 7N7","website":"http://www.microagekingston.ca","working_hour":"","latitude":"44.2492024","longitude":"-76.5706557"},{"source":"yellow page","service_name":"Innovative Logic Corp","category":"IT services","phone":"613-284-0647","address":"5 Willow Lane, Smiths Falls, ON K7A 4S5","postalcode":"K7A 4S5","website":"http://www.innovativelogic.com","working_hour":"Monday 9:00 am - 6:00 pm   Tuesday 9:00 am - 6:00 pm   Wednesday 9:00 am - 6:00 pm   Thursday 9:00 am - 6:00 pm   Friday 9:00 am - 6:00 pm","latitude":"44.8693409","longitude":"-76.0215444"},{"source":"yellow page","service_name":"Tcsi Canada","category":"IT services","phone":"613-473-1114","address":"757 Island Rd, Madoc, ON K0K 2K0","postalcode":"K0K 2K0","website":" ","working_hour":"Monday 8:00 am - 5:00 pm   Tuesday 8:00 am - 5:00 pm   Wednesday 8:00 am - 5:00 pm   Thursday 8:00 am - 5:00 pm   Friday 8:00 am - 5:00 pm","latitude":"44.6773179","longitude":"-77.483809"},{"source":"yellow page","service_name":"Ascension Financial Software Consulting Inc","category":"IT services","phone":"705-448-9975","address":"17442 Hwy 118 RR 1, Tory Hill, ON K0L 2Y0","postalcode":"K0L 2Y0","website":" ","working_hour":"","latitude":"44.996745","longitude":"-78.214452"},{"source":"yellow page","service_name":"NBHs","category":"IT services","phone":"613-583-5808","address":"ON","postalcode":"","website":"http://www.nbhs.net","working_hour":"","latitude":"","longitude":""},{"source":"yellow page","service_name":"Nerds On Site","category":"IT services","phone":"1-877-696-3737","address":"","postalcode":"","website":"http://www.nerdsonsite.ca","working_hour":"","latitude":"","longitude":""},{"source":"yellow page","service_name":"Groundhog Computing Services","category":"IT services","phone":"613-453-3116","address":"ON","postalcode":"","website":" ","working_hour":"","latitude":"","longitude":""},{"source":"yellow page","service_name":"MicroAge","category":"IT services","phone":"613-966-6201","address":"345 College St E, Belleville, ON K8N 5S7","postalcode":"K8N 5S7","website":"http://www.microage.ca","working_hour":"","latitude":"44.1853567","longitude":"-77.3677277"},{"source":"yellow page","service_name":"Cando Information Technology Services","category":"IT services","phone":"613-354-2056","address":"113 Richmond Blvd, Napanee, ON K7R 3Z8","postalcode":"K7R 3Z8","website":"http://www.mycando.ca","working_hour":"Monday 9:00 am - 5:00 pm   Tuesday 9:00 am - 5:00 pm   Wednesday 9:00 am - 5:00 pm   Thursday 9:00 am - 5:00 pm   Friday 9:00 am - 5:00 pm   Saturday 10:00 am - 4:00 pm","latitude":"44.2631876","longitude":"-76.956646"},{"source":"yellow page","service_name":"Lo-Fi Consulting","category":"IT services","phone":"613-645-3020","address":"173 Picton Main St, Picton, ON K0K 2T0","postalcode":"K0K 2T0","website":" ","working_hour":"","latitude":"44.0068308","longitude":"-77.1427974"},{"source":"yellow page","service_name":"System Solutions","category":"IT services","phone":"6134761185","address":"202-172 Main St, Picton, ON K0K 2T0","postalcode":"K0K 2T0","website":" ","working_hour":"","latitude":"43.95061","longitude":"-77.203992"},{"source":"yellow page","service_name":"JNB Computer Services","category":"IT services","phone":"6136333373","address":"ON","postalcode":"","website":"http://www.marketwatch.com","working_hour":"","latitude":"43.651893","longitude":"-79.381713"},{"source":"yellow page","service_name":"Effective Computer Solutions Inc","category":"IT services","phone":"613-735-4307","address":"211 Hincks St, Pembroke, ON K8A 4N7","postalcode":"K8A 4N7","website":" ","working_hour":"","latitude":"45.8238127","longitude":"-77.1202685"},{"source":"yellow page","service_name":"Creation Magnetic","category":"IT services","phone":"905-396-2166","address":"11 Jeffries, Cobourg, ON","postalcode":"","website":" ","working_hour":"","latitude":"45.6313483","longitude":"-77.4181916"},{"source":"yellow page","service_name":"Digital Underground Computers Inc","category":"IT services","phone":"613-392-1617","address":"469 Dundas St W, Trenton, ON K8V 3S4","postalcode":"K8V 3S4","website":"http://www.ducomputers.com","working_hour":"","latitude":"44.1326864","longitude":"-77.588041"},{"source":"yellow page","service_name":"Titan Computer Services","category":"IT services","phone":"613-717-6976","address":"10 Morningstar Street, Petawawa, ON K8H 0A1","postalcode":"K8H 0A1","website":" ","working_hour":"","latitude":"45.891863","longitude":"-77.255261"},{"source":"yellow page","service_name":"Télébec","category":"IT services","phone":"8888353232","address":"","postalcode":"","website":" ","working_hour":"","latitude":"","longitude":""},{"source":"yellow page","service_name":"Comp-U-Drive","category":"IT services","phone":"705-743-0533","address":"537 Homewood Ave, Peterborough, ON K9H 2N4","postalcode":"K9H 2N4","website":" ","working_hour":"Monday 9:00 am - 12:00 pm   Tuesday 9:00 am - 12:00 pm   Wednesday 9:00 am - 12:00 pm   Thursday 9:00 am - 12:00 pm   Friday 9:00 am - 12:00 pm","latitude":"44.303866","longitude":"-78.334005"},{"source":"yellow page","service_name":"Go 2 Computer Guy","category":"IT services","phone":"705-872-1039","address":"685 Heritage Trail, Peterborough, ON K9L 0B4","postalcode":"K9L 0B4","website":"http://www.Go2computerguy.ca","working_hour":"Monday 8:30 am - 5:00 pm   Tuesday 8:30 am - 5:00 pm   Wednesday 8:30 am - 5:00 pm   Thursday 8:30 am - 5:00 pm   Friday 8:30 am - 5:00 pm   Saturday 8:30 am - 5:00 pm   After Hours Service Available","latitude":"44.3462074","longitude":"-78.3187299"},{"source":"yellow page","service_name":"MicroAge","category":"IT services","phone":"7058761177","address":"753 Erskine Ave, Peterborough, ON K9J 7Y6","postalcode":"K9J 7Y6","website":" ","working_hour":"","latitude":"44.280556","longitude":"-78.335223"},{"source":"yellow page","service_name":"Ecosystems","category":"IT services","phone":"705-324-6883","address":"ON","postalcode":"","website":"http://www.ecosystems.on.ca","working_hour":"","latitude":"","longitude":""},{"source":"yellow page","service_name":"FKE Industrial Computers","category":"IT services","phone":"705-743-8519","address":"RR 2 Stn Delivery Centre, Peterborough, ON K9J 6X3","postalcode":"K9J 6X3","website":" ","working_hour":"","latitude":"44.342641","longitude":"-78.462313"},{"source":"yellow page","service_name":"Let's Get Digital","category":"IT services","phone":"705-755-7361","address":"3-184 Marina Blvd, Peterborough, ON K9H 6M9","postalcode":"K9H 6M9","website":" ","working_hour":"","latitude":"44.332765","longitude":"-78.322745"},{"source":"yellow page","service_name":"Nyx Technical Solutions","category":"IT services","phone":"705-933-3493","address":"333 Parkhill Rd E, Peterborough, ON K9H 1R4","postalcode":"K9H 1R4","website":" ","working_hour":"","latitude":"44.319394","longitude":"-78.305575"},{"source":"yellow page","service_name":"Lee's Hi-Tec","category":"IT services","phone":"705-742-2655","address":"819 Spillsbury Drive, Peterborough, ON K9K 1K9","postalcode":"K9K 1K9","website":" ","working_hour":"Monday 9:00 am - 5:00 pm   Tuesday 9:00 am - 5:00 pm   Wednesday 9:00 am - 5:00 pm   Thursday 9:00 am - 5:00 pm   Friday 9:00 am - 5:00 pm   Saturday 9:00 am - 5:00 am","latitude":"44.276364","longitude":"-78.36457"},{"source":"yellow page","service_name":"Breken Technologies Group","category":"IT services","phone":"705-741-5867","address":"271 Brock St, Peterborough, ON K9H 2P8","postalcode":"K9H 2P8","website":"http://www.breken.com","working_hour":"","latitude":"44.306958","longitude":"-78.325329"},{"source":"yellow page","service_name":"Shaw Computer Systems","category":"IT services","phone":"705-742-2204","address":"1434 Chemong Rd, Peterborough, ON K9J 6X2","postalcode":"K9J 6X2","website":"http://www.shawcomputer.com","working_hour":"","latitude":"44.3363551","longitude":"-78.3487262"},{"source":"yellow page","service_name":"The Utility Company","category":"IT services","phone":"705-775-1000","address":"8-580 Ashburnham Dr, Peterborough, ON K9L 2A2","postalcode":"K9L 2A2","website":" ","working_hour":"","latitude":"44.286681","longitude":"-78.29386"},{"source":"yellow page","service_name":"Lammers Computer Support","category":"IT services","phone":"705-313-2843","address":"1001 Talwood Dr, Peterborough, ON K9J 7T3","postalcode":"K9J 7T3","website":" ","working_hour":"","latitude":"44.292488","longitude":"-78.347844"},{"source":"yellow page","service_name":"Software Designed Solutions","category":"IT services","phone":"705-755-0550","address":"1975 Drummond Line, Peterborough, ON K9J 6X9","postalcode":"K9J 6X9","website":"http://sds-software.net","working_hour":"Monday 9:00 am - 6:00 pm   Tuesday 9:00 am - 6:00 pm   Wednesday 9:00 am - 6:00 pm   Thursday 9:00 am - 6:00 pm   Friday 9:00 am - 6:00 pm","latitude":"44.2861041","longitude":"-78.2394673"},{"source":"yellow page","service_name":"NP Media Business Solutions","category":"IT services","phone":"7057998080","address":"21 King St W, Omemee, ON K0L 2W0","postalcode":"K0L 2W0","website":" ","working_hour":"Monday 9:00 am - 5:00 pm   Tuesday 9:00 am - 5:00 pm   Wednesday 9:00 am - 5:00 pm   Thursday 9:00 am - 5:00 pm   Friday 9:00 am - 5:00 pm","latitude":"44.298328","longitude":"-78.562054"},{"source":"yellow page","service_name":"At Home Computers","category":"IT services","phone":"7057550666","address":"672 Hastings Ave, Peterborough, ON K9J 4T2","postalcode":"K9J 4T2","website":"http://athomecomputers.com/","working_hour":"","latitude":"44.299616","longitude":"-78.338469"},{"source":"yellow page","service_name":"PC Paramedics Inc","category":"IT services","phone":"705-749-6570","address":"873 High St, Peterborough, ON K9J 5R1","postalcode":"K9J 5R1","website":"http://www.pcparamedics.org","working_hour":"Monday 9:00 am - 6:00 pm   Tuesday 9:00 am - 6:00 pm   Wednesday 9:00 am - 6:00 pm   Thursday 9:00 am - 6:00 pm   Friday 9:00 am - 6:00 pm   Saturday 10:00 am - 4:00 pm","latitude":"44.285714","longitude":"-78.333698"},{"source":"yellow page","service_name":"Alternative Computing","category":"IT services","phone":"613-255-5344","address":"ON K1J 8R7","postalcode":"K1J 8R7","website":" ","working_hour":"","latitude":"45.42883","longitude":"-75.636774"},{"source":"yellow page","service_name":"EWA-Canada Ltd","category":"IT services","phone":"6132306067","address":"1223 Michael St, Gloucester, ON K1J 7T2","postalcode":"K1J 7T2","website":" ","working_hour":"","latitude":"45.421867","longitude":"-75.63203"},{"source":"yellow page","service_name":"CGI","category":"IT services","phone":"6132342155","address":"1410 Blair Pl, Gloucester, ON K1J 9B9","postalcode":"K1J 9B9","website":" ","working_hour":"","latitude":"45.43486","longitude":"-75.604638"},{"source":"yellow page","service_name":"Amita Corporation","category":"IT services","phone":"613-742-6482","address":"1420 Blair Pl, Gloucester, ON K1J 9L8","postalcode":"K1J 9L8","website":"http://www.amita.com","working_hour":"","latitude":"45.434368","longitude":"-75.605306"},{"source":"yellow page","service_name":"Studio 360","category":"IT services","phone":"6134247960","address":"5945 Jeanne D'Arc Blvd S, Orleans, ON K1C 2N1","postalcode":"K1C 2N1","website":" ","working_hour":"","latitude":"45.4657261","longitude":"-75.5416708"},{"source":"yellow page","service_name":"Eurodata Inc","category":"IT services","phone":"613-745-0921","address":"2756 Lancaster Rd, Ottawa, ON K1B 4S4","postalcode":"K1B 4S4","website":"http://www.eurodata.ca","working_hour":"","latitude":"45.3963974","longitude":"-75.6062037"},{"source":"yellow page","service_name":"Digless Inc","category":"IT services","phone":"613-697-4351","address":"ON K1K 2E9","postalcode":"K1K 2E9","website":" ","working_hour":"","latitude":"45.445495","longitude":"-75.627931"},{"source":"yellow page","service_name":"Innovative Technology Inc","category":"IT services","phone":"613-841-0050","address":"ON K1C 7B3","postalcode":"K1C 7B3","website":"http://www.innovative.ca","working_hour":"","latitude":"45.465639","longitude":"-75.547041"},{"source":"yellow page","service_name":"Spectrum Marketing Agency","category":"IT services","phone":"613-769-1749","address":"ON K1C 6W6","postalcode":"K1C 6W6","website":" ","working_hour":"","latitude":"45.456424","longitude":"-75.527031"},{"source":"yellow page","service_name":"Innovative Technology","category":"IT services","phone":"613-841-0061","address":"1420 Youville Dr, Ottawa, ON","postalcode":"","website":"http://www.innovative.ca","working_hour":"","latitude":"45.463573","longitude":"-75.550267"},{"source":"yellow page","service_name":"RJR Innovations","category":"IT services","phone":"613-233-1915","address":"1400 St. Laurent Blvd, Ottawa, ON K1K 4H4","postalcode":"K1K 4H4","website":"http://www.rjrinnovations.com","working_hour":"","latitude":"45.423039","longitude":"-75.63674"},{"source":"yellow page","service_name":"A S G Inc Applications Systems Group","category":"IT services","phone":"613-749-8353","address":"1010 Polytek, Gloucester, ON K1E 1T2","postalcode":"K1E 1T2","website":"http://asg-ottawa.com","working_hour":"","latitude":"45.456564","longitude":"-75.584582"},{"source":"yellow page","service_name":"CSL Consulting","category":"IT services","phone":"6135907950","address":"1570 Verchere St, Orleans, ON K1C 6B7","postalcode":"K1C 6B7","website":" ","working_hour":"","latitude":"45.464264","longitude":"-75.519026"},{"source":"yellow page","service_name":"iStoddart & Associates Ltd","category":"IT services","phone":"613-590-7680","address":"Gloucester, Orleans, ON K1B 3Y4","postalcode":"K1B 3Y4","website":" ","working_hour":"","latitude":"45.437645","longitude":"-75.563593"},{"source":"yellow page","service_name":"8582807 Canada Inc.","category":"IT services","phone":"5147030209","address":"176 Den Haag Dr, Ottawa, ON K1K 2V7","postalcode":"K1K 2V7","website":" ","working_hour":"","latitude":"45.4421761","longitude":"-75.6342863"},{"source":"yellow page","service_name":"Metadata Consultants Inc","category":"IT services","phone":"6132412117","address":"4B-2548 Sheffield Rd, Ottawa, ON K1B 3V7","postalcode":"K1B 3V7","website":"http://www.metadata.on.ca","working_hour":"","latitude":"45.4056644","longitude":"-75.6069806"},{"source":"yellow page","service_name":"OnPath Business Solutions Inc","category":"IT services","phone":"613-564-6565","address":"1165 Kenaston St, Gloucester, ON K1B 3N9","postalcode":"K1B 3N9","website":"http://www.onpath.com","working_hour":"","latitude":"45.418816","longitude":"-75.624274"},{"source":"yellow page","service_name":"Minasu Information Systems (1983) Ltd","category":"IT services","phone":"613-749-9109","address":"5335 Canotek Rd, Gloucester, ON K1J 9L4","postalcode":"K1J 9L4","website":"http://www.minasu.com","working_hour":"","latitude":"45.453439","longitude":"-75.585496"},{"source":"yellow page","service_name":"Acs Group","category":"IT services","phone":"613-733-3999","address":"2047 Delmar Dr, Ottawa, ON K1H 5P6","postalcode":"K1H 5P6","website":" ","working_hour":"","latitude":"45.393087","longitude":"-75.642367"},{"source":"yellow page","service_name":"Lucid Software Ingeneering","category":"IT services","phone":"613-744-8465","address":"17-362 McArthur Ave, Vanier, ON K1L 6N7","postalcode":"K1L 6N7","website":" ","working_hour":"","latitude":"45.431912","longitude":"-75.651935"},{"source":"yellow page","service_name":"Systems D'Information Motorola","category":"IT services","phone":"6137251231","address":"360 Rue Prince Albert, Ottawa, ON K1K 1Z3","postalcode":"K1K 1Z3","website":" ","working_hour":"","latitude":"45.4248696","longitude":"-75.6475678"},{"source":"yellow page","service_name":"D G Multi-Systems","category":"IT services","phone":"613-741-6135","address":"428 Queen Mary St, Ottawa, ON K1K 1W5","postalcode":"K1K 1W5","website":" ","working_hour":"","latitude":"45.425589","longitude":"-75.646517"},{"source":"yellow page","service_name":"The Pythian Group","category":"IT services","phone":"613-565-8696","address":"1200 St. Laurent Blvd, Ottawa, ON K1K 3B8","postalcode":"K1K 3B8","website":" ","working_hour":"","latitude":"45.421381","longitude":"-75.639439"},{"source":"yellow page","service_name":"Sintrac Information Technology Corp","category":"IT services","phone":"613-699-4134","address":"ON K1V 6T4","postalcode":"K1V 6T4","website":" ","working_hour":"","latitude":"45.370197","longitude":"-75.657989"},{"source":"yellow page","service_name":"GIT Consulting","category":"IT services","phone":"613-220-8727","address":"2706 Alta Vista Dr, Ottawa, ON K1V 7T4","postalcode":"K1V 7T4","website":" ","working_hour":"","latitude":"45.372963","longitude":"-75.663991"},{"source":"yellow page","service_name":"IGI Integrated Group International Ltd","category":"IT services","phone":"613-769-3068","address":"2487 Kaladar Ave, Ottawa, ON K1V 8B9","postalcode":"K1V 8B9","website":"http://www.igi.ca","working_hour":"","latitude":"45.3751137","longitude":"-75.6710084"},{"source":"yellow page","service_name":"Trillys Systems Inc","category":"IT services","phone":"6132162730","address":"3-1645 Russell Rd, Ottawa, ON K1G 4G5","postalcode":"K1G 4G5","website":"http://www.home.trillys.com","working_hour":"","latitude":"45.408256","longitude":"-75.635896"},{"source":"yellow page","service_name":"Veritaaq","category":"IT services","phone":"6137366120","address":"1111 Prince of Wales Dr, Ottawa, ON K2C 3T2","postalcode":"K2C 3T2","website":"http://veritaaq.ca","working_hour":"","latitude":"45.376387","longitude":"-75.70671"},{"source":"yellow page","service_name":"Starnet Pc","category":"IT services","phone":"613-739-3338","address":"2418 Holly Lane, Ottawa, ON K1V 7P1","postalcode":"K1V 7P1","website":"http://starnetpc.com","working_hour":"","latitude":"45.3788191","longitude":"-75.6394165"},{"source":"yellow page","service_name":"Beyond 20/20 Inc","category":"IT services","phone":"613-563-3993","address":"265 Carling Ave, Ottawa, ON K1S 2E1","postalcode":"K1S 2E1","website":"http://www.beyond2020.com","working_hour":"","latitude":"45.40082","longitude":"-75.700448"},{"source":"yellow page","service_name":"IT Experts","category":"IT services","phone":"819-205-7001","address":"100-444, boul Saint-René E, Gatineau, QC J8P 8A9","postalcode":"J8P 8A9","website":"http://www.it-experts.ca","working_hour":"Monday 9:00 am - 5:00 pm   Tuesday 9:00 am - 5:00 pm   Wednesday 9:00 am - 5:00 pm   Thursday 9:00 am - 5:00 pm   Friday 9:00 am - 5:00 pm   Emergency Service 24/7 Available","latitude":"45.4935008","longitude":"-75.6358968"},{"source":"yellow page","service_name":"Murmur Informatics","category":"IT services","phone":"6132499727","address":"255 Smyth Rd, Ottawa, ON K1H 8M7","postalcode":"K1H 8M7","website":"http://www.murmurinformatics.com","working_hour":"","latitude":"45.398551","longitude":"-75.660415"},{"source":"yellow page","service_name":"Etienne Giguère","category":"IT services","phone":"819-281-6131","address":"10, ch des Quatre-L, L'Ange-Gardien, QC J8L 0E9","postalcode":"J8L 0E9","website":" ","working_hour":"","latitude":"45.5685599","longitude":"-75.5202205"},{"source":"yellow page","service_name":"Teradocs Inc","category":"IT services","phone":"613-238-1973","address":"1500 Walkley Rd, Ottawa, ON K1V 0H8","postalcode":"K1V 0H8","website":"http://www.teradocs.com","working_hour":"","latitude":"45.375535","longitude":"-75.650559"},{"source":"yellow page","service_name":"Z-Com Computer Ser Inc","category":"IT services","phone":"613-521-9055","address":"2221 St. Laurent Blvd, Ottawa, ON K1G 1B1","postalcode":"K1G 1B1","website":"http://zcom.ca","working_hour":"","latitude":"45.389664","longitude":"-75.617872"},{"source":"yellow page","service_name":"Devon Group Ltd","category":"IT services","phone":"6136885675","address":"2250 St. Laurent Blvd, Ottawa, ON K1G 6C4","postalcode":"K1G 6C4","website":" ","working_hour":"","latitude":"45.3886971","longitude":"-75.6173905"},{"source":"yellow page","service_name":"Groupe DL Solutions Informatiques","category":"IT services","phone":"819-307-4165","address":"435, boul Maloney E, Gatineau, QC J8P 6Z8","postalcode":"J8P 6Z8","website":"http://www.infodl.qc.ca","working_hour":"Monday 8:00 am - 5:00 pm   Tuesday 8:00 am - 5:00 pm   Wednesday 8:00 am - 5:00 pm   Thursday 8:00 am - 5:00 pm   Friday 8:00 am - 5:00 pm   Closed During Lunch Hour","latitude":"45.484762","longitude":"-75.637973"},{"source":"yellow page","service_name":"Advanced Systems Management Group","category":"IT services","phone":"6132312556","address":"265 Carling Ave, Ottawa, ON K1S 2E1","postalcode":"K1S 2E1","website":" ","working_hour":"","latitude":"45.40082","longitude":"-75.700448"},{"source":"yellow page","service_name":"Innovapost","category":"IT services","phone":"613-683-2526","address":"2701 Riverside Dr, Ottawa, ON K1A 0B1","postalcode":"K1A 0B1","website":" ","working_hour":"","latitude":"45.3754607","longitude":"-75.6911716"},{"source":"yellow page","service_name":"AJJA Information Technology Consultants","category":"IT services","phone":"6135632552","address":"800-785 Carling Ave, Ottawa, ON K1S 5H4","postalcode":"K1S 5H4","website":" ","working_hour":"","latitude":"45.398305","longitude":"-75.70614"},{"source":"yellow page","service_name":"Farlink Communications","category":"IT services","phone":"6132477537","address":"504 Blair St, Ottawa, ON K1G 0J2","postalcode":"K1G 0J2","website":" ","working_hour":"","latitude":"45.40838","longitude":"-75.656033"},{"source":"yellow page","service_name":"Osiris Solutions","category":"IT services","phone":"613-400-3612","address":"226-2660 Norberry Cres, Ottawa, ON K1V 6N2","postalcode":"K1V 6N2","website":" ","working_hour":"","latitude":"45.3686981","longitude":"-75.6826172"},{"source":"yellow page","service_name":"Red Canari","category":"IT services","phone":"613-255-0000","address":"2716 Basswood Cres, Ottawa, ON K1V 8K3","postalcode":"K1V 8K3","website":" ","working_hour":"","latitude":"45.366944","longitude":"-75.678202"},{"source":"yellow page","service_name":"DLS Technology","category":"IT services","phone":"613-249-8818","address":"1376 rue Bank, Ottawa, ON K1H 7Y3","postalcode":"K1H 7Y3","website":"http://dlstech.com","working_hour":"","latitude":"45.384784","longitude":"-75.67266"},{"source":"yellow page","service_name":"Alcea Technologies Inc","category":"IT services","phone":"613-563-9595","address":"2197 Riverside Dr, Ottawa, ON K1H 7X3","postalcode":"K1H 7X3","website":"http://www.alceatech.com","working_hour":"","latitude":"45.389054","longitude":"-75.67546"},{"source":"yellow page","service_name":"Text Alchemy","category":"IT services","phone":"613-236-0293","address":"100 Third Ave, Ottawa, ON K1S 2J8","postalcode":"K1S 2J8","website":"http://www.textalchemy.com","working_hour":"","latitude":"45.403395","longitude":"-75.687511"},{"source":"yellow page","service_name":"Altruistic Informatic","category":"IT services","phone":"6137237241","address":"106-2487 Kaladar Ave, Ottawa, ON K1V 8B9","postalcode":"K1V 8B9","website":" ","working_hour":"","latitude":"45.3751137","longitude":"-75.6710084"},{"source":"yellow page","service_name":"VFA Canada Corporation","category":"IT services","phone":"613-798-5150","address":"21 Durham Pvt, Ottawa, ON K1M 2H8","postalcode":"K1M 2H8","website":" ","working_hour":"","latitude":"45.444292","longitude":"-75.678515"},{"source":"yellow page","service_name":"Rejhon Technologies Inc.","category":"IT services","phone":"613-241-8693","address":"595C Besserer St, Ottawa, ON K1N 6C8","postalcode":"K1N 6C8","website":" ","working_hour":"","latitude":"45.4328035","longitude":"-75.6740087"},{"source":"yellow page","service_name":"Microrama Informatique Inc","category":"IT services","phone":"819-663-8600","address":"99, rue Édouard-Ellis E, Gatineau, QC J8P 4X7","postalcode":"J8P 4X7","website":"http://microrama.com","working_hour":"","latitude":"45.4810417","longitude":"-75.6448659"},{"source":"yellow page","service_name":"Omicron Informatique","category":"IT services","phone":"8196632193","address":"458 rue Graveline, Gatineau, QC J8P 3H1","postalcode":"J8P 3H1","website":" ","working_hour":"","latitude":"45.486816","longitude":"-75.668144"},{"source":"yellow page","service_name":"Harisys Corp","category":"IT services","phone":"613-244-8907","address":"110 Boteler St, Ottawa, ON K1N 8W8","postalcode":"K1N 8W8","website":" ","working_hour":"","latitude":"45.434591","longitude":"-75.696465"},{"source":"yellow page","service_name":"Revolution Networks","category":"IT services","phone":"613-321-6198","address":"200-55 Murray St, Ottawa, ON K1N 5M3","postalcode":"K1N 5M3","website":" ","working_hour":"","latitude":"45.429339","longitude":"-75.694449"},{"source":"yellow page","service_name":"Marshall's Computer Services","category":"IT services","phone":"9028957369","address":"NS","postalcode":"","website":" ","working_hour":"","latitude":"45.420421","longitude":"-75.692432"},{"source":"yellow page","service_name":"Fujitsu Canada","category":"IT services","phone":"613-238-2697","address":"55 Metcalfe St, Ottawa, ON K1P 6L5","postalcode":"K1P 6L5","website":" ","working_hour":"","latitude":"45.422041","longitude":"-75.696695"},{"source":"yellow page","service_name":"Zen Computer","category":"IT services","phone":"613-858-7820","address":"ON K1N 5R3","postalcode":"K1N 5R3","website":"http://www.zencomputer.ca","working_hour":"","latitude":"45.431591","longitude":"-75.68671"},{"source":"yellow page","service_name":"Valcom Consulting Group Inc","category":"IT services","phone":"613-594-5200","address":"300-85 Albert St, Ottawa, ON K1P 6A4","postalcode":"K1P 6A4","website":"http://www.valcom.ca","working_hour":"","latitude":"45.4217794","longitude":"-75.6959007"},{"source":"yellow page","service_name":"Smart Solutions","category":"IT services","phone":"613-695-8300","address":"502-56 Sparks St, Ottawa, ON K1P 5A9","postalcode":"K1P 5A9","website":"http://www.smartsi.com","working_hour":"","latitude":"45.423314","longitude":"-75.696283"},{"source":"yellow page","service_name":"Conseillers En Gestion Et Informatique","category":"IT services","phone":"6136960200","address":"M 243-1424 Sandford Fleming Ave, Ottawa, ON K1A 0C1","postalcode":"K1A 0C1","website":" ","working_hour":"","latitude":"45.425854","longitude":"-75.700578"},{"source":"yellow page","service_name":"Microtime Inc","category":"IT services","phone":"6132342345","address":"116 Rue Albert, Ottawa, ON K1P 5H9","postalcode":"K1P 5H9","website":" ","working_hour":"","latitude":"45.42141","longitude":"-75.696721"},{"source":"yellow page","service_name":"Metamorphose Systems Inc","category":"IT services","phone":"613-591-7640","address":"424 Pickford Dr, Kanata, ON K2L 3R4","postalcode":"K2L 3R4","website":" ","working_hour":"","latitude":"45.304551","longitude":"-75.886983"},{"source":"yellow page","service_name":"Russona Consulting Corp","category":"IT services","phone":"613-836-6182","address":"144 McCurdy Dr, Kanata, ON K2L 2Z6","postalcode":"K2L 2Z6","website":"http://www.russona.com","working_hour":"","latitude":"45.298956","longitude":"-75.899179"},{"source":"yellow page","service_name":"HomeTech PC Services","category":"IT services","phone":"9027460928","address":"Yarmouth, NS","postalcode":"","website":" ","working_hour":"","latitude":"45.420421","longitude":"-75.692432"},{"source":"yellow page","service_name":"RADAR Solutions Group Inc","category":"IT services","phone":"613-271-8075","address":"1 McLaughlin Cres, Kanata, ON K2L 2P9","postalcode":"K2L 2P9","website":"http://radarsolutionsgroup.com","working_hour":"","latitude":"45.304363","longitude":"-75.901913"},{"source":"yellow page","service_name":"MacDonald Dettwiler And Associates Ltd","category":"IT services","phone":"613-736-9716","address":"75 Rue Albert, Ottawa, ON K1P 5E7","postalcode":"K1P 5E7","website":"http://www.mdacorporation.com","working_hour":"","latitude":"45.4218762","longitude":"-75.6956766"},{"source":"yellow page","service_name":"Kinaxis Inc","category":"IT services","phone":"613-592-5780","address":"700 Silver Seven Rd, Kanata, ON K2V 1C3","postalcode":"K2V 1C3","website":" ","working_hour":"","latitude":"45.300278","longitude":"-75.911244"},{"source":"yellow page","service_name":"Gridway Computing Corp","category":"IT services","phone":"613-226-3223","address":"436 Hazeldean Rd, Kanata, ON K2L 1T9","postalcode":"K2L 1T9","website":"http://gridway.net","working_hour":"","latitude":"45.300961","longitude":"-75.883697"},{"source":"yellow page","service_name":"PC Unlimited","category":"IT services","phone":"819-600-1225","address":"13, rue Pierre-Pauzé, Gatineau, QC J8T 2J6","postalcode":"J8T 2J6","website":" ","working_hour":"","latitude":"45.4644024","longitude":"-75.696855"},{"source":"yellow page","service_name":"FIPS Technologies Ltd","category":"IT services","phone":"613-748-5263","address":"12 Dufferin Rd, Ottawa, ON K1M 2G6","postalcode":"K1M 2G6","website":" ","working_hour":"","latitude":"45.43945","longitude":"-75.68339"},{"source":"yellow page","service_name":"Chaumont Systems Development Inc","category":"IT services","phone":"613-244-4466","address":"272 McArthur Ave, Vanier, ON K1L 6P4","postalcode":"K1L 6P4","website":" ","working_hour":"","latitude":"45.431529","longitude":"-75.657477"},{"source":"yellow page","service_name":"PC Fixit","category":"IT services","phone":"613-261-5190","address":"76 St. Charles St, Vanier, ON K1L 5T8","postalcode":"K1L 5T8","website":" ","working_hour":"","latitude":"45.4388","longitude":"-75.670778"},{"source":"yellow page","service_name":"CGI Information Systems Consulting Services Inc","category":"IT services","phone":"6135234047","address":"N1081-2701 Riverside Dr, Ottawa, ON K1A 0B1","postalcode":"K1A 0B1","website":" ","working_hour":"","latitude":"45.425854","longitude":"-75.700578"},{"source":"yellow page","service_name":"Innovapost","category":"IT services","phone":"613-270-6262","address":"365 March Rd, Kanata, ON K2K 3N5","postalcode":"K2K 3N5","website":" ","working_hour":"","latitude":"45.337326","longitude":"-75.910115"},{"source":"yellow page","service_name":"Ids North America","category":"IT services","phone":"613-591-0500","address":"155 Terence Matthews Cres, Kanata, ON K2M 2A8","postalcode":"K2M 2A8","website":"http://www.ubitech.com","working_hour":"","latitude":"45.287157","longitude":"-75.873112"},{"source":"yellow page","service_name":"Informatique FCMI","category":"IT services","phone":"819-664-3539","address":"99, rue Édouard-Ellis E, Gatineau, QC J8P 4X7","postalcode":"J8P 4X7","website":" ","working_hour":"","latitude":"45.4810417","longitude":"-75.6448659"},{"source":"yellow page","service_name":"Neptec Design Group Ltd","category":"IT services","phone":"613-599-7602","address":"302 Legget Dr, Kanata, ON K2K 1Y5","postalcode":"K2K 1Y5","website":"http://www.neptec.com","working_hour":"","latitude":"45.34219","longitude":"-75.901105"},{"source":"yellow page","service_name":"Rowland & Associates","category":"IT services","phone":"613-276-3379","address":"9 Airlie Pl, Kanata, ON K2L 2R7","postalcode":"K2L 2R7","website":" ","working_hour":"","latitude":"45.292471","longitude":"-75.891881"},{"source":"yellow page","service_name":"Diligens","category":"IT services","phone":"613-591-9200","address":"6-155 Terence Matthews Cres, Kanata, ON K2M 2A8","postalcode":"K2M 2A8","website":"http://www.diligens.com","working_hour":"","latitude":"45.287157","longitude":"-75.873112"},{"source":"yellow page","service_name":"Procom Consultants Group Ltd","category":"IT services","phone":"613-270-9339","address":"200-320 March Rd, Kanata, ON K2K 2E3","postalcode":"K2K 2E3","website":"http://www.procom.ca","working_hour":"","latitude":"45.3352628","longitude":"-75.9072167"},{"source":"yellow page","service_name":"I4C Consulting Inc","category":"IT services","phone":"613-271-6421","address":"340 March Rd, Kanata, ON K2K 2E4","postalcode":"K2K 2E4","website":"http://www.i4c.ca","working_hour":"","latitude":"45.3359521","longitude":"-75.9081263"},{"source":"yellow page","service_name":"Decisive Technologies Inc","category":"IT services","phone":"613-836-3700","address":"160-120 Iber Rd, Stittsville, ON K2S 1E9","postalcode":"K2S 1E9","website":" ","working_hour":"","latitude":"45.277208","longitude":"-75.904687"},{"source":"yellow page","service_name":"Systematix","category":"IT services","phone":"613-567-8939","address":"333 Preston St, Ottawa, ON K1S 5N4","postalcode":"K1S 5N4","website":"http://systematix.com","working_hour":"","latitude":"45.4012553","longitude":"-75.7098895"},{"source":"yellow page","service_name":"RealiT Management Inc","category":"IT services","phone":"6135919604","address":"150 Terence Matthews Cres, Kanata, ON K2M 1X4","postalcode":"K2M 1X4","website":"http://realit.ca","working_hour":"","latitude":"45.287143","longitude":"-75.873128"},{"source":"yellow page","service_name":"Sellathurai Tech","category":"IT services","phone":"613-298-9753","address":"ON K1Y 3R1","postalcode":"K1Y 3R1","website":" ","working_hour":"","latitude":"45.399488","longitude":"-75.720967"},{"source":"yellow page","service_name":"Titus International Inc","category":"IT services","phone":"613-820-5111","address":"8-343 Preston St, Ottawa, ON K1S 1N4","postalcode":"K1S 1N4","website":"http://www.titus.com","working_hour":"","latitude":"45.4011113","longitude":"-75.7098021"},{"source":"yellow page","service_name":"GEVC Interactive","category":"IT services","phone":"613-798-0482","address":"18 Louisa St, Ottawa, ON K1R 6Y6","postalcode":"K1R 6Y6","website":"http://gevc.com","working_hour":"","latitude":"45.405687","longitude":"-75.706026"},{"source":"yellow page","service_name":"DG Systems","category":"IT services","phone":"613-789-8271","address":"151 Bay St, Ottawa, ON K1R 7T2","postalcode":"K1R 7T2","website":"http://dgsystems.ca","working_hour":"","latitude":"45.417916","longitude":"-75.706361"},{"source":"yellow page","service_name":"Abacurial Information Architecture","category":"IT services","phone":"613-860-6633","address":"758 Albert St, Ottawa, ON K1R 7V8","postalcode":"K1R 7V8","website":"http://abacurial.com","working_hour":"","latitude":"45.4129373","longitude":"-75.7124787"},{"source":"yellow page","service_name":"Global Knowledge Network Canada Inc","category":"IT services","phone":"6132883002","address":"11 Holland Ave, Ottawa, ON K1Y 4S1","postalcode":"K1Y 4S1","website":"http://www.globalknowledge.com/ca-en","working_hour":"","latitude":"45.4031078","longitude":"-75.733934"},{"source":"yellow page","service_name":"CTC Train Canada","category":"IT services","phone":"6132306614","address":"220-350 Sparks St, Ottawa, ON K1R 7S8","postalcode":"K1R 7S8","website":" ","working_hour":"","latitude":"45.419033","longitude":"-75.706218"},{"source":"yellow page","service_name":"Zylog Systems Ltd","category":"IT services","phone":"613-729-8800","address":"200-950 Gladstone Ave, Ottawa, ON K1Y 3E6","postalcode":"K1Y 3E6","website":" ","working_hour":"","latitude":"45.403521","longitude":"-75.715148"},{"source":"yellow page","service_name":"Vectorface","category":"IT services","phone":"613-729-7370","address":"52 Armstrong St, 3rd Fl, Ottawa, ON K1Y 2V7","postalcode":"K1Y 2V7","website":" ","working_hour":"","latitude":"45.4058609","longitude":"-75.7237919"},{"source":"yellow page","service_name":"Claridge Homes","category":"IT services","phone":"613-232-3888","address":"133 Booth St, Ottawa, ON K1R 0A8","postalcode":"K1R 0A8","website":" ","working_hour":"","latitude":"45.4153589","longitude":"-75.7141206"},{"source":"yellow page","service_name":"Overlay TV","category":"IT services","phone":"613-761-6152","address":"80 Aberdeen St, Ottawa, ON K1S 5R5","postalcode":"K1S 5R5","website":"http://www.overlay.tv","working_hour":"","latitude":"45.401045","longitude":"-75.710679"},{"source":"yellow page","service_name":"Allstream IT Services","category":"IT services","phone":"6132322760","address":"360 Rue Albert, Ottawa, ON","postalcode":"","website":" ","working_hour":"","latitude":"45.4183544","longitude":"-75.7038308"},{"source":"yellow page","service_name":"Adequatech David Marceau Sole Proprietorship","category":"IT services","phone":"613-218-7497","address":"205-96 Arthur St, Ottawa, ON K1R 7C2","postalcode":"K1R 7C2","website":" ","working_hour":"","latitude":"45.4108169","longitude":"-75.7076091"},{"source":"yellow page","service_name":"Allstream IT Services","category":"IT services","phone":"613-232-2760","address":"1300-360 Albert, ON K1R 7X7","postalcode":"K1R 7X7","website":" ","working_hour":"","latitude":"45.4183544","longitude":"-75.7038308"},{"source":"yellow page","service_name":"AJJA Information Technology Consultants Inc","category":"IT services","phone":"6135633290","address":"457 Catherine St, Ottawa, ON K1R 5T7","postalcode":"K1R 5T7","website":" ","working_hour":"","latitude":"45.405875","longitude":"-75.700818"},{"source":"yellow page","service_name":"DNSNetworks Corporation","category":"IT services","phone":"613-686-6643","address":"394 Booth St, Ottawa, ON K1R 7K6","postalcode":"K1R 7K6","website":" ","working_hour":"","latitude":"45.4065083","longitude":"-75.7087731"},{"source":"yellow page","service_name":"Ashton Informatics Inc","category":"IT services","phone":"6137822251","address":"200-440 Laurier Ave W, Ottawa, ON K1R 7X6","postalcode":"K1R 7X6","website":" ","working_hour":"","latitude":"45.416935","longitude":"-75.702887"},{"source":"yellow page","service_name":"Stoneshare Inc","category":"IT services","phone":"613-233-4596","address":"80 Aberdeen St, Ottawa, ON K1S 5R5","postalcode":"K1S 5R5","website":" ","working_hour":"","latitude":"45.401045","longitude":"-75.710679"},{"source":"yellow page","service_name":"Cistel Technology Inc","category":"IT services","phone":"613-723-8344","address":"40-30 Concourse Gate, Ottawa, ON K2E 7V7","postalcode":"K2E 7V7","website":"http://cistel.com","working_hour":"","latitude":"45.344702","longitude":"-75.708929"},{"source":"yellow page","service_name":"Innovapost Inc","category":"IT services","phone":"613-221-3300","address":"9 Auriga Dr, Nepean, ON K2E 7T9","postalcode":"K2E 7T9","website":" ","working_hour":"","latitude":"45.333724","longitude":"-75.705153"},{"source":"yellow page","service_name":"Richard Spratt Consulting Services Inc","category":"IT services","phone":"613-314-3149","address":"231 Privé Huntridge, Ottawa, ON K1V 9J2","postalcode":"K1V 9J2","website":" ","working_hour":"","latitude":"45.351235","longitude":"-75.666394"},{"source":"yellow page","service_name":"Isite Technologies Corporation","category":"IT services","phone":"613-228-7806","address":"148 Colonnade Rd, Nepean, ON K2E 7R4","postalcode":"K2E 7R4","website":"http://isitecorp.com","working_hour":"","latitude":"45.342817","longitude":"-75.707412"},{"source":"yellow page","service_name":"Cryptometrics Canada Inc","category":"IT services","phone":"613-270-9822","address":"15 Capella Crt, Nepean, ON K2E 7X1","postalcode":"K2E 7X1","website":" ","working_hour":"","latitude":"45.332381","longitude":"-75.70712"},{"source":"yellow page","service_name":"Cistel Technology Inc","category":"IT services","phone":"6133219430","address":"8-200 Colonnade Rd, Nepean, ON K2E 7M1","postalcode":"K2E 7M1","website":" ","working_hour":"","latitude":"45.3418973","longitude":"-75.7128569"},{"source":"yellow page","service_name":"RES Inc","category":"IT services","phone":"613-864-7373","address":"15 Antares Dr, Nepean, ON K2E 7Y9","postalcode":"K2E 7Y9","website":" ","working_hour":"","latitude":"45.334367","longitude":"-75.708169"},{"source":"yellow page","service_name":"Pteran Computing Inc","category":"IT services","phone":"613-521-3344","address":"166 Dorothea Dr, Ottawa, ON K1V 7C7","postalcode":"K1V 7C7","website":"http://pteran.ca/","working_hour":"","latitude":"45.354817","longitude":"-75.694276"},{"source":"yellow page","service_name":"Upsidewave Inc","category":"IT services","phone":"613-228-1335","address":"38 Auriga Dr, Ottawa, ON K2E 8A5","postalcode":"K2E 8A5","website":" ","working_hour":"","latitude":"45.331329","longitude":"-75.7047"},{"source":"yellow page","service_name":"Davidson Violette and Associates","category":"IT services","phone":"613-225-2798","address":"16-52 Antares Dr, Nepean, ON K2E 7Z1","postalcode":"K2E 7Z1","website":"http://www.dvai.ca","working_hour":"Monday 8:00 am - 5:00 pm   Tuesday 8:00 am - 5:00 pm   Wednesday 8:00 am - 5:00 pm   Thursday 8:00 am - 5:00 pm   Friday 8:00 am - 5:00 pm","latitude":"45.331288","longitude":"-75.709589"},{"source":"yellow page","service_name":"Cots Consulting Inc","category":"IT services","phone":"613-727-4848","address":"35 Auriga Dr, Nepean, ON K2E 7Y8","postalcode":"K2E 7Y8","website":" ","working_hour":"","latitude":"45.3311529","longitude":"-75.7047971"},{"source":"yellow page","service_name":"Blackline Systems Corp","category":"IT services","phone":"613-228-0226","address":"22 Gurdwara Rd, Ottawa, ON K2E 8A2","postalcode":"K2E 8A2","website":"http://www.blackline.ca","working_hour":"","latitude":"45.3371534","longitude":"-75.7038475"},{"source":"yellow page","service_name":"Chippower Headquarters","category":"IT services","phone":"613-723-5009","address":"200-210 Colonnade Rd, Nepean, ON K2E 7L5","postalcode":"K2E 7L5","website":"http://www.chippower.com","working_hour":"","latitude":"45.3418031","longitude":"-75.7137439"},{"source":"yellow page","service_name":"Larus Technologies Corp","category":"IT services","phone":"6132448916","address":"58 Antares Dr, Ottawa, ON K2E 7W6","postalcode":"K2E 7W6","website":"http://www.larus.com","working_hour":"","latitude":"45.330683","longitude":"-75.709037"},{"source":"yellow page","service_name":"Tecsis Corporation","category":"IT services","phone":"613-723-0023","address":"203 Colonnade S, Nepean, ON K2E 7K3","postalcode":"K2E 7K3","website":" ","working_hour":"","latitude":"45.341694","longitude":"-75.714761"},{"source":"yellow page","service_name":"Computer Idol","category":"IT services","phone":"613-224-5421","address":"190 Colonnade Rd, Nepean, ON K2E 7J5","postalcode":"K2E 7J5","website":" ","working_hour":"","latitude":"45.341386","longitude":"-75.716968"},{"source":"yellow page","service_name":"Future Path Development Group Inc","category":"IT services","phone":"613-226-6246","address":"183 Colonnade Rd, Nepean, ON K2E 7J4","postalcode":"K2E 7J4","website":"http://futurepath.com","working_hour":"","latitude":"45.342108","longitude":"-75.710863"},{"source":"yellow page","service_name":"Brainhunter (Ottawa) Inc","category":"IT services","phone":"613-789-7000","address":"1545-600 Carling Av, ON K1Z 8P9","postalcode":"K1Z 8P9","website":" ","working_hour":"","latitude":"45.397197","longitude":"-75.708256"},{"source":"yellow page","service_name":"XIA Systems Corporation","category":"IT services","phone":"613-482-4452","address":"205-6 Gurdwara Rd, Nepean, ON K2E 8A3","postalcode":"K2E 8A3","website":" ","working_hour":"","latitude":"45.335678","longitude":"-75.702542"},{"source":"yellow page","service_name":"Hughes R F","category":"IT services","phone":"613-798-7386","address":"55 Gwynne Ave, Ottawa, ON K1Y 1X1","postalcode":"K1Y 1X1","website":" ","working_hour":"","latitude":"45.395182","longitude":"-75.718754"},{"source":"yellow page","service_name":"Bitheads","category":"IT services","phone":"6137847300","address":"1309 Carling Ave, Ottawa, ON K1Z 7L3","postalcode":"K1Z 7L3","website":" ","working_hour":"","latitude":"45.385672","longitude":"-75.735223"},{"source":"yellow page","service_name":"Fountain Technical Services","category":"IT services","phone":"613-237-4151","address":"430 Gladstone Ave, Ottawa, ON K2P 0Z1","postalcode":"K2P 0Z1","website":" ","working_hour":"","latitude":"45.411395","longitude":"-75.695417"},{"source":"yellow page","service_name":"Wildboar CTI Systems Corp","category":"IT services","phone":"613-261-9668","address":"201-119 Ross Ave, Ottawa, ON K1Y 0N6","postalcode":"K1Y 0N6","website":" ","working_hour":"","latitude":"45.3995012","longitude":"-75.7379007"},{"source":"yellow page","service_name":"Wildboar CTI Systeme Corp","category":"IT services","phone":"6132481900","address":"201-119 Ross Ave, Ottawa, ON K1Y 0N6","postalcode":"K1Y 0N6","website":" ","working_hour":"","latitude":"45.3995012","longitude":"-75.7379007"},{"source":"yellow page","service_name":"Intelec Marketing Inc","category":"IT services","phone":"6137296485","address":"37 Viscount Ave, Ottawa, ON K1Z 7M8","postalcode":"K1Z 7M8","website":" ","working_hour":"","latitude":"45.387382","longitude":"-75.729316"},{"source":"yellow page","service_name":"Intercom Data Processing Consultants Inc","category":"IT services","phone":"613-736-9293","address":"97 Kimberwick Cres, Ottawa, ON K1V 1K7","postalcode":"K1V 1K7","website":" ","working_hour":"","latitude":"45.339354","longitude":"-75.693318"},{"source":"yellow page","service_name":"Bitheads Inc","category":"IT services","phone":"613-722-3232","address":"E2-1309 Carling Ave, Ottawa, ON K1Z 7L3","postalcode":"K1Z 7L3","website":" ","working_hour":"","latitude":"45.386957","longitude":"-75.735"},{"source":"yellow page","service_name":"Schultz Computer Network System","category":"IT services","phone":"6137249954","address":"630 Tweedsmuir Ave, Ottawa, ON K1Z 5P5","postalcode":"K1Z 5P5","website":" ","working_hour":"","latitude":"45.385648","longitude":"-75.745327"},{"source":"yellow page","service_name":"Consultant Laurent Denis Inc","category":"IT services","phone":"819-664-8943","address":"197, rue Arthur-Quesnel, Gatineau, QC J9H 7T8","postalcode":"J9H 7T8","website":" ","working_hour":"","latitude":"45.3922388","longitude":"-75.8138945"},{"source":"yellow page","service_name":"Bion Biometrics Inc","category":"IT services","phone":"613-255-6370","address":"63 Glencoe St, Nepean, ON K2H 8S5","postalcode":"K2H 8S5","website":"http://www.bionbiometrics.com","working_hour":"","latitude":"45.325223","longitude":"-75.781631"},{"source":"yellow page","service_name":"The Powell Group","category":"IT services","phone":"613-798-7647","address":"887 Richmond Rd, Ottawa, ON K2A 0G8","postalcode":"K2A 0G8","website":"http://tpgtechnology.com","working_hour":"","latitude":"45.378628","longitude":"-75.773881"},{"source":"yellow page","service_name":"TASKE Technology Inc","category":"IT services","phone":"613-596-2533","address":"2650 Queensview Dr, Ottawa, ON K2B 8H6","postalcode":"K2B 8H6","website":"http://www.taske.com","working_hour":"","latitude":"45.354065","longitude":"-75.785057"},{"source":"yellow page","service_name":"Tangible Dream Solutions","category":"IT services","phone":"613-721-0143","address":"892 Roseview Ave, Ottawa, ON K2B 6J4","postalcode":"K2B 6J4","website":" ","working_hour":"","latitude":"45.352648","longitude":"-75.801907"},{"source":"yellow page","service_name":"Hingston Information Systems","category":"IT services","phone":"6135966324","address":"3754 Richmond Rd, Ottawa, ON K2H 5B9","postalcode":"K2H 5B9","website":" ","working_hour":"","latitude":"45.325112","longitude":"-75.825624"},{"source":"yellow page","service_name":"A & G Tech Services","category":"IT services","phone":"6138203245","address":"236 Britannia Rd, Ottawa, ON K2B 5X2","postalcode":"K2B 5X2","website":" ","working_hour":"","latitude":"45.366305","longitude":"-75.797215"},{"source":"yellow page","service_name":"Spearhead Canada Ltd","category":"IT services","phone":"6132263056","address":"887 Richmond Rd, Ottawa, ON K2A 0G8","postalcode":"K2A 0G8","website":"http://tpgtechnology.com","working_hour":"","latitude":"45.378628","longitude":"-75.773881"},{"source":"yellow page","service_name":"Silico Computer Systems Ltd","category":"IT services","phone":"6137270465","address":"1445 Woodroffe Ave, Nepean, ON K2G 1W1","postalcode":"K2G 1W1","website":" ","working_hour":"","latitude":"45.340637","longitude":"-75.755705"},{"source":"yellow page","service_name":"Devon Group Ltd","category":"IT services","phone":"613-567-2281","address":"887 Richmond Rd, Ottawa, ON K2A 0G8","postalcode":"K2A 0G8","website":" ","working_hour":"","latitude":"45.378628","longitude":"-75.773881"},{"source":"yellow page","service_name":"JPMV Realtime Inc","category":"IT services","phone":"613-296-0777","address":"2321 Rembrandt Rd, Ottawa, ON K2B 7P6","postalcode":"K2B 7P6","website":" ","working_hour":"","latitude":"45.361976","longitude":"-75.772799"},{"source":"yellow page","service_name":"Keep Connected","category":"IT services","phone":"613-445-1500","address":"2720 Queensview Dr, Ottawa, ON K2B 1A5","postalcode":"K2B 1A5","website":" ","working_hour":"","latitude":"45.3524","longitude":"-75.788893"},{"source":"yellow page","service_name":"G J Associates Inc","category":"IT services","phone":"613-725-6048","address":"A-945 Richmond Rd, Ottawa, ON K2B 8B9","postalcode":"K2B 8B9","website":" ","working_hour":"","latitude":"45.377082","longitude":"-75.775666"},{"source":"yellow page","service_name":"Analytics Edge","category":"IT services","phone":"613-795-3570","address":"2121 Westbourne Ave, Ottawa, ON K2A 1N3","postalcode":"K2A 1N3","website":" ","working_hour":"","latitude":"45.366243","longitude":"-75.765486"},{"source":"yellow page","service_name":"Atreus Systems Corp","category":"IT services","phone":"613-683-3600","address":"1130 Morrison Dr, Ottawa, ON K2H 9N6","postalcode":"K2H 9N6","website":" ","working_hour":"","latitude":"45.345092","longitude":"-75.796227"},{"source":"yellow page","service_name":"Versaterm Inc","category":"IT services","phone":"613-820-0311","address":"2300 Carling Ave, Ottawa, ON K2B 7G1","postalcode":"K2B 7G1","website":"http://versaterm.com","working_hour":"","latitude":"45.367997","longitude":"-75.775429"},{"source":"yellow page","service_name":"Attain Insight Solutions Inc","category":"IT services","phone":"613-235-0200","address":"463 Ancaster Ave, Ottawa, ON K2B 5B6","postalcode":"K2B 5B6","website":"http://www.attaininsight.com","working_hour":"","latitude":"45.370799","longitude":"-75.772776"},{"source":"yellow page","service_name":"Logic 2000 Inc","category":"IT services","phone":"613-728-1515","address":"887 Richmond Rd, Ottawa, ON K2A 0G8","postalcode":"K2A 0G8","website":"http://www.logic2000.com","working_hour":"","latitude":"45.378628","longitude":"-75.773881"},{"source":"yellow page","service_name":"Roger Trottier Consultant","category":"IT services","phone":"8196842401","address":"56 rue Gérald-Dubois, Gatineau, QC J9H 7B1","postalcode":"J9H 7B1","website":" ","working_hour":"","latitude":"45.3880078","longitude":"-75.8141707"},{"source":"yellow page","service_name":"Quadra Systems","category":"IT services","phone":"613-231-1090","address":"889 Lady Ellen Pl, Ottawa, ON K1Z 5L3","postalcode":"K1Z 5L3","website":"http://www.quadrasystems.ca","working_hour":"","latitude":"45.378724","longitude":"-75.742333"},{"source":"yellow page","service_name":"Internal Office Solutions Inc","category":"IT services","phone":"613-860-4674","address":"137 Stoneway Dr, Nepean, ON K2G 6P5","postalcode":"K2G 6P5","website":"http://www.iosi.ca","working_hour":"","latitude":"45.288589","longitude":"-75.718594"},{"source":"yellow page","service_name":"Brainhunter","category":"IT services","phone":"613-761-9436","address":"1545 Carling Ave, Ottawa, ON K1Z 8P9","postalcode":"K1Z 8P9","website":" ","working_hour":"","latitude":"45.3816333","longitude":"-75.7444997"},{"source":"yellow page","service_name":"Chipware","category":"IT services","phone":"613-747-2447","address":"1237 Albany Dr, Ottawa, ON K2C 2L6","postalcode":"K2C 2L6","website":"http://chipware.ca","working_hour":"","latitude":"45.360755","longitude":"-75.755131"},{"source":"yellow page","service_name":"EML Inc","category":"IT services","phone":"613-225-9847","address":"ON K2E 7G4","postalcode":"K2E 7G4","website":" ","working_hour":"","latitude":"45.322886","longitude":"-75.70952"},{"source":"yellow page","service_name":"Artis","category":"IT services","phone":"613-828-5606","address":"303 Moodie Dr, Ottawa, ON K2H 9R4","postalcode":"K2H 9R4","website":" ","working_hour":"","latitude":"45.3264914","longitude":"-75.8356797"},{"source":"yellow page","service_name":"Thinknostic","category":"IT services","phone":"613-751-4441","address":"200-303 Moodie Dr, Ottawa, ON K2H 9R4","postalcode":"K2H 9R4","website":"http://www.thinkwrap.com","working_hour":"","latitude":"45.3264914","longitude":"-75.8356797"},{"source":"yellow page","service_name":"Solana Networks Network Bandwith Monitoring Service","category":"IT services","phone":"613-596-2557","address":"301 Moodie Dr, Nepean, ON K2H 9C4","postalcode":"K2H 9C4","website":" ","working_hour":"","latitude":"45.3266201","longitude":"-75.8357471"},{"source":"yellow page","service_name":"Inaware Inc","category":"IT services","phone":"613-596-0906","address":"33 Tybalt Cres, Nepean, ON K2H 8J6","postalcode":"K2H 8J6","website":" ","working_hour":"","latitude":"45.31776","longitude":"-75.832608"},{"source":"yellow page","service_name":"Windrose Management","category":"IT services","phone":"613-226-1010","address":"12 Grenfell Cres, Nepean, ON K2G 0G2","postalcode":"K2G 0G2","website":" ","working_hour":"","latitude":"45.324192","longitude":"-75.721501"},{"source":"yellow page","service_name":"Infoptic Technology","category":"IT services","phone":"613-823-5688","address":"Nepean, Jockvale, ON K2G 6P3","postalcode":"K2G 6P3","website":" ","working_hour":"","latitude":"45.289539","longitude":"-75.721775"},{"source":"yellow page","service_name":"Nimbus Business","category":"IT services","phone":"613-720-5388","address":"35 Brockington Cres, Nepean, ON K2G 4J8","postalcode":"K2G 4J8","website":" ","working_hour":"","latitude":"45.335431","longitude":"-75.750988"},{"source":"yellow page","service_name":"Altruistic Informatics Consulting","category":"IT services","phone":"613-723-7471","address":"310-1750 Courtwood Cres, Ottawa, ON K2C 2B5","postalcode":"K2C 2B5","website":"http://altruistic.ca","working_hour":"","latitude":"45.37137","longitude":"-75.749608"},{"source":"yellow page","service_name":"The Coates Agency","category":"IT services","phone":"613-225-6603","address":"333-1827 Woodward Dr, Ottawa, ON K2C 0P9","postalcode":"K2C 0P9","website":" ","working_hour":"","latitude":"45.368878","longitude":"-75.752308"},{"source":"yellow page","service_name":"Zernam Enterprise Inc","category":"IT services","phone":"613-695-1188","address":"1701 Woodward Dr, Ottawa, ON K2C 0R4","postalcode":"K2C 0R4","website":" ","working_hour":"","latitude":"45.37286","longitude":"-75.749442"},{"source":"yellow page","service_name":"Compulite Business Solutions","category":"IT services","phone":"613-723-6466","address":"1701 Woodward Dr, Ottawa, ON K2C 0R4","postalcode":"K2C 0R4","website":" ","working_hour":"","latitude":"45.37286","longitude":"-75.749442"},{"source":"yellow page","service_name":"Metafore","category":"IT services","phone":"613-727-5666","address":"1545 Carling Ave, Ottawa, ON K1Z 8P9","postalcode":"K1Z 8P9","website":" ","working_hour":"","latitude":"45.3816333","longitude":"-75.7444997"},{"source":"yellow page","service_name":"Hingston Information Systems","category":"IT services","phone":"6136882998","address":"24B Sonnet Cres, Nepean, ON K2H 8W7","postalcode":"K2H 8W7","website":" ","working_hour":"","latitude":"45.3137463","longitude":"-75.829835"},{"source":"yellow page","service_name":"Questware Solutions Inc","category":"IT services","phone":"613-761-8117","address":"36 Raftus Sq, Nepean, ON K2J 1J3","postalcode":"K2J 1J3","website":" ","working_hour":"","latitude":"45.276789","longitude":"-75.773267"},{"source":"yellow page","service_name":"SRGG Solutions","category":"IT services","phone":"613-230-7744","address":"900 Greenbank Rd, Nepean, ON K2J 1S8","postalcode":"K2J 1S8","website":"http://srggsolutions.com","working_hour":"","latitude":"45.285175","longitude":"-75.755329"},{"source":"yellow page","service_name":"Near Shore Consulting Ltd","category":"IT services","phone":"613-831-3933","address":"20 Quartz Cres, Stittsville, ON K2S 1Z3","postalcode":"K2S 1Z3","website":" ","working_hour":"","latitude":"45.274692","longitude":"-75.907328"},{"source":"yellow page","service_name":"Nebularis Information Systems","category":"IT services","phone":"6134400108","address":"900 Greenbank Rd, Nepean, ON K2J 4P6","postalcode":"K2J 4P6","website":" ","working_hour":"","latitude":"45.285175","longitude":"-75.755329"},{"source":"yellow page","service_name":"Facile Solutions","category":"IT services","phone":"613-867-7594","address":"3857 Strandherd Dr, Ottawa, ON K2J 0K3","postalcode":"K2J 0K3","website":" ","working_hour":"","latitude":"45.265525","longitude":"-75.756331"},{"source":"yellow page","service_name":"Turtle Technologies Inc","category":"IT services","phone":"613-836-0001","address":"1300 Stittsville Main St, Stittsville, ON K2S 1A3","postalcode":"K2S 1A3","website":"http://www.turtletech.ca","working_hour":"Monday 9:00 am - 5:00 pm   Tuesday 9:00 am - 5:00 pm   Wednesday 9:00 am - 5:00 pm   Thursday 9:00 am - 5:00 pm   Friday 9:00 am - 5:00 pm","latitude":"45.265847","longitude":"-75.929242"},{"source":"yellow page","service_name":"Unisys Canada","category":"IT services","phone":"613-656-4287","address":"68 Brightside Av, ON","postalcode":"","website":" ","working_hour":"","latitude":"45.249939","longitude":"-75.90433"},{"source":"yellow page","service_name":"Ids Systems Consultants Inc","category":"IT services","phone":"613-836-3238","address":"29 Ballyboy St, Stittsville, ON K2S 2H2","postalcode":"K2S 2H2","website":"http://idssystems.com","working_hour":"","latitude":"45.256071","longitude":"-75.932552"},{"source":"yellow page","service_name":"Kridan Consulting Inc","category":"IT services","phone":"613-371-4683","address":"43 Steggall Cres, Ottawa, ON K2S 1S4","postalcode":"K2S 1S4","website":"http://www.kridan-consulting.com","working_hour":"","latitude":"45.258774","longitude":"-75.938726"},{"source":"yellow page","service_name":"DG Tek Consultant","category":"IT services","phone":"450-424-9869","address":"1323, rue de Lexington, Saint-Lazare, QC J7T 2L3","postalcode":"J7T 2L3","website":" ","working_hour":"","latitude":"45.3992046","longitude":"-74.1712625"},{"source":"yellow page","service_name":"MSD Informatique","category":"IT services","phone":"450-592-1330","address":"143, rue des Fauvettes, Saint-Colomban, QC J5K 0E2","postalcode":"J5K 0E2","website":" ","working_hour":"","latitude":"45.7488083","longitude":"-74.0966307"},{"source":"yellow page","service_name":"Réseau Hi-Tech","category":"IT services","phone":"514-777-2955","address":"65, ch des Rochers RR 1, Saint-Sauveur, QC J0R 1R1","postalcode":"J0R 1R1","website":" ","working_hour":"","latitude":"45.8572095","longitude":"-74.2033743"},{"source":"yellow page","service_name":"McAfee","category":"IT services","phone":"514-300-1803","address":"2083, rue du Magistrat, Saint-Lazare, QC J7T 3H7","postalcode":"J7T 3H7","website":" ","working_hour":"","latitude":"45.4197491","longitude":"-74.1443252"},{"source":"yellow page","service_name":"Informatique Commerciale du Suroît Inc","category":"IT services","phone":"450-424-1611","address":"2270, ch Saint-Louis, Saint-Lazare, QC J7T 1Y1","postalcode":"J7T 1Y1","website":" ","working_hour":"Monday 8:30 am - 5:00 pm   Tuesday 8:30 am - 5:00 pm   Wednesday 8:30 am - 5:00 pm   Thursday 8:30 am - 5:00 pm   Friday 8:30 am - 5:00 pm","latitude":"45.4180652","longitude":"-74.125418"},{"source":"yellow page","service_name":"David et Goliath Communications","category":"IT services","phone":"438-796-2170","address":"97, ch Watchorn, Morin-Heights, QC J0R 1H0","postalcode":"J0R 1H0","website":" ","working_hour":"Appointment Only","latitude":"45.9027982","longitude":"-74.2544879"},{"source":"yellow page","service_name":"Sylvain Champagne Gestion","category":"IT services","phone":"514-743-6330","address":"14071, rue Leblanc, Mirabel, QC J7N 1R7","postalcode":"J7N 1R7","website":" ","working_hour":"Monday 9:00 am - 6:00 pm   Tuesday 9:00 am - 6:00 pm   Wednesday 9:00 am - 6:00 pm   Thursday 9:00 am - 6:00 pm   Friday 9:00 am - 6:00 pm","latitude":"45.707904","longitude":"-74.087478"},{"source":"yellow page","service_name":"Shawn Bisaillon Consultant Informatique","category":"IT services","phone":"450-409-3233","address":"202A-505, av Béthany, Lachute, QC J8H 4A6","postalcode":"J8H 4A6","website":" ","working_hour":"","latitude":"45.637485","longitude":"-74.3271179"},{"source":"yellow page","service_name":"Sysco Data Ltee","category":"IT services","phone":"450-592-0927","address":"104, rue du Promontoire, St-Colomban, QC J5K 0C9","postalcode":"J5K 0C9","website":" ","working_hour":"","latitude":"45.7817574","longitude":"-74.1429286"},{"source":"yellow page","service_name":"Patrick Delisle","category":"IT services","phone":"450-592-4447","address":"106, rue du Promontoire, Saint-Colomban, QC J5K 0C9","postalcode":"J5K 0C9","website":" ","working_hour":"Appointments Available: Monday, Tuesday, Wednesday, Thursday, Friday.","latitude":"45.782256","longitude":"-74.1435659"},{"source":"yellow page","service_name":"Markgraf Consulting","category":"IT services","phone":"450-458-1319","address":"716 Main, Hudson, QC J0P 1J0","postalcode":"J0P 1J0","website":" ","working_hour":"Monday 10:00 am - 6:00 pm   Tuesday 10:00 am - 6:00 pm   Wednesday 10:00 am - 6:00 pm   Thursday 10:00 am - 6:00 pm   Friday 10:00 am - 6:00 pm","latitude":"45.4727646","longitude":"-74.1825682"},{"source":"yellow page","service_name":"Informatique","category":"IT services","phone":"450-592-1480","address":"115, rue du Sommet, St-Colomban, QC J5K 1L5","postalcode":"J5K 1L5","website":" ","working_hour":"","latitude":"45.772415","longitude":"-74.135186"},{"source":"yellow page","service_name":"Limpid-IT","category":"IT services","phone":"","address":"320, rue des Celtes, Saint-Colomban, QC J5K 0G7","postalcode":"J5K 0G7","website":"http://www.limpid-it.com/","working_hour":"24 hours a day - 7 days a week   Appointment Only","latitude":"45.739476","longitude":"-74.139128"},{"source":"yellow page","service_name":"Cotechnoe","category":"IT services","phone":"514-553-1323","address":"2356, ch Bourbonnière, Lachute, QC J8H 3W7","postalcode":"J8H 3W7","website":"http://www.cotechnoe.com/","working_hour":"Monday 9:00 am - 5:00 pm   Tuesday 9:00 am - 5:00 pm   Wednesday 9:00 am - 5:00 pm   Thursday 9:00 am - 5:00 pm   Friday 9:00 am - 5:00 pm   Appointment Only   Emergency Appointments Available","latitude":"45.6643739","longitude":"-74.2542814"},{"source":"yellow page","service_name":"GuyRoy.com","category":"IT services","phone":"514-569-4122","address":"2109, rue de la Plantation, Saint-Lazare, QC J7T 1X7","postalcode":"J7T 1X7","website":"http://ww2.guyroy.com","working_hour":"Monday 9:00 am - 9:00 pm   Tuesday 9:00 am - 9:00 pm   Wednesday 9:00 am - 9:00 pm   Thursday 9:00 am - 9:00 pm   Friday 9:00 am - 9:00 pm   Saturday 9:00 am - 5:00 pm   Sunday 9:00 am - 5:00 pm","latitude":"45.3979165","longitude":"-74.1468659"},{"source":"yellow page","service_name":"Cybercan Corporation","category":"IT services","phone":"613-292-1980","address":"609-900 Greenbank Rd, Nepean, ON K2J 1S8","postalcode":"K2J 1S8","website":"http://cybercan.com","working_hour":"","latitude":"45.285175","longitude":"-75.755329"},{"source":"yellow page","service_name":"Crystal Consulting","category":"IT services","phone":"613-261-2127","address":"Ottawa, ON K2J 4Z4","postalcode":"K2J 4Z4","website":"http://www.crystal-consulting.ca","working_hour":"","latitude":"45.280494","longitude":"-75.732533"},{"source":"yellow page","service_name":"Potencia Technologies Inc","category":"IT services","phone":"613-283-8360","address":"1577 Richmond Rd, Smiths Falls, ON K7A 4S7","postalcode":"K7A 4S7","website":" ","working_hour":"","latitude":"45.075023","longitude":"-76.018817"},{"source":"yellow page","service_name":"Fortin Consulting","category":"IT services","phone":"613-264-4888","address":"3-1881 Rogers Rd, Perth, ON K7H 3P7","postalcode":"K7H 3P7","website":"http://www.fortinconsulting.ca","working_hour":"Monday 9:00 am - 12:00 pm   Tuesday 9:00 am - 12:00 pm   Wednesday 9:00 am - 12:00 pm   Thursday 9:00 am - 12:00 pm   Friday 9:00 am - 12:00 pm","latitude":"44.900663","longitude":"-76.250609"},{"source":"yellow page","service_name":"PrintFleet Inc","category":"IT services","phone":"613-382-8320","address":"","postalcode":"","website":" ","working_hour":"Monday 9:00 am - 6:00 pm   Tuesday 9:00 am - 6:00 pm   Wednesday 9:00 am - 6:00 pm   Thursday 9:00 am - 6:00 pm   Friday 9:00 am - 6:00 pm","latitude":"","longitude":""},{"source":"yellow page","service_name":"Storm Internet Services","category":"IT services","phone":"613-567-6585","address":"38 Gore St E, Perth, ON K7H 1H5","postalcode":"K7H 1H5","website":"http://storminternetservices.perthchamber.com","working_hour":"Monday 9:00 am - 12:00 pm   Tuesday 9:00 am - 12:00 pm   Wednesday 9:00 am - 12:00 pm   Thursday 9:00 am - 12:00 pm   Friday 9:00 am - 12:00 pm","latitude":"44.900498","longitude":"-76.250185"},{"source":"yellow page","service_name":"Dataffinity Business Systems","category":"IT services","phone":"905-375-4049","address":"Carlisle St, Cobourg, ON K9A 5E4","postalcode":"K9A 5E4","website":"http://www.dataffinity.com","working_hour":"Monday 9:00 am - 12:00 pm   Tuesday 9:00 am - 12:00 pm   Wednesday 9:00 am - 12:00 pm   Thursday 9:00 am - 12:00 pm   Friday 9:00 am - 12:00 pm","latitude":"43.968252","longitude":"-78.198252"},{"source":"yellow page","service_name":"Quickstart Computer Solutions","category":"IT services","phone":"613-920-3105","address":"ON","postalcode":"","website":" ","working_hour":"","latitude":"","longitude":""},{"source":"yellow page","service_name":"Geeks Galore Computer Centre","category":"IT services","phone":"6132100896","address":"ON","postalcode":"","website":"http://www.geeksgalore.ca","working_hour":"","latitude":"43.651893","longitude":"-79.381713"},{"source":"yellow page","service_name":"Cartels Consulting Services","category":"IT services","phone":"613-661-3290","address":"204 Lakeshore Rd RR 4, Brighton, ON K0K 1H0","postalcode":"K0K 1H0","website":"http://www.cartelsconsulting.com","working_hour":"Monday 9:00 am - 12:00 pm   Tuesday 9:00 am - 12:00 pm   Wednesday 9:00 am - 12:00 pm   Thursday 9:00 am - 12:00 pm   Friday 9:00 am - 12:00 pm","latitude":"44.092511","longitude":"-77.766942"},{"source":"yellow page","service_name":"Velocity Technical Services","category":"IT services","phone":"613-966-0840","address":"","postalcode":"","website":" ","working_hour":"","latitude":"","longitude":""},{"source":"yellow page","service_name":"Canadian Business Computers","category":"IT services","phone":"1-844-804-7216","address":"9 King St W, Cobourg, ON K9A 2L8","postalcode":"K9A 2L8","website":"http://www.canadianbusinesscomputers.com","working_hour":"24 Hour Business Support","latitude":"43.959812","longitude":"-78.165844"},{"source":"yellow page","service_name":"MostlyMac Computer Consulting","category":"IT services","phone":"705-313-9167","address":"ON","postalcode":"","website":"http://mostlymac.ca","working_hour":"Monday 9:00 am - 4:00 pm   Tuesday 9:00 am - 4:00 pm   Wednesday 9:00 am - 4:00 pm   Thursday 9:00 am - 4:00 pm   Friday 9:00 am - 4:00 pm   Emergency Appointments Available","latitude":"","longitude":""},{"source":"yellow page","service_name":"Computer Taming Services","category":"IT services","phone":"7052771082","address":"Cavan, ON L0A 1C0","postalcode":"L0A 1C0","website":"http://trainingservices.com/","working_hour":"","latitude":"44.190909","longitude":"-78.487356"},{"source":"yellow page","service_name":"Bradley Ling and &Associates","category":"IT services","phone":"705-740-4795","address":"PO Box 1305 Stn Main, Peterborough, ON K9J 7H5","postalcode":"K9J 7H5","website":" ","working_hour":"","latitude":"44.279641","longitude":"-78.24454"},{"source":"yellow page","service_name":"Gregory Consulting Limited","category":"IT services","phone":"7052771861","address":"Pontypool, ON L0A 1K0","postalcode":"L0A 1K0","website":"http://www.gregcons.com","working_hour":"","latitude":"","longitude":""},{"source":"yellow page","service_name":"Nelson Enterprises","category":"IT services","phone":"705-761-5787","address":"ON","postalcode":"","website":"http://blairnelsonenterprises.com","working_hour":"","latitude":"","longitude":""},{"source":"yellow page","service_name":"Cemo Associates","category":"IT services","phone":"905-372-0173","address":"9604 County Road 2 E, Cobourg, ON K9A 4J8","postalcode":"K9A 4J8","website":"http://www.cemoassoc.ca/","working_hour":"Monday 9:00 am - 12:00 pm   Tuesday 9:00 am - 12:00 pm   Wednesday 9:00 am - 12:00 pm   Thursday 9:00 am - 12:00 pm   Friday 9:00 am - 12:00 pm","latitude":"43.9743316","longitude":"-78.103874"},{"source":"yellow page","service_name":"K M-C Designs Computers & Technology","category":"IT services","phone":"647-688-4168","address":"59 Somerscales Dr, Bowmanville, ON L1C 5B7","postalcode":"L1C 5B7","website":"http://www.kmccomputers.com","working_hour":"","latitude":"43.927609","longitude":"-78.697055"},{"source":"yellow page","service_name":"JC Kelly Microsolutions","category":"IT services","phone":"416-560-4484","address":"363-975A Elgin St W, Cobourg, ON K9A 5J3","postalcode":"K9A 5J3","website":"http://www.jckelly.com","working_hour":"","latitude":"43.972417","longitude":"-78.19433"},{"source":"yellow page","service_name":"Horn IT Solutions","category":"IT services","phone":"647-560-2121","address":"ON","postalcode":"","website":" ","working_hour":"","latitude":"","longitude":""},{"source":"yellow page","service_name":"Tech Squad","category":"IT services","phone":"9056652872","address":"9-3975 Garden St N, Whitby, ON L1R 3A4","postalcode":"L1R 3A4","website":" ","working_hour":"","latitude":"43.917116","longitude":"-78.947638"},{"source":"yellow page","service_name":"Cadmus Managed IT Services","category":"IT services","phone":"289-278-2163","address":"42 Old Colony Dr, Whitby, ON L1R 2A4","postalcode":"L1R 2A4","website":" ","working_hour":"","latitude":"43.904016","longitude":"-78.950089"},{"source":"yellow page","service_name":"Zft Technical Services","category":"IT services","phone":"905-665-4888","address":"ON","postalcode":"","website":" ","working_hour":"","latitude":"","longitude":""},{"source":"yellow page","service_name":"LANet Solutions","category":"IT services","phone":"905-655-9618","address":"ON","postalcode":"","website":" ","working_hour":"","latitude":"","longitude":""},{"source":"yellow page","service_name":"Infotask International In","category":"IT services","phone":"905-665-6545","address":"78 James Rowe Crt, Whitby, ON L1R 2Y3","postalcode":"L1R 2Y3","website":"http://www.infotask.ca","working_hour":"Monday 9:00 am - 5:00 pm   Tuesday 9:00 am - 5:00 pm   Wednesday 9:00 am - 5:00 pm   Thursday 9:00 am - 5:00 pm   Friday 9:00 am - 5:00 pm","latitude":"43.899573","longitude":"-78.952452"},{"source":"yellow page","service_name":"Kojac Consulting","category":"IT services","phone":"905-665-3394","address":"46 Muir Cres, Whitby, ON L1P 1B6","postalcode":"L1P 1B6","website":"http://www.kojac-consulting.com","working_hour":"Monday 9:00 am - 6:00 pm   Tuesday 9:00 am - 6:00 pm   Wednesday 9:00 am - 6:00 pm   Thursday 9:00 am - 6:00 pm   Friday 9:00 am - 6:00 pm","latitude":"43.887348","longitude":"-78.974219"},{"source":"yellow page","service_name":"Photographic Design Flair","category":"IT services","phone":"905-665-9246","address":"21 Lismer Dr, Whitby, ON L1N 9A3","postalcode":"L1N 9A3","website":" ","working_hour":"","latitude":"43.896071","longitude":"-78.942742"},{"source":"yellow page","service_name":"EnvisionTech Solutions","category":"IT services","phone":"905-999-9705","address":"27 Pardon Ave, Whitby, ON L1P 1V1","postalcode":"L1P 1V1","website":" ","working_hour":"Monday 9:00 am - 6:00 pm   Tuesday 9:00 am - 6:00 pm   Wednesday 9:00 am - 6:00 pm   Thursday 9:00 am - 6:00 pm   Friday 9:00 am - 6:00 pm","latitude":"43.906239","longitude":"-78.974568"},{"source":"yellow page","service_name":"DSD Computers","category":"IT services","phone":"416-817-6776","address":"92 Medland Ave, Whitby, ON L1P 1T5","postalcode":"L1P 1T5","website":"http://dsdcomputers.com","working_hour":"Monday 8:00 am - 5:00 pm   Tuesday 8:00 am - 5:00 pm   Wednesday 8:00 am - 5:00 pm   Thursday 8:00 am - 5:00 pm   Friday 8:00 am - 5:00 pm   Saturday 8:00 am - 5:00 pm   Sunday 8:00 am - 5:00 pm","latitude":"43.907052","longitude":"-78.973758"},{"source":"yellow page","service_name":"Novinsoft Inc","category":"IT services","phone":"905-985-8546","address":"14844 Old Simcoe Rd, Port Perry, ON L9L 1C8","postalcode":"L9L 1C8","website":"http://www.novinsoft.com","working_hour":"","latitude":"44.095643","longitude":"-78.955633"},{"source":"yellow page","service_name":"Nexcomp Consulting","category":"IT services","phone":"905-430-7781","address":"24006-601 Dundas W, Whitby, ON L1N 2N3","postalcode":"L1N 2N3","website":" ","working_hour":"","latitude":"43.87839","longitude":"-78.948629"},{"source":"yellow page","service_name":"SCI Canada","category":"IT services","phone":"9055560323","address":"ON","postalcode":"","website":" ","working_hour":"","latitude":"43.651893","longitude":"-79.381713"},{"source":"yellow page","service_name":"Twinsails Software Corporation","category":"IT services","phone":"905-697-8700","address":"8 Glenelge Crt, Bowmanville, ON L1C 4J1","postalcode":"L1C 4J1","website":" ","working_hour":"","latitude":"43.94196","longitude":"-78.719568"},{"source":"yellow page","service_name":"Bentsinas Technology Solutions","category":"IT services","phone":"416-726-8175","address":"ON","postalcode":"","website":" ","working_hour":"","latitude":"","longitude":""},{"source":"yellow page","service_name":"BSNIT","category":"IT services","phone":"905-576-9000","address":"47-1621 McEwen Dr, Whitby, ON L1N 9A5","postalcode":"L1N 9A5","website":"http://www.bsnit.com","working_hour":"24 hours a day - 7 days a week","latitude":"43.857739","longitude":"-78.896698"},{"source":"yellow page","service_name":"Dynamis Software Inc","category":"IT services","phone":"7052525013","address":"64 Edwards Dr, Barrie, ON L4N 9K8","postalcode":"L4N 9K8","website":"http://www.dynamis.co","working_hour":"","latitude":"44.361871","longitude":"-79.6308661"},{"source":"yellow page","service_name":"NDI Consulting","category":"IT services","phone":"705-728-4916","address":"22 Gaskin Crt, Barrie, ON L4N 6K2","postalcode":"L4N 6K2","website":" ","working_hour":"","latitude":"44.3862634","longitude":"-79.7142653"},{"source":"yellow page","service_name":"Devoted Technologies Inc","category":"IT services","phone":"705-812-2901","address":"3-50 Loggers Run, Barrie, ON L4N 6W5","postalcode":"L4N 6W5","website":" ","working_hour":"Monday 9:00 am - 6:00 pm   Tuesday 9:00 am - 6:00 pm   Wednesday 9:00 am - 6:00 pm   Thursday 9:00 am - 6:00 pm   Friday 9:00 am - 6:00 pm","latitude":"44.3535758","longitude":"-79.7036715"},{"source":"yellow page","service_name":"Smarts On Site","category":"IT services","phone":"705-734-0597","address":"10 Fox Run, Barrie, ON L4N 5L5","postalcode":"L4N 5L5","website":"http://smartsonsite.com","working_hour":"Monday 9:00 am - 6:00 pm   Tuesday 9:00 am - 6:00 pm   Wednesday 9:00 am - 6:00 pm   Thursday 9:00 am - 6:00 pm   Friday 9:00 am - 6:00 pm","latitude":"44.3833407","longitude":"-79.7191667"},{"source":"yellow page","service_name":"Neodec Services a Division of Solomon Manheimorporation","category":"IT services","phone":"905-473-3633","address":"4962 Cherry St, Mount Albert, ON L0G 1M0","postalcode":"L0G 1M0","website":" ","working_hour":"","latitude":"44.152716","longitude":"-79.306234"},{"source":"yellow page","service_name":"The Rockley Group Inc","category":"IT services","phone":"905-939-9298","address":"166 Main, Schomberg, ON L0G 1T0","postalcode":"L0G 1T0","website":"http://www.rockley.com","working_hour":"Monday 9:00 am - 6:00 pm   Tuesday 9:00 am - 6:00 pm   Wednesday 9:00 am - 6:00 pm   Thursday 9:00 am - 6:00 pm   Friday 9:00 am - 6:00 pm","latitude":"44.0004161","longitude":"-79.682899"},{"source":"yellow page","service_name":"Micro-Works","category":"IT services","phone":"705-721-6669","address":"431 Bayview Dr, Barrie, ON L4N 8Y2","postalcode":"L4N 8Y2","website":" ","working_hour":"","latitude":"44.3452762","longitude":"-79.6786994"},{"source":"yellow page","service_name":"NetCom Solutions Plus","category":"IT services","phone":"416-839-8359","address":"3 Jenkins Lane, Ajax, ON L1S 3N7","postalcode":"L1S 3N7","website":"http://netcomplus.ca","working_hour":"","latitude":"43.827704","longitude":"-79.013305"},{"source":"yellow page","service_name":"International Business Partners","category":"IT services","phone":"905-722-3896","address":"ON L0E 1R0","postalcode":"L0E 1R0","website":"http://www.bizpartners.ca","working_hour":"Monday 9:00 am - 5:00 pm   Tuesday 9:00 am - 5:00 pm   Wednesday 9:00 am - 5:00 pm   Thursday 9:00 am - 5:00 pm   Friday 9:00 am - 5:00 pm","latitude":"44.279397","longitude":"-79.420518"},{"source":"yellow page","service_name":"Noware Systems","category":"IT services","phone":"905-839-3044","address":"1595 Heathside Cres, Pickering, ON L1V 5X1","postalcode":"L1V 5X1","website":" ","working_hour":"","latitude":"43.8320502","longitude":"-79.1047524"},{"source":"yellow page","service_name":"TOJ Systems Inc","category":"IT services","phone":"9057135306","address":"336 Roywood Cres, Newmarket, ON L3Y 1A5","postalcode":"L3Y 1A5","website":" ","working_hour":"","latitude":"44.044023","longitude":"-79.459768"},{"source":"yellow page","service_name":"North Tech Solution","category":"IT services","phone":"705-795-4762","address":"11 McKenzie Cres, Barrie, ON L4N 5R5","postalcode":"L4N 5R5","website":" ","working_hour":"","latitude":"44.3558485","longitude":"-79.7196691"},{"source":"yellow page","service_name":"Digital Hero","category":"IT services","phone":"905-717-5498","address":"222 Bristol Rd, Newmarket, ON L3Y 7X6","postalcode":"L3Y 7X6","website":" ","working_hour":"","latitude":"44.069434","longitude":"-79.472965"},{"source":"yellow page","service_name":"Clickety-Quick Business Solutions & Training","category":"IT services","phone":"705-720-2888","address":"18 Carol Rd, Barrie, ON L4N 3P5","postalcode":"L4N 3P5","website":" ","working_hour":"Monday 9:00 am - 5:00 pm   Tuesday 9:00 am - 5:00 pm   Wednesday 9:00 am - 5:00 pm   Thursday 9:00 am - 5:00 pm   Friday 9:00 am - 5:00 pm","latitude":"44.3654436","longitude":"-79.6882817"},