{"table":[{"source":"yellow page","service_name":"Jamberry Nails & Lacquer","category":"manicure and pedicure","phone":"613-282-8207","address":"ON","postalcode":"","website":" ","working_hour":"","latitude":"","longitude":""},{"source":"yellow page","service_name":"Above All Nails","category":"manicure and pedicure","phone":"613-936-7460","address":"5505 Cedar View Dr RR 1, Long Sault, ON K0C 1P0","postalcode":"K0C 1P0","website":" ","working_hour":"","latitude":"45.06966","longitude":"-74.802644"},{"source":"yellow page","service_name":"KN Nails","category":"manicure and pedicure","phone":"613-933-6723","address":"1390 Second E, Cornwall, ON","postalcode":"","website":" ","working_hour":"","latitude":"","longitude":""},{"source":"yellow page","service_name":"Helen's Nails Spa and Hair Care","category":"manicure and pedicure","phone":"6132860684","address":"9-2430 Bank St, Ottawa, ON K1V 0T7","postalcode":"K1V 0T7","website":" ","working_hour":"Monday 10:00 am - 7:00 pm   Tuesday 10:00 am - 7:00 pm   Wednesday 10:00 am - 7:00 pm   Thursday 10:00 am - 7:00 pm   Friday 10:00 am - 7:00 pm   Saturday 10:00 am - 5:00 pm","latitude":"45.353997","longitude":"-75.648712"},{"source":"yellow page","service_name":"Fashion Nails","category":"manicure and pedicure","phone":"613-841-6274","address":"2020 Lanthier Dr, Orleans, ON K4A 3V4","postalcode":"K4A 3V4","website":" ","working_hour":"","latitude":"45.458237","longitude":"-75.493163"},{"source":"yellow page","service_name":"MP Fashion & Nails","category":"manicure and pedicure","phone":"6138345437","address":"1615 Orleans Blvd, Orleans, ON K1C 7E2","postalcode":"K1C 7E2","website":" ","working_hour":"","latitude":"45.460444","longitude":"-75.525577"},{"source":"yellow page","service_name":"Dorothy Nails","category":"manicure and pedicure","phone":"613-746-2041","address":"411 McArthur Ave, Ottawa, ON K1K 1G7","postalcode":"K1K 1G7","website":" ","working_hour":"","latitude":"45.432141","longitude":"-75.648637"},{"source":"yellow page","service_name":"Fashion Nails","category":"manicure and pedicure","phone":"613-749-3495","address":"1980 Ogilvie Rd, Gloucester, ON K1J 9L3","postalcode":"K1J 9L3","website":" ","working_hour":"","latitude":"45.434174","longitude":"-75.611513"},{"source":"yellow page","service_name":"Nice One Nails","category":"manicure and pedicure","phone":"6132267979","address":"1357 Baseline Rd, Ottawa, ON K2C 3G1","postalcode":"K2C 3G1","website":"http://niceonenails.ca","working_hour":"","latitude":"45.362283","longitude":"-75.737873"},{"source":"yellow page","service_name":"Spa Nails","category":"manicure and pedicure","phone":"613-692-0288","address":"5511 Manotick Main St, Ottawa, ON","postalcode":"","website":" ","working_hour":"","latitude":"45.226679","longitude":"-75.68664"},{"source":"yellow page","service_name":"Manotick Nails","category":"manicure and pedicure","phone":"613-692-6769","address":"5557 Manotick Main, Manotick, ON K4M 1B3","postalcode":"K4M 1B3","website":"http://www.manotickvillage.com","working_hour":"","latitude":"45.224419","longitude":"-75.683001"},{"source":"yellow page","service_name":"Refresh Nail Spa","category":"manicure and pedicure","phone":"613-838-8889","address":"6179 Perth St RR 1, Richmond, ON K0A 2Z0","postalcode":"K0A 2Z0","website":" ","working_hour":"","latitude":"45.192679","longitude":"-75.841556"},{"source":"yellow page","service_name":"J And J Nails","category":"manicure and pedicure","phone":"613-747-9448","address":"1950 Montreal Rd, Gloucester, ON K1J 6N2","postalcode":"K1J 6N2","website":" ","working_hour":"","latitude":"45.4460137","longitude":"-75.5970347"},{"source":"yellow page","service_name":"Spa Royale","category":"manicure and pedicure","phone":"613-237-1171","address":"590 Bank St, Ottawa, ON K1S 3T3","postalcode":"K1S 3T3","website":" ","working_hour":"","latitude":"45.4076901","longitude":"-75.6910532"},{"source":"yellow page","service_name":"Fantasy Nail","category":"manicure and pedicure","phone":"6137895002","address":"602 Rideau St, Ottawa, ON K1N 6A2","postalcode":"K1N 6A2","website":" ","working_hour":"","latitude":"45.4330929","longitude":"-75.675282"},{"source":"yellow page","service_name":"KNT Nails","category":"manicure and pedicure","phone":"6138249989","address":"3722 Innes, Orleans, ON K1W 0C8","postalcode":"K1W 0C8","website":"http://kntnails.ca/","working_hour":"Monday 10:00 am - 7:00 pm   Tuesday 10:00 am - 7:00 pm   Wednesday 10:00 am - 7:00 pm   Thursday 10:00 am - 7:00 pm   Friday 10:00 am - 7:00 pm   Saturday 9:30 am - 6:00 pm   Sunday 11:00 am - 5:00 pm","latitude":"45.4506928","longitude":"-75.5170226"},{"source":"yellow page","service_name":"Nails By Eileen","category":"manicure and pedicure","phone":"6132254697","address":"24 Elvaston Ave, Nepean, ON K2G 3T4","postalcode":"K2G 3T4","website":" ","working_hour":"","latitude":"45.329234","longitude":"-75.779751"},{"source":"yellow page","service_name":"Artistic Nails & Spa","category":"manicure and pedicure","phone":"613-695-8788","address":"2446 Bank St, Ottawa, ON K1V 1A4","postalcode":"K1V 1A4","website":" ","working_hour":"","latitude":"45.353647","longitude":"-75.645887"},{"source":"yellow page","service_name":"Famous Nails","category":"manicure and pedicure","phone":"613-345-2754","address":"2399 Parkedale Ave, Brockville, ON K6V 3G9","postalcode":"K6V 3G9","website":" ","working_hour":"","latitude":"44.604637","longitude":"-75.699254"},{"source":"yellow page","service_name":"LA Nails","category":"manicure and pedicure","phone":"613-384-2822","address":"945 Gardiners Rd, Kingston, ON K7M 7H4","postalcode":"K7M 7H4","website":"http://cataraquicentre.ca","working_hour":"Monday 9:30 am - 9:00 pm   Tuesday 9:30 am - 9:00 pm   Wednesday 9:30 am - 9:00 pm   Thursday 9:30 am - 9:00 pm   Friday 9:30 am - 9:00 pm   Saturday 9:30 am - 6:00 pm   Sunday 11:00 am - 5:00 pm","latitude":"44.256425","longitude":"-76.568771"},{"source":"yellow page","service_name":"Aquala Day Spa","category":"manicure and pedicure","phone":"6137041076","address":"5A King St E, Brockville, ON K6V 1A7","postalcode":"K6V 1A7","website":" ","working_hour":"Monday 9:00 am - 5:00 pm   Tuesday 9:00 am - 5:00 pm   Wednesday 9:00 am - 5:00 pm   Thursday 9:00 am - 5:00 pm   Friday 9:00 am - 5:00 pm","latitude":"44.5906259","longitude":"-75.6826018"},{"source":"yellow page","service_name":"Kelly Dejong Oa Gel Nails","category":"manicure and pedicure","phone":"6132675000","address":"1592 Stanleyville Rd, Perth, ON K7H 3C5","postalcode":"K7H 3C5","website":" ","working_hour":"","latitude":"44.813833","longitude":"-76.3159334"},{"source":"yellow page","service_name":"Sarah's Nails","category":"manicure and pedicure","phone":"6135426496","address":"1006 Princess St, Kingston, ON K7L 1H2","postalcode":"K7L 1H2","website":" ","working_hour":"Monday 9:00 am - 7:00 pm   Tuesday 9:00 am - 7:00 pm   Wednesday 9:00 am - 7:00 pm   Thursday 9:00 am - 7:00 pm   Friday 9:00 am - 7:00 pm   Saturday 9:00 am - 5:00 pm","latitude":"44.24239","longitude":"-76.514959"},{"source":"yellow page","service_name":"Lan Nail & Spa","category":"manicure and pedicure","phone":"6134171163","address":"4-546 Bath Rd, Kingston, ON K7M 2Y3","postalcode":"K7M 2Y3","website":" ","working_hour":"Monday 9:30 am - 8:00 pm   Tuesday 9:30 am - 8:00 pm   Wednesday 9:30 am - 8:00 pm   Thursday 9:30 am - 8:00 pm   Friday 9:30 am - 8:00 pm   Saturday 9:30 am - 6:00 pm   Sunday 11:00 am - 5:00 pm","latitude":"44.23845","longitude":"-76.53837"},{"source":"yellow page","service_name":"Rosie's Nails","category":"manicure and pedicure","phone":"613-283-1991","address":"43 Beckwith St N, Smiths Falls, ON K7A 2B4","postalcode":"K7A 2B4","website":" ","working_hour":"","latitude":"44.9008749","longitude":"-76.021292"},{"source":"yellow page","service_name":"Tammy's Nail Salon","category":"manicure and pedicure","phone":"613-283-4277","address":"34 Main Street, Smiths Falls, ON K7A 1A2","postalcode":"K7A 1A2","website":" ","working_hour":"","latitude":"44.8995025","longitude":"-76.0233259"},{"source":"yellow page","service_name":"Binh's Nail & Spa","category":"manicure and pedicure","phone":"613-507-6245","address":"500 Gardiners Rd, Kingston, ON K7M 7W9","postalcode":"K7M 7W9","website":" ","working_hour":"Tuesday 9:00 am - 7:00 pm   Wednesday 9:00 am - 7:00 pm   Thursday 9:00 am - 8:00 pm   Friday 9:00 am - 8:00 pm   Saturday 9:00 am - 6:00 pm   Sunday 11:00 pm - 7:00 pm","latitude":"44.235829","longitude":"-76.568058"},{"source":"yellow page","service_name":"Shang Hai Nail Spa","category":"manicure and pedicure","phone":"613-498-2068","address":"16 King St W, Brockville, ON K6V 3P6","postalcode":"K6V 3P6","website":" ","working_hour":"","latitude":"44.5902013","longitude":"-75.6833191"},{"source":"yellow page","service_name":"Personal Pampering Esthetics and Electrolysis","category":"manicure and pedicure","phone":"6139780447","address":"21 Beckwith St N, Smiths Falls, ON K7A 2B2","postalcode":"K7A 2B2","website":" ","working_hour":"Tuesday 10:00 am - 6:00 pm   Wednesday 9:00 am - 12:00 pm   Thursday 9:00 am - 7:00 pm   Friday 9:00 am - 4:00 pm   Saturday 9:00 am - 1:00 pm","latitude":"44.900159","longitude":"-76.02121"},{"source":"yellow page","service_name":"Athena Nails & Esthetics","category":"manicure and pedicure","phone":"6137279550","address":"1200 Prince of Wales Dr, Ottawa, ON K2C 3Y4","postalcode":"K2C 3Y4","website":" ","working_hour":"Monday 9:00 am - 7:00 pm   Tuesday 9:00 am - 7:00 pm   Wednesday 9:00 am - 7:00 pm   Thursday 9:00 am - 8:00 pm   Friday 9:00 am - 8:00 pm   Saturday 9:00 am - 5:00 pm","latitude":"45.374129","longitude":"-75.707997"},{"source":"yellow page","service_name":"Sarah's Nails","category":"manicure and pedicure","phone":"542-542-6496","address":"1006 Princess, ON","postalcode":"","website":" ","working_hour":"","latitude":"","longitude":""},{"source":"yellow page","service_name":"La Sirene Nails and Spa","category":"manicure and pedicure","phone":"613-544-2020","address":"1040 Princess St, Kingston, ON K7L 1H2","postalcode":"K7L 1H2","website":" ","working_hour":"","latitude":"44.242646","longitude":"-76.514945"},{"source":"yellow page","service_name":"Manicure Service","category":"manicure and pedicure","phone":"613-359-5364","address":"ON","postalcode":"","website":" ","working_hour":"","latitude":"","longitude":""},{"source":"yellow page","service_name":"Advanced Esthetics by Sharmaine","category":"manicure and pedicure","phone":"613-629-0080","address":"220 Pembroke St E, Pembroke, ON K8A 3J7","postalcode":"K8A 3J7","website":" ","working_hour":"Monday 9:00 am - 7:00 pm   Tuesday 9:00 am - 7:00 pm   Wednesday 9:00 am - 7:00 pm   Thursday 9:00 am - 7:00 pm   Friday 9:00 am - 7:00 pm   Saturday 10:00 am - 7:00 pm","latitude":"45.8269036","longitude":"-77.1089548"},{"source":"yellow page","service_name":"Nailology","category":"manicure and pedicure","phone":"613-308-9700","address":"2 Dairy Ave, Napanee, ON K7R 3T1","postalcode":"K7R 3T1","website":" ","working_hour":"","latitude":"44.2551557","longitude":"-76.9572257"},{"source":"yellow page","service_name":"Erin's Nail Design/Ingrown Solutions C.POD (I)","category":"manicure and pedicure","phone":"613-848-2444","address":"730 Country Rd 28, Belleville, ON K8N 4Z7","postalcode":"K8N 4Z7","website":" ","working_hour":"Monday 9:00 am - 6:00 pm   Tuesday 9:00 am - 6:00 pm   Wednesday 9:00 am - 6:00 pm   Thursday 9:00 am - 6:00 pm","latitude":"44.1354802","longitude":"-77.3834242"},{"source":"yellow page","service_name":"Rosie's Nails","category":"manicure and pedicure","phone":"613-732-2502","address":"1200 Pembroke St W, Pembroke, ON K8A 7T1","postalcode":"K8A 7T1","website":" ","working_hour":"Monday 9:30 am - 6:00 pm   Tuesday 9:30 am - 6:00 pm   Wednesday 9:30 am - 6:00 pm   Thursday 9:30 am - 9:00 pm   Friday 9:30 am - 9:00 pm   Saturday 9:30 am - 6:00 pm","latitude":"45.8322654","longitude":"-77.1458673"},{"source":"yellow page","service_name":"Quinte Nails","category":"manicure and pedicure","phone":"613-966-7273","address":"305 North Front St, Belleville, ON K8P 3C3","postalcode":"K8P 3C3","website":" ","working_hour":"Monday 9:00 am - 6:00 pm   Tuesday 9:00 am - 6:00 pm   Wednesday 9:00 am - 6:00 pm   Thursday 9:00 am - 6:00 pm   Friday 9:00 am - 6:00 pm   Saturday 9:00 am - 6:00 pm   Sunday 8:00 am - 5:00 pm","latitude":"44.1845466","longitude":"-77.394491"},{"source":"yellow page","service_name":"Liv Nail Bliss","category":"manicure and pedicure","phone":"6137790520","address":"390 North Front St, Belleville, ON K8P 3E1","postalcode":"K8P 3E1","website":" ","working_hour":"","latitude":"44.188332","longitude":"-77.3964436"},{"source":"yellow page","service_name":"The Urban Oasis Day Spa","category":"manicure and pedicure","phone":"6136357665","address":"847 Pembroke St E, Pembroke, ON K8A 3M3","postalcode":"K8A 3M3","website":"http://www.uods.ca","working_hour":"Tuesday 9:00 am - 6:00 pm   Wednesday 9:00 am - 6:00 pm   Thursday 9:00 am - 9:00 pm   Friday 9:00 am - 7:00 pm   Saturday 9:00 am - 5:00 pm","latitude":"45.8254324","longitude":"-77.0897958"},{"source":"yellow page","service_name":"Queen Nails","category":"manicure and pedicure","phone":"613-969-2213","address":"1-444 Dundas St W, Belleville, ON K8P 1B7","postalcode":"K8P 1B7","website":"http://queennailsnc.com","working_hour":"Monday 10:00 am - 7:00 pm   Tuesday 10:00 am - 7:00 pm   Wednesday 10:00 am - 7:00 pm   Thursday 10:00 am - 7:00 pm   Friday 10:00 am - 7:00 pm   Saturday 10:00 am - 7:00 pm","latitude":"44.1466643","longitude":"-77.4096716"},{"source":"yellow page","service_name":"Erin's Nail Design C POD(I)","category":"manicure and pedicure","phone":"6138482444","address":"730 County Rd 28, Belleville, ON K8N 4Z7","postalcode":"K8N 4Z7","website":" ","working_hour":"Monday 9:00 am - 6:00 pm   Tuesday 9:00 am - 5:00 pm   Wednesday 9:00 am - 6:00 pm   Thursday 9:00 am - 5:00 pm","latitude":"44.1354802","longitude":"-77.3834242"},{"source":"yellow page","service_name":"Salon D'Esthétique Jeanne D'Arc","category":"manicure and pedicure","phone":"819-683-2804","address":"16, rue Bryson, Fort-Coulonge, QC J0X 1V0","postalcode":"J0X 1V0","website":" ","working_hour":"","latitude":"45.842614","longitude":"-76.738987"},{"source":"yellow page","service_name":"Ez Nails","category":"manicure and pedicure","phone":"7054262457","address":"376 Bay, ON L0K 1A0","postalcode":"L0K 1A0","website":" ","working_hour":"","latitude":"44.428599","longitude":"-79.084056"},{"source":"yellow page","service_name":"New Nails","category":"manicure and pedicure","phone":"705-878-3575","address":"130 Kent St W, Lindsay, ON K9V 2Y4","postalcode":"K9V 2Y4","website":" ","working_hour":"","latitude":"44.3546129","longitude":"-78.7387581"},{"source":"yellow page","service_name":"Lifestyle 2000 Tanning Day Spa & Hair Styling","category":"manicure and pedicure","phone":"705-328-2000","address":"81 William St N, Lindsay, ON K9V 4A4","postalcode":"K9V 4A4","website":"http://www.lifestyle2000spa.com","working_hour":"","latitude":"44.3585427","longitude":"-78.7386399"},{"source":"yellow page","service_name":"Tracey's Esthetics & Nails","category":"manicure and pedicure","phone":"613-241-0493","address":"201-400 Dalhousie St, Ottawa, ON K1N 9J9","postalcode":"K1N 9J9","website":" ","working_hour":"","latitude":"45.4270664","longitude":"-75.6896143"},{"source":"yellow page","service_name":"Rose Nails","category":"manicure and pedicure","phone":"613-241-1888","address":"170 Rideau St, Ottawa, ON K1N 5X6","postalcode":"K1N 5X6","website":" ","working_hour":"","latitude":"45.4271824","longitude":"-75.6894176"},{"source":"yellow page","service_name":"Centre De Beauté 360","category":"manicure and pedicure","phone":"819-307-5172","address":"360, boul Maloney E, Gatineau, QC J8P 1E4","postalcode":"J8P 1E4","website":" ","working_hour":"","latitude":"45.484523","longitude":"-75.642147"},{"source":"yellow page","service_name":"Nice One Nails","category":"manicure and pedicure","phone":"6135962112","address":"3B-3098 Carling Ave, Ottawa, ON K2B 7K2","postalcode":"K2B 7K2","website":"http://www.niceonenails.com","working_hour":"","latitude":"45.3540312","longitude":"-75.8072559"},{"source":"yellow page","service_name":"Beauté Chic","category":"manicure and pedicure","phone":"819-246-0005","address":"383, boul Gréber, Gatineau, QC J8T 6M7","postalcode":"J8T 6M7","website":" ","working_hour":"","latitude":"45.481459","longitude":"-75.701509"},{"source":"yellow page","service_name":"Breathtaking Nail Spa","category":"manicure and pedicure","phone":"613-695-9291","address":"90E-2090 Robertson Rd, Nepean, ON K2H 8V5","postalcode":"K2H 8V5","website":" ","working_hour":"Monday 10:00 am - 7:00 pm   Tuesday 10:00 am - 7:00 pm   Wednesday 10:00 am - 7:00 pm   Thursday 10:00 am - 8:00 pm   Friday 10:00 am - 8:00 pm   Saturday 10:00 am - 6:00 pm   Sunday 11:00 am - 5:00 pm   Book Ahead For Early Or Later Times   Emergency Appointments Available","latitude":"45.3056547","longitude":"-75.8727366"},{"source":"yellow page","service_name":"LA Ongles","category":"manicure and pedicure","phone":"819-778-7903","address":"425, rue Saint-Mathieu, Gatineau, QC J8P 2Y1","postalcode":"J8P 2Y1","website":" ","working_hour":"","latitude":"45.4893807","longitude":"-75.6671156"},{"source":"yellow page","service_name":"Coiffure Le Château Elle et Lui","category":"manicure and pedicure","phone":"819-770-0775","address":"79, rue Frontenac, Gatineau, QC J8X 4H5","postalcode":"J8X 4H5","website":" ","working_hour":"","latitude":"45.42907","longitude":"-75.716883"},{"source":"yellow page","service_name":"Ongles Modernes","category":"manicure and pedicure","phone":"819-561-7888","address":"1100, boul Maloney O, Gatineau, QC J8T 6G3","postalcode":"J8T 6G3","website":" ","working_hour":"","latitude":"45.477341","longitude":"-75.69803"},{"source":"yellow page","service_name":"Elegant Nails","category":"manicure and pedicure","phone":"6138299929","address":"2194 Robertson Rd, Nepean, ON K2H 9J5","postalcode":"K2H 9J5","website":" ","working_hour":"Monday 9:30 am - 6:30 pm   Tuesday 9:30 am - 6:30 pm   Wednesday 9:30 am - 6:30 pm   Thursday 9:30 am - 7:00 pm   Friday 9:30 am - 7:00 pm   Saturday 9:30 am - 6:00 pm","latitude":"45.3045787","longitude":"-75.8752059"},{"source":"yellow page","service_name":"Ongles Creation Kina","category":"manicure and pedicure","phone":"819-410-3671","address":"3-306, imp de l'Hérault, Gatineau, QC J8M 1X6","postalcode":"J8M 1X6","website":"http://kina54.wixsite.com/","working_hour":"","latitude":"45.5328313","longitude":"-75.4935397"},{"source":"yellow page","service_name":"New Classynails And Spa","category":"manicure and pedicure","phone":"613-834-9922","address":"260 Centrum Blvd unit 102-A, Orleans, ON","postalcode":"","website":"http://classynailsandspa.org","working_hour":"","latitude":"","longitude":""},{"source":"yellow page","service_name":"Danny Nails & Spa","category":"manicure and pedicure","phone":"6135192943","address":"500 Hazeldean Rd, Ottawa, ON K2L 2B5","postalcode":"K2L 2B5","website":" ","working_hour":"Monday 9:00 am - 7:30 pm   Tuesday 9:00 am - 7:30 pm   Wednesday 9:00 am - 7:30 pm   Thursday 9:00 am - 7:30 pm   Friday 9:00 am - 7:30 pm   Saturday 9:00 am - 6:00 pm   Sunday 10:00 am - 5:00 pm   Walk Ins Welcome","latitude":"45.293943","longitude":"-75.894832"},{"source":"yellow page","service_name":"Beauté Santé Lorette","category":"manicure and pedicure","phone":"819-778-3233","address":"45, rue Gamelin, Gatineau, QC J8Y 1V5","postalcode":"J8Y 1V5","website":"http://beautesantelorette.ca","working_hour":"","latitude":"45.443657","longitude":"-75.736041"},{"source":"yellow page","service_name":"Spa Nails","category":"manicure and pedicure","phone":"6136807838","address":"1355 Richmond Rd, Ottawa, ON K2B 6R7","postalcode":"K2B 6R7","website":"http://spanailsmanotick.com","working_hour":"","latitude":"45.366701","longitude":"-75.786995"},{"source":"yellow page","service_name":"Signé Coco Institut de Beauté","category":"manicure and pedicure","phone":"8194100514","address":"2 boul Louise-Campagna, Gatineau, QC J9A 2X1","postalcode":"J9A 2X1","website":"http://www.signecoco.ca","working_hour":"","latitude":"45.430098","longitude":"-75.762632"},{"source":"yellow page","service_name":"Ongles T&D","category":"manicure and pedicure","phone":"819-772-5700","address":"725 Blvd de la Carrière, Gatineau, QC J8Y 6T9","postalcode":"J8Y 6T9","website":" ","working_hour":"","latitude":"45.450898","longitude":"-75.729302"},{"source":"yellow page","service_name":"Fashion Nails","category":"manicure and pedicure","phone":"613-798-0280","address":"1309 Carling Ave, Ottawa, ON K1Z 7L3","postalcode":"K1Z 7L3","website":" ","working_hour":"","latitude":"45.385672","longitude":"-75.735223"},{"source":"yellow page","service_name":"Nice One Nails","category":"manicure and pedicure","phone":"6135922888","address":"300 Earl Grey Dr, Kanata, ON K2T 1B8","postalcode":"K2T 1B8","website":" ","working_hour":"","latitude":"45.309712","longitude":"-75.912763"},{"source":"yellow page","service_name":"Vivy Nails","category":"manicure and pedicure","phone":"613-829-4004","address":"2006 Robertson Rd, Nepean, ON K2H 1A5","postalcode":"K2H 1A5","website":" ","working_hour":"","latitude":"45.3061801","longitude":"-75.8714569"},{"source":"yellow page","service_name":"Essence Massage & Spa","category":"manicure and pedicure","phone":"613-596-9333","address":"1980 Robertson Rd, Nepean, ON K2H 5B9","postalcode":"K2H 5B9","website":"http://www.essencemassageandspa.com","working_hour":"","latitude":"45.3062581","longitude":"-75.8712687"},{"source":"yellow page","service_name":"Kanata Nails","category":"manicure and pedicure","phone":"6135994048","address":"D5-300 Eagleson Rd, Kanata, ON K2M 1C9","postalcode":"K2M 1C9","website":"http://kanatanails.com","working_hour":"","latitude":"45.302468","longitude":"-75.875962"},{"source":"yellow page","service_name":"Envy Nails","category":"manicure and pedicure","phone":"613-831-0833","address":"12-462 Hazeldean Rd, Kanata, ON K2L 1V3","postalcode":"K2L 1V3","website":" ","working_hour":"","latitude":"45.29909","longitude":"-75.88678"},{"source":"yellow page","service_name":"Judy Nails","category":"manicure and pedicure","phone":"819-682-6114","address":"200 rue Principale, Gatineau, QC J8T 4G9","postalcode":"J8T 4G9","website":" ","working_hour":"","latitude":"45.395553","longitude":"-75.834768"},{"source":"yellow page","service_name":"Ongles Aylmer","category":"manicure and pedicure","phone":"819-685-0032","address":"181, rue Principale, Gatineau, QC J9H 6A6","postalcode":"J9H 6A6","website":" ","working_hour":"","latitude":"45.395514","longitude":"-75.835468"},{"source":"yellow page","service_name":"Carleton Place Nails & Spa","category":"manicure and pedicure","phone":"6132577898","address":"320 Coleman St, Carleton Place, ON K7C 0B5","postalcode":"K7C 0B5","website":" ","working_hour":"","latitude":"45.1390805","longitude":"-76.1278038"},{"source":"yellow page","service_name":"Salon Jolis Ongles","category":"manicure and pedicure","phone":"819-617-0817","address":"103, rue Georges, Gatineau, QC J8M 1A1","postalcode":"J8M 1A1","website":" ","working_hour":"","latitude":"45.554769","longitude":"-75.43575"},{"source":"yellow page","service_name":"Studio Rayon de Beauté Manon Baril","category":"manicure and pedicure","phone":"450-562-9718","address":"66, rue Charles, Lachute, QC J8H 2Y5","postalcode":"J8H 2Y5","website":" ","working_hour":"","latitude":"45.652436","longitude":"-74.348576"},{"source":"yellow page","service_name":"Ongles Pro-Idéal","category":"manicure and pedicure","phone":"450-562-3382","address":"505, av Béthany, Lachute, QC J8H 4A6","postalcode":"J8H 4A6","website":" ","working_hour":"Appointment Only","latitude":"45.637485","longitude":"-74.3271179"},{"source":"yellow page","service_name":"Rainbow Nails","category":"manicure and pedicure","phone":"613-394-8488","address":"148 Dundas St E, Trenton, ON K8V 1L4","postalcode":"K8V 1L4","website":" ","working_hour":"Monday 9:30 am - 7:00 pm   Tuesday 9:30 am - 7:00 pm   Wednesday 9:30 am - 7:00 pm   Thursday 9:30 am - 7:00 pm   Friday 9:30 am - 7:00 pm   Saturday 9:30 am - 7:00 pm   Sunday 9:30 am - 7:00 pm","latitude":"44.104778","longitude":"-77.5664244"},{"source":"yellow page","service_name":"L'Amour Nails","category":"manicure and pedicure","phone":"905-578-6245","address":"C2-75 Centennial Pkwy N, Hamilton, ON L8E 2P2","postalcode":"L8E 2P2","website":"http://www.lamournails.ca","working_hour":"","latitude":"43.230559","longitude":"-79.763271"},{"source":"yellow page","service_name":"The Experience","category":"manicure and pedicure","phone":"613-394-2003","address":"56 Quinte St, Trenton, ON K8V 3S9","postalcode":"K8V 3S9","website":" ","working_hour":"","latitude":"44.0997591","longitude":"-77.5770176"},{"source":"yellow page","service_name":"Nails 4 U","category":"manicure and pedicure","phone":"705-748-3497","address":"250 Sherbrooke St, Peterborough, ON K9J 2N4","postalcode":"K9J 2N4","website":" ","working_hour":"","latitude":"44.300628","longitude":"-78.323766"},{"source":"yellow page","service_name":"D Star Nails","category":"manicure and pedicure","phone":"905-373-9321","address":"1111 Elgin St W, Cobourg, ON K9A 5H7","postalcode":"K9A 5H7","website":" ","working_hour":"Monday 9:00 am - 9:00 pm   Tuesday 9:00 am - 9:00 pm   Wednesday 9:00 am - 9:00 pm   Thursday 9:00 am - 9:00 pm   Friday 9:00 am - 9:00 pm   Saturday 9:00 am - 6:00 pm   Sunday 9:00 am - 9:00 pm","latitude":"43.9710538","longitude":"-78.2006878"},{"source":"yellow page","service_name":"Red Stone Nail Salon","category":"manicure and pedicure","phone":"7052433730","address":"174 Charlotte St, Peterborough, ON K9J 2T8","postalcode":"K9J 2T8","website":"http://www.redstonenails.com","working_hour":"Tuesday 9:30 am - 7:00 pm   Wednesday 9:30 am - 7:00 pm   Thursday 9:30 am - 7:00 pm   Friday 9:30 am - 4:00 pm   Saturday 9:30 am - 7:00 pm   Appointment Only","latitude":"44.303391","longitude":"-78.320774"},{"source":"yellow page","service_name":"K K Nail Company","category":"manicure and pedicure","phone":"705-749-1842","address":"180 Marina Blvd, Peterborough, ON K9H 6M9","postalcode":"K9H 6M9","website":" ","working_hour":"","latitude":"44.333392","longitude":"-78.32154"},{"source":"yellow page","service_name":"Desginer Nail (Portage Place)","category":"manicure and pedicure","phone":"7055363198","address":"1154 Chemong Rd, Peterborough, ON K9H 7J6","postalcode":"K9H 7J6","website":"http://www.facebook.com/pages/Designer-Nail/156959127654563","working_hour":"Monday 9:30 am - 6:00 pm   Tuesday 9:30 am - 6:00 pm   Wednesday 9:30 am - 6:00 pm   Thursday 9:30 am - 8:00 pm   Friday 9:30 am - 8:00 pm   Saturday 9:30 am - 5:00 pm","latitude":"44.328227","longitude":"-78.340449"},{"source":"yellow page","service_name":"Nice One Nails","category":"manicure and pedicure","phone":"9056558838","address":"19-5969 Baldwin St S, Whitby, ON L1M 2J7","postalcode":"L1M 2J7","website":"http://www.niceonenails.com","working_hour":"","latitude":"43.952576","longitude":"-78.960826"},{"source":"yellow page","service_name":"Sunnyside Up Urban Spa","category":"manicure and pedicure","phone":"9054191542","address":"39 Martin Rd S, Bowmanville, ON L1C 3K7","postalcode":"L1C 3K7","website":"http://sunnysideup-urbanspa.com","working_hour":"Tuesday 10:00 am - 8:00 pm   Wednesday 10:00 am - 8:00 pm   Thursday 10:00 am - 8:00 pm   Friday 10:00 am - 8:00 pm   Saturday 10:00 am - 4:00 pm   Sunday 10:00 am - 4:00 pm","latitude":"43.905408","longitude":"-78.7004"},{"source":"yellow page","service_name":"Kay?s Nails","category":"manicure and pedicure","phone":"9057185784","address":"520 Falconridge Dr, Oshawa, ON L1K 0C1","postalcode":"L1K 0C1","website":" ","working_hour":"Monday 8:00 am - 6:00 pm   Tuesday 8:00 am - 6:00 pm   Wednesday 8:00 am - 6:00 pm   Thursday 8:00 am - 6:00 pm   Friday 8:00 am - 6:00 pm   Saturday 8:00 am - 6:00 pm   Sunday 8:00 am - 6:00 pm","latitude":"43.943643","longitude":"-78.871618"},{"source":"yellow page","service_name":"Dream Nails","category":"manicure and pedicure","phone":"905-697-7870","address":"210 King St E, Bowmanville, ON L1C 1P3","postalcode":"L1C 1P3","website":" ","working_hour":"Monday 9:00 am - 6:00 pm   Tuesday 9:00 am - 6:00 pm   Wednesday 9:00 am - 6:00 pm   Thursday 9:00 am - 6:00 pm   Friday 9:00 am - 6:00 pm   Saturday 9:00 am - 5:00 pm","latitude":"43.911028","longitude":"-78.678337"},{"source":"yellow page","service_name":"Top Choice Nails And Spa","category":"manicure and pedicure","phone":"2892406704","address":"1066 Simcoe St N, Oshawa, ON L1G 4W4","postalcode":"L1G 4W4","website":"http://topchoicenailsspa.com","working_hour":"","latitude":"43.925786","longitude":"-78.876272"},{"source":"yellow page","service_name":"Twins Nails & Spa","category":"manicure and pedicure","phone":"905-852-9009","address":"307 Toronto St S, Uxbridge, ON L9P 1S9","postalcode":"L9P 1S9","website":"http://twinsnails.ca/index.html","working_hour":"Monday 10:00 am - 6:00 pm   Tuesday 10:00 am - 6:00 pm   Wednesday 10:00 am - 6:00 pm   Thursday 10:00 am - 6:00 pm   Friday 10:00 am - 6:00 pm   Saturday 10:00 am - 6:00 pm","latitude":"44.094101","longitude":"-79.130404"},{"source":"yellow page","service_name":"Posh Nail Bar Spa","category":"manicure and pedicure","phone":"9052407771","address":"1341 King St E, Oshawa, ON L1H 1J3","postalcode":"L1H 1J3","website":" ","working_hour":"","latitude":"43.906447","longitude":"-78.814238"},{"source":"yellow page","service_name":"Elisha's Nail Boutique","category":"manicure and pedicure","phone":"3658002974","address":"3 Silver St, Bowmanville, ON L1C 3C2","postalcode":"L1C 3C2","website":" ","working_hour":"Monday 10:00 am - 7:00 pm   Tuesday 10:00 am - 7:00 pm   Wednesday 10:00 am - 7:00 pm   Thursday 10:00 am - 7:00 pm   Friday 10:00 am - 7:00 pm   Saturday 10:00 am - 6:00 pm","latitude":"43.9127894","longitude":"-78.6905889"},{"source":"yellow page","service_name":"Vivacite Laser Medispa","category":"manicure and pedicure","phone":"2892746041","address":"102 King St E, Clarington, ON L1C 1N5","postalcode":"L1C 1N5","website":" ","working_hour":"Tuesday 10:00 am - 7:00 pm   Wednesday 10:00 am - 7:00 pm   Thursday 10:00 am - 8:00 pm   Friday 10:00 am - 8:00 pm   Saturday 9:00 am - 5:00 pm   Appointment Only","latitude":"43.911283","longitude":"-78.685597"},{"source":"yellow page","service_name":"Sylvia's Nail Care Centre","category":"manicure and pedicure","phone":"9054346760","address":"1271 Simcoe St N, Oshawa, ON L1G 4X1","postalcode":"L1G 4X1","website":"http://www.sylviasnails.ca/","working_hour":"Tuesday 9:00 am - 6:00 pm   Wednesday 9:00 am - 6:00 pm   Thursday 9:00 am - 6:00 pm   Friday 9:00 am - 6:00 pm   Saturday 8:00 am - 3:00 pm","latitude":"43.930899","longitude":"-78.878171"},{"source":"yellow page","service_name":"Nice One Nails & Spa","category":"manicure and pedicure","phone":"905-985-8868","address":"H4-1535 Hwy 7A, Port Perry, ON L2A 0A7","postalcode":"L2A 0A7","website":" ","working_hour":"Monday 9:30 am - 7:30 pm   Tuesday 9:30 am - 7:30 pm   Wednesday 9:30 am - 7:30 pm   Thursday 9:30 am - 7:30 pm   Friday 9:30 am - 7:30 pm   Saturday 9:30 am - 6:00 pm","latitude":"44.0939584","longitude":"-78.9630738"},{"source":"yellow page","service_name":"Nail Art","category":"manicure and pedicure","phone":"9056201440","address":"28 av Broadleaf, Whitby, ON L1R 0B5","postalcode":"L1R 0B5","website":"http://nailartgallery.nailsmag.com","working_hour":"","latitude":"43.9187622","longitude":"-78.9573159"},{"source":"yellow page","service_name":"Urban Beauty Nails","category":"manicure and pedicure","phone":"905-668-3733","address":"3-817 Dundas St W, Whitby, ON L1N 2N6","postalcode":"L1N 2N6","website":" ","working_hour":"Monday 9:00 am - 7:00 pm   Tuesday 9:00 am - 7:00 pm   Wednesday 9:00 am - 7:00 pm   Thursday 9:00 am - 7:00 pm   Friday 9:00 am - 7:00 pm   Saturday 9:00 am - 6:00 pm   Sunday 9:00 am - 6:00 pm","latitude":"43.877144","longitude":"-78.954177"},{"source":"yellow page","service_name":"Pure Nails Spa","category":"manicure and pedicure","phone":"905-556-1882","address":"3570 Brock St N, Whitby, ON L1R 3J4","postalcode":"L1R 3J4","website":" ","working_hour":"Monday 9:30 am - 7:30 pm   Tuesday 9:30 am - 7:30 pm   Wednesday 9:30 am - 7:30 pm   Thursday 9:30 am - 7:30 pm   Friday 9:30 am - 7:30 pm   Saturday 9:30 am - 7:30 pm","latitude":"43.907871","longitude":"-78.954515"},{"source":"yellow page","service_name":"Nailtique","category":"manicure and pedicure","phone":"9056686588","address":"854 Brock St N, Whitby, ON L1N 4J5","postalcode":"L1N 4J5","website":"http://nailtique.ca","working_hour":"Monday 10:00 am - 8:00 pm   Tuesday 10:00 am - 8:00 pm   Wednesday 10:00 am - 8:00 pm   Thursday 10:00 am - 8:00 pm   Friday 10:00 am - 8:00 pm   Saturday 9:00 am - 6:00 pm   Sunday 10:00 am - 5:00 pm","latitude":"43.891744","longitude":"-78.947196"},{"source":"yellow page","service_name":"Ajax Nails","category":"manicure and pedicure","phone":"905-428-0220","address":"8-85 Kingston Rd E, Ajax, ON L1S 7J4","postalcode":"L1S 7J4","website":" ","working_hour":"","latitude":"43.862521","longitude":"-79.01984"},{"source":"yellow page","service_name":"The Nail Pro","category":"manicure and pedicure","phone":"905-239-1480","address":"314 Harwood Ave S, Ajax, ON L1S 2J1","postalcode":"L1S 2J1","website":" ","working_hour":"","latitude":"43.845136","longitude":"-79.01894"},{"source":"yellow page","service_name":"Tony's Nail & Spa","category":"manicure and pedicure","phone":"9054267322","address":"5-619 Kingston Rd W, Ajax, ON L1S 6L8","postalcode":"L1S 6L8","website":" ","working_hour":"Monday 10:00 am - 8:00 pm   Tuesday 10:00 am - 8:00 pm   Wednesday 10:00 am - 8:00 pm   Thursday 10:00 am - 8:00 pm   Friday 10:00 am - 8:00 pm   Saturday 10:00 am - 6:00 pm   Sunday 11:00 am - 5:00 pm","latitude":"43.8542657","longitude":"-79.0563628"},{"source":"yellow page","service_name":"Angel Nails & Skin Care","category":"manicure and pedicure","phone":"905-426-4613","address":"2200 Brock Rd, Pickering, ON L1X 2R2","postalcode":"L1X 2R2","website":" ","working_hour":"Monday 10:00 am - 7:00 pm   Tuesday 10:00 am - 7:00 pm   Wednesday 10:00 am - 7:00 pm   Thursday 10:00 am - 7:00 pm   Friday 10:00 am - 7:00 pm   Saturday 10:00 am - 5:00 pm","latitude":"43.857594","longitude":"-79.078759"},{"source":"yellow page","service_name":"Highlite Nail Salon","category":"manicure and pedicure","phone":"905-426-2335","address":"148 Harwood Ave S, Ajax, ON L1S 2H6","postalcode":"L1S 2H6","website":" ","working_hour":"Monday 9:00 am - 7:00 pm   Tuesday 9:00 am - 7:00 pm   Wednesday 9:00 am - 7:00 pm   Thursday 9:00 am - 7:00 pm   Friday 9:00 am - 7:00 pm","latitude":"43.8497224","longitude":"-79.0208883"},{"source":"yellow page","service_name":"Top Nails","category":"manicure and pedicure","phone":"905-619-9492","address":"23B-105 Bayly St W, Ajax, ON L1S 7K7","postalcode":"L1S 7K7","website":"http://topnailsandspa.co","working_hour":"Monday 10:00 am - 7:30 pm   Tuesday 10:00 am - 7:30 pm   Wednesday 10:00 am - 7:30 pm   Thursday 10:00 am - 7:30 pm   Friday 10:00 am - 7:30 pm   Saturday 9:30 am - 6:00 pm   Sunday 11:00 am - 5:00 pm","latitude":"43.842876","longitude":"-79.023455"},{"source":"yellow page","service_name":"Trendi Nail & Spa","category":"manicure and pedicure","phone":"2894603935","address":"676 Monarch Ave, Ajax, ON L1S 4S2","postalcode":"L1S 4S2","website":" ","working_hour":"Monday 10:00 am - 7:00 pm   Tuesday 10:00 am - 7:00 pm   Wednesday 10:00 am - 7:00 pm   Thursday 10:00 am - 7:00 pm   Friday 10:00 am - 7:00 pm   Saturday 10:00 am - 6:00 pm","latitude":"43.8323789","longitude":"-79.019309"},{"source":"yellow page","service_name":"Hip Hop Nails","category":"manicure and pedicure","phone":"9054286088","address":"15 Westney Rd N, Ajax, ON L1T 1P5","postalcode":"L1T 1P5","website":"http://hiphopnails.ca","working_hour":"Monday 10:00 am - 7:00 pm   Tuesday 10:00 am - 7:00 pm   Wednesday 9:30 am - 7:00 pm   Thursday 9:30 am - 7:00 pm   Friday 9:30 am - 7:00 pm   Saturday 9:30 am - 6:00 pm","latitude":"43.858775","longitude":"-79.0416036"},{"source":"yellow page","service_name":"N Lounge Nail Salon and Spa","category":"manicure and pedicure","phone":"9058318988","address":"4-677 Marksbury Rd, Pickering, ON L1W 2T3","postalcode":"L1W 2T3","website":"http://www.nlounge.ca","working_hour":"Tuesday 11:00 am - 7:00 pm   Wednesday 10:00 am - 7:00 pm   Thursday 10:00 am - 7:00 pm   Friday 10:00 am - 7:00 pm   Saturday 10:00 am - 6:00 pm   Sunday 12:00 am - 5:00 pm","latitude":"43.812496","longitude":"-79.103116"},{"source":"yellow page","service_name":"The Nail Salon And Spa","category":"manicure and pedicure","phone":"9054281119","address":"170 Kingston E, Ajax, ON L1Z 1G1","postalcode":"L1Z 1G1","website":" ","working_hour":"","latitude":"43.8632348","longitude":"-79.0173291"},{"source":"yellow page","service_name":"HIP HOP NAILS","category":"manicure and pedicure","phone":"9058378166","address":"1-650 Kingston Rd, Pickering, ON L1V 1A6","postalcode":"L1V 1A6","website":" ","working_hour":"Monday 11:00 am - 7:00 pm   Tuesday 11:00 am - 7:00 pm   Wednesday 11:00 am - 7:00 pm   Thursday 9:30 am - 7:00 pm   Friday 9:30 am - 7:00 pm   Saturday 9:30 am - 6:00 pm   Sunday 11:30 am - 5:00 pm","latitude":"43.817323","longitude":"-79.117891"},{"source":"yellow page","service_name":"Kim Nails And Beauty Salon","category":"manicure and pedicure","phone":"905-665-6235","address":"409 Brock St S, Whitby, ON L1N 4K5","postalcode":"L1N 4K5","website":" ","working_hour":"Monday 10:00 am - 8:00 pm   Tuesday 10:00 am - 8:00 pm   Wednesday 10:00 am - 8:00 pm   Thursday 10:00 am - 8:00 pm   Friday 10:00 am - 8:00 pm   Saturday 10:00 am - 8:00 pm","latitude":"43.876154","longitude":"-78.940645"},{"source":"yellow page","service_name":"Pearl Nail","category":"manicure and pedicure","phone":"905-420-6100","address":"5-1340 Kingston Rd, Pickering, ON L1V 3M9","postalcode":"L1V 3M9","website":" ","working_hour":"","latitude":"43.8371014","longitude":"-79.0886387"},{"source":"yellow page","service_name":"Vip Nails & Spa","category":"manicure and pedicure","phone":"9056868299","address":"279 Kingston E, Ajax, ON","postalcode":"","website":"http://vipnails.ca","working_hour":"Monday 10:00 am - 7:30 pm   Tuesday 10:00 am - 7:30 pm   Wednesday 10:00 am - 7:30 pm   Thursday 10:00 am - 7:30 pm   Friday 10:00 am - 7:30 pm   Saturday 10:00 am - 7:30 pm   Sunday 11:00 am - 5:00 pm","latitude":"43.8645897","longitude":"-79.0106319"},{"source":"yellow page","service_name":"ProSpa","category":"manicure and pedicure","phone":"9056193755","address":"7-1 Rossland Rd W, Ajax, ON L1Z 1Z2","postalcode":"L1Z 1Z2","website":"http://prospanails.ca","working_hour":"Monday 10:00 am - 8:00 pm   Tuesday 10:00 am - 8:00 pm   Wednesday 10:00 am - 8:00 pm   Thursday 10:00 am - 8:00 pm   Friday 10:00 am - 8:00 pm   Saturday 11:00 am - 8:00 pm   Sunday 11:00 am - 8:00 pm","latitude":"43.879692","longitude":"-79.027729"},{"source":"yellow page","service_name":"National Nail Academy","category":"manicure and pedicure","phone":"705-726-6245","address":"477 Grove St E, Barrie, ON L4M 6M3","postalcode":"L4M 6M3","website":" ","working_hour":"","latitude":"44.4053107","longitude":"-79.6560256"},{"source":"yellow page","service_name":"Doll Nails Spa","category":"manicure and pedicure","phone":"705-735-1426","address":"420 Leacock Dr, Barrie, ON L4N 5G5","postalcode":"L4N 5G5","website":"http://dollnailsspa.com","working_hour":"Monday 10:00 am - 7:00 pm   Tuesday 10:00 am - 7:00 pm   Wednesday 10:00 am - 7:00 pm   Thursday 10:00 am - 7:00 pm   Friday 10:00 am - 7:00 pm   Saturday 10:00 am - 7:00 pm","latitude":"44.3912533","longitude":"-79.7222603"},{"source":"yellow page","service_name":"Elite Nails & Spa","category":"manicure and pedicure","phone":"705-733-9676","address":"146-320 Bayfield St, Barrie, ON L4M 3C1","postalcode":"L4M 3C1","website":"http://www.elitenailsandspa.ca/","working_hour":"Monday 9:30 am - 9:00 pm   Tuesday 9:30 am - 9:00 pm   Wednesday 9:30 am - 9:00 pm   Thursday 9:30 am - 9:00 pm   Friday 9:30 am - 9:00 pm   Saturday 9:30 am - 6:00 pm   Sunday 12:00 pm - 5:00 pm","latitude":"44.4020048","longitude":"-79.7011431"},{"source":"yellow page","service_name":"Nice One Nails","category":"manicure and pedicure","phone":"9057787999","address":"7-547 Holland St W, Bradford, ON L3Z 0C1","postalcode":"L3Z 0C1","website":" ","working_hour":"","latitude":"44.1071307","longitude":"-79.5965772"},{"source":"yellow page","service_name":"Nice One Nails","category":"manicure and pedicure","phone":"7057970990","address":"1B-24 North Village Way, Barrie, ON L4N 6P3","postalcode":"L4N 6P3","website":" ","working_hour":"","latitude":"44.398448","longitude":"-79.694586"},{"source":"yellow page","service_name":"Hip Hop Nails","category":"manicure and pedicure","phone":"705-734-3624","address":"69B Dunlop St W, Barrie, ON L4N 1A5","postalcode":"L4N 1A5","website":"http://www.hiphopnail.com/","working_hour":"Monday 9:00 am - 5:00 pm   Tuesday 9:00 am - 5:00 pm   Wednesday 9:00 am - 5:00 pm   Thursday 9:00 am - 5:00 pm   Friday 9:00 am - 5:00 pm   Saturday 9:00 am - 5:00 pm   Sunday 9:00 am - 5:00 pm","latitude":"44.3882908","longitude":"-79.6923647"},{"source":"yellow page","service_name":"Star Nails","category":"manicure and pedicure","phone":"9055354711","address":"190 Simcoe Ave, Keswick, ON L4P 2H7","postalcode":"L4P 2H7","website":" ","working_hour":"","latitude":"44.242109","longitude":"-79.47305"},{"source":"yellow page","service_name":"Nice One Nails","category":"manicure and pedicure","phone":"905-953-8808","address":"3-18265 Yonge St, Newmarket, ON L3Y 4V8","postalcode":"L3Y 4V8","website":"http://niceonenailsnewmarket.com","working_hour":"Monday 10:30 am - 7:00 pm   Tuesday 10:30 am - 7:00 pm   Wednesday 10:30 am - 7:00 pm   Thursday 10:30 am - 8:00 pm   Friday 10:30 am - 8:00 pm   Saturday 10:30 am - 6:00 pm   Sunday 10:30 am - 5:00 pm","latitude":"44.0745372","longitude":"-79.4851322"},{"source":"yellow page","service_name":"Tina Nail & Tanning","category":"manicure and pedicure","phone":"705-329-7706","address":"22 Mississaga St E, Orillia, ON L3V 1V5","postalcode":"L3V 1V5","website":" ","working_hour":"Monday 9:00 am - 6:00 pm   Tuesday 9:00 am - 6:00 pm   Wednesday 9:00 am - 6:00 pm   Thursday 9:00 am - 6:00 pm   Friday 9:00 am - 6:00 pm   Saturday 9:00 am - 6:00 pm   Appointments Available: Sunday.","latitude":"44.608467","longitude":"-79.419128"},{"source":"yellow page","service_name":"Hieu Van Mai Oa Best Nails Salon","category":"manicure and pedicure","phone":"705-725-0888","address":"320 Bayfield St, Barrie, ON L4M 3C1","postalcode":"L4M 3C1","website":"http://www.barriesbestnails.com","working_hour":"Monday 9:30 am - 9:00 pm   Tuesday 9:30 am - 9:00 pm   Wednesday 9:30 am - 9:00 pm   Thursday 9:30 am - 9:00 pm   Friday 9:30 am - 9:00 pm   Saturday 9:30 am - 6:00 pm   Sunday 11:00 am - 5:00 pm   Holidays Closed","latitude":"44.4020048","longitude":"-79.7011431"},{"source":"yellow page","service_name":"Pampered Nails By Ping","category":"manicure and pedicure","phone":"7057259333","address":"313 Blake St, Barrie, ON L4M 1K7","postalcode":"L4M 1K7","website":"http://www.pamperednailsbyping.com","working_hour":"Monday 10:00 am - 5:30 pm   Tuesday 9:30 am - 7:00 pm   Wednesday 9:30 am - 7:00 pm   Thursday 9:30 am - 7:00 pm   Friday 9:30 am - 7:00 pm   Saturday 9:30 am - 5:00 pm","latitude":"44.3971535","longitude":"-79.6568772"},{"source":"yellow page","service_name":"Audies Hair Design","category":"manicure and pedicure","phone":"7053272640","address":"323 Atherley Rd, Orillia, ON L3V 1N8","postalcode":"L3V 1N8","website":" ","working_hour":"Monday 10:00 am - 7:00 pm   Tuesday 10:00 am - 7:00 pm   Wednesday 10:00 am - 7:00 pm   Thursday 10:00 am - 7:00 pm   Friday 10:00 am - 7:00 pm   Saturday 10:00 am - 6:00 pm","latitude":"44.605868","longitude":"-79.395856"},{"source":"yellow page","service_name":"Shelly's Nail Centre","category":"manicure and pedicure","phone":"705-792-6581","address":"110 Anne St S, Barrie, ON","postalcode":"","website":" ","working_hour":"","latitude":"44.3752774","longitude":"-79.6989998"},{"source":"yellow page","service_name":"Sunrise Nail","category":"manicure and pedicure","phone":"905-476-2688","address":"702 The Queensway S, Keswick, ON L4P 4C9","postalcode":"L4P 4C9","website":"http://sunrisenails.ca","working_hour":"","latitude":"44.1985253","longitude":"-79.4656173"},{"source":"yellow page","service_name":"Le Nails","category":"manicure and pedicure","phone":"705-323-9651","address":"23-425 West St N, Orillia, ON L3V 7R2","postalcode":"L3V 7R2","website":" ","working_hour":"","latitude":"44.6226992","longitude":"-79.4316518"},{"source":"yellow page","service_name":"Iconic Nail Spa","category":"manicure and pedicure","phone":"7055038766","address":"225 Ferndale Dr S, Barrie, ON L4N 6B9","postalcode":"L4N 6B9","website":" ","working_hour":"Monday 10:00 am - 7:00 pm   Tuesday 10:00 am - 7:00 pm   Wednesday 10:00 am - 7:00 pm   Thursday 10:00 am - 7:00 pm   Friday 10:00 am - 7:00 pm   Saturday 10:00 am - 5:00 pm","latitude":"44.3546924","longitude":"-79.7146949"},{"source":"yellow page","service_name":"Seacret Nails & Spa","category":"manicure and pedicure","phone":"7053290770","address":"3280 Monarch Dr, Orillia, ON L3V 8A2","postalcode":"L3V 8A2","website":" ","working_hour":"Monday 9:00 am - 8:00 pm   Tuesday 9:00 am - 8:00 pm   Wednesday 9:00 am - 8:00 pm   Thursday 9:00 am - 8:00 pm   Friday 9:00 am - 8:00 pm   Saturday 9:00 am - 6:00 pm   Sunday 10:00 am - 5:00 pm   Appointment Only on Sundays","latitude":"44.610931","longitude":"-79.450962"},{"source":"yellow page","service_name":"Lee Nails And Spa","category":"manicure and pedicure","phone":"905-895-5433","address":"200 Davis Dr, Newmarket, ON L3Y 2N4","postalcode":"L3Y 2N4","website":" ","working_hour":"Monday 10:00 am - 7:00 pm   Tuesday 10:00 am - 7:00 pm   Wednesday 10:00 am - 7:00 pm   Thursday 10:00 am - 7:00 pm   Friday 10:00 am - 7:00 pm   Saturday 10:00 am - 7:00 pm   Sunday 10:00 am - 7:00 pm","latitude":"44.056897","longitude":"-79.471179"},{"source":"yellow page","service_name":"Crazy Nails","category":"manicure and pedicure","phone":"905-836-0251","address":"18025 Yonge St, Newmarket, ON L3Y 8C9","postalcode":"L3Y 8C9","website":" ","working_hour":"Monday 10:00 am - 7:00 pm   Tuesday 10:00 am - 7:00 pm   Wednesday 10:00 am - 7:00 pm   Thursday 10:00 am - 7:00 pm   Friday 10:00 am - 7:00 pm   Saturday 10:00 am - 7:00 pm","latitude":"44.067159","longitude":"-79.483325"},{"source":"yellow page","service_name":"Cammy's Nails","category":"manicure and pedicure","phone":"9058689598","address":"24-130 Davis Dr, Newmarket, ON L3Y 2N1","postalcode":"L3Y 2N1","website":"http://cammysnails.ca/","working_hour":"Tuesday 10:00 am - 7:00 pm   Wednesday 10:00 am - 7:00 pm   Thursday 10:00 am - 7:00 pm   Friday 10:00 am - 7:00 pm   Saturday 10:00 am - 6:00 pm   Sunday 10:00 am - 4:00 pm","latitude":"44.055961","longitude":"-79.475349"},{"source":"yellow page","service_name":"Maxxy Nail Salon","category":"manicure and pedicure","phone":"9058986873","address":"16610 Bayview Ave, Newmarket, ON L3X 1X3","postalcode":"L3X 1X3","website":" ","working_hour":"Monday 10:00 am - 7:30 pm   Tuesday 10:00 am - 7:30 pm   Wednesday 10:00 am - 7:30 pm   Thursday 10:00 am - 7:30 pm   Friday 10:00 am - 7:30 pm   Saturday 9:00 am - 6:00 pm   Sunday 10:00 am - 5:00 pm","latitude":"44.0388168","longitude":"-79.4514693"},{"source":"yellow page","service_name":"Nail Story","category":"manicure and pedicure","phone":"9052358955","address":"25-16700 Bayview Ave, Newmarket, ON L3X 1W1","postalcode":"L3X 1W1","website":" ","working_hour":"Monday 9:30 am - 7:00 pm   Tuesday 9:30 am - 7:00 pm   Wednesday 9:30 am - 7:00 pm   Thursday 9:30 am - 7:00 pm   Friday 9:30 am - 7:00 pm   Saturday 10:00 am - 6:00 pm   Sunday By Appointment Only.","latitude":"44.0411403","longitude":"-79.4520144"},{"source":"yellow page","service_name":"Lemee Spa & Nails","category":"manicure and pedicure","phone":"905-898-4586","address":"1111 Davis Dr, Newmarket, ON L3Y 8X2","postalcode":"L3Y 8X2","website":" ","working_hour":"Saturday 10:00 am - 6:00 pm","latitude":"44.067087","longitude":"-79.429566"},{"source":"yellow page","service_name":"Nice One Nails","category":"manicure and pedicure","phone":"905-264-7232","address":"3650 Langstaff Rd, Woodbridge, ON L4L 9A8","postalcode":"L4L 9A8","website":" ","working_hour":"","latitude":"43.808412","longitude":"-79.549258"},{"source":"yellow page","service_name":"Golden Nails Salon & Spa","category":"manicure and pedicure","phone":"9058516772","address":"28 Roytec Rd, Woodbridge, ON L4L 8E4","postalcode":"L4L 8E4","website":" ","working_hour":"Tuesday 10:00 am - 5:00 pm   Wednesday 10:00 am - 5:00 pm   Thursday 10:00 am - 5:00 pm   Friday 10:00 am - 5:00 pm   Saturday 10:00 am - 5:00 pm   Sunday 10:00 am - 4:00 pm","latitude":"43.803294","longitude":"-79.549629"},{"source":"yellow page","service_name":"Natural Nails","category":"manicure and pedicure","phone":"416-661-5760","address":"1315 Finch Ave W, North York, ON M3J 2G6","postalcode":"M3J 2G6","website":" ","working_hour":"Monday 9:00 am - 8:00 pm   Tuesday 9:00 am - 8:00 pm   Wednesday 9:00 am - 8:00 pm   Thursday 9:00 am - 8:00 pm   Friday 9:00 am - 8:00 pm   Saturday 9:00 am - 8:00 pm","latitude":"43.7636228","longitude":"-79.4903085"},{"source":"yellow page","service_name":"Helen's Nails & Spa","category":"manicure and pedicure","phone":"647-430-1938","address":"4205 Keele St, Toronto, ON M3J 3T8","postalcode":"M3J 3T8","website":" ","working_hour":"Monday 9:00 am - 8:00 pm   Tuesday 9:00 am - 8:00 pm   Wednesday 9:00 am - 8:00 pm   Thursday 9:00 am - 8:00 pm   Friday 9:00 am - 8:00 pm   Saturday 9:00 am - 8:00 pm   Sunday 10:00 am - 6:00 pm","latitude":"43.773417","longitude":"-79.493444"},{"source":"yellow page","service_name":"Annele Nails & Spa","category":"manicure and pedicure","phone":"905-265-9977","address":"4555 Highway 7, Woodbridge, ON L4L 1S6","postalcode":"L4L 1S6","website":" ","working_hour":"Monday 9:00 am - 5:00 pm   Tuesday 9:00 am - 5:00 pm   Wednesday 9:00 am - 5:00 pm   Thursday 9:00 am - 5:00 pm   Friday 9:00 am - 5:00 pm   Saturday 9:00 am - 5:00 pm   Sunday 9:00 am - 5:00 pm","latitude":"43.7837779","longitude":"-79.5747994"},{"source":"yellow page","service_name":"Nails At Anthony's","category":"manicure and pedicure","phone":"9058568988","address":"26-8099 Weston Rd, Woodbridge, ON L4L 0C1","postalcode":"L4L 0C1","website":"http://www.nailsatanthonys.com","working_hour":"Monday 10:00 am - 7:00 pm   Tuesday 10:00 am - 7:00 pm   Wednesday 10:00 am - 7:00 pm   Thursday 10:00 am - 7:00 pm   Friday 10:00 am - 7:00 pm   Saturday 10:00 am - 7:00 pm   Sunday 10:00 am - 3:00 pm","latitude":"43.798015","longitude":"-79.549439"},{"source":"yellow page","service_name":"Golden Nails Salon","category":"manicure and pedicure","phone":"9058817870","address":"1416 Centre St, Thornhill, ON L4J 8A1","postalcode":"L4J 8A1","website":" ","working_hour":"","latitude":"43.806691","longitude":"-79.4695905"},{"source":"yellow page","service_name":"Akanails & Spa","category":"manicure and pedicure","phone":"6473525788","address":"1 De Boers Dr, North York, ON M3J 0G6","postalcode":"M3J 0G6","website":" ","working_hour":"","latitude":"43.7512259","longitude":"-79.4662842"},{"source":"yellow page","service_name":"The Nail Gallery","category":"manicure and pedicure","phone":"905-761-0278","address":"B16-800 Steeles Ave W, Thornhill, ON L4J 7L2","postalcode":"L4J 7L2","website":" ","working_hour":"Monday 10:00 am - 7:00 pm   Tuesday 10:00 am - 7:00 pm   Wednesday 10:00 am - 7:00 pm   Thursday 10:00 am - 7:00 pm   Friday 10:00 am - 7:00 pm   Saturday 10:00 am - 6:00 pm","latitude":"43.792164","longitude":"-79.447712"},{"source":"yellow page","service_name":"Royal Nails Beauty And Spa","category":"manicure and pedicure","phone":"647-351-2983","address":"305-1 Four Winds Dr, North York, ON M3J 2T1","postalcode":"M3J 2T1","website":" ","working_hour":"Monday 9:00 am - 5:00 pm   Tuesday 9:00 am - 5:00 am   Wednesday 9:00 am - 5:00 pm   Thursday 9:00 am - 5:00 pm   Friday 9:00 am - 5:00 pm   Saturday 9:00 am - 5:00 pm   Sunday 9:00 am - 5:00 pm","latitude":"43.765529","longitude":"-79.492388"},{"source":"yellow page","service_name":"Crazy Nails","category":"manicure and pedicure","phone":"416-748-1708","address":"2965 Islington Ave, North York, ON M9L 2K8","postalcode":"M9L 2K8","website":" ","working_hour":"Monday 10:00 am - 8:00 pm   Tuesday 10:00 am - 8:00 pm   Wednesday 10:00 am - 8:00 pm   Thursday 10:00 am - 8:00 pm   Friday 10:00 am - 8:00 pm","latitude":"43.7572805","longitude":"-79.5698295"},{"source":"yellow page","service_name":"Ryna`s Nails","category":"manicure and pedicure","phone":"416-745-8110","address":"3043 Islington Ave, North York, ON M9L 2K9","postalcode":"M9L 2K9","website":" ","working_hour":"Monday 9:00 am - 9:00 pm   Tuesday 9:00 am - 9:00 pm   Wednesday 9:00 am - 9:00 pm   Thursday 9:00 am - 9:00 pm   Friday 9:00 am - 9:00 pm   Saturday 9:00 am - 9:00 pm   Sunday 9:00 am - 9:00 pm","latitude":"43.759912","longitude":"-79.571684"},{"source":"yellow page","service_name":"Tipsy Toesy Nails","category":"manicure and pedicure","phone":"905-709-1895","address":"1102 Centre St, Thornhill, ON L4J 3M8","postalcode":"L4J 3M8","website":" ","working_hour":"Monday 10:00 am - 8:00 pm   Tuesday 10:00 am - 8:00 pm   Wednesday 10:00 am - 8:00 pm   Thursday 10:00 am - 8:00 pm   Friday 10:00 am - 8:00 pm   Saturday 10:00 am - 5:00 pm   Sunday 10:00 am - 6:00 pm","latitude":"43.808485","longitude":"-79.461363"},{"source":"yellow page","service_name":"Sophia Nails","category":"manicure and pedicure","phone":"4166306888","address":"2861 Jane St, North York, ON M3N 2J5","postalcode":"M3N 2J5","website":" ","working_hour":"","latitude":"43.751534","longitude":"-79.516213"},{"source":"yellow page","service_name":"Nail Gallery","category":"manicure and pedicure","phone":"416-245-6926","address":"2702 Keele St, North York, ON M3M 2G1","postalcode":"M3M 2G1","website":"http://nailsmag.com","working_hour":"Monday 9:00 am - 8:00 pm   Tuesday 9:00 am - 8:00 pm   Wednesday 9:00 am - 8:00 pm   Thursday 9:00 am - 8:00 pm   Friday 9:00 am - 8:00 pm   Saturday 9:00 am - 7:00 pm   Sunday 10:00 am - 6:00 pm","latitude":"43.725843","longitude":"-79.481948"},{"source":"yellow page","service_name":"Kim's Nails","category":"manicure and pedicure","phone":"4166310198","address":"666 Sheppard Ave W, North York, ON M3H 2S5","postalcode":"M3H 2S5","website":" ","working_hour":"Monday 9:00 am - 7:00 pm   Tuesday 9:00 am - 7:00 pm   Wednesday 9:00 am - 7:00 pm   Thursday 9:00 am - 7:00 pm   Friday 9:00 am - 7:00 pm","latitude":"43.754771","longitude":"-79.442247"},{"source":"yellow page","service_name":"Sally Nails","category":"manicure and pedicure","phone":"905-265-7757","address":"200 Whitmore Rd, Woodbridge, ON L4L 7K4","postalcode":"L4L 7K4","website":" ","working_hour":"Monday 9:30 am - 7:00 pm   Tuesday 9:30 am - 7:00 pm   Wednesday 9:30 am - 7:00 pm   Thursday 9:30 am - 7:00 pm   Friday 9:30 am - 7:00 pm   Saturday 9:30 am - 4:00 pm   Sunday 9:30 am - 4:00 pm","latitude":"43.7861621","longitude":"-79.5557484"},{"source":"yellow page","service_name":"Niu Niu Nail & Spa","category":"manicure and pedicure","phone":"6473603893","address":"783 Steeles Ave W, North York, ON M2R 3W9","postalcode":"M2R 3W9","website":" ","working_hour":"Monday 10:00 am - 8:00 pm   Tuesday 10:00 am - 8:00 pm   Wednesday 10:00 am - 8:00 pm   Thursday 10:00 am - 8:00 pm   Friday 10:00 am - 8:00 pm   Saturday 9:30 am - 7:00 pm   Sunday 10:00 am - 5:00 pm","latitude":"43.792609","longitude":"-79.445055"},{"source":"yellow page","service_name":"A&M Nail","category":"manicure and pedicure","phone":"705-528-0101","address":"Mountainview Mall, Midland, ON L4R 4K4","postalcode":"L4R 4K4","website":" ","working_hour":"","latitude":"44.732906","longitude":"-79.910377"},{"source":"yellow page","service_name":"Nails Ink","category":"manicure and pedicure","phone":"6473470330","address":"60-2300 Finch Ave W, North York, ON M9M 2Y3","postalcode":"M9M 2Y3","website":" ","working_hour":"Monday 9:00 am - 6:00 pm   Tuesday 9:00 am - 6:00 pm   Wednesday 9:00 am - 6:00 pm   Thursday 9:00 am - 6:00 pm   Friday 9:00 am - 6:00 pm","latitude":"43.7523797","longitude":"-79.5410518"},{"source":"yellow page","service_name":"Sally's Nails","category":"manicure and pedicure","phone":"705-435-7889","address":"19 Young St, Alliston, ON L9R 1B5","postalcode":"L9R 1B5","website":" ","working_hour":"Monday 10:00 am - 7:00 pm   Tuesday 10:00 am - 7:00 pm   Wednesday 10:00 am - 7:00 pm   Thursday 10:00 am - 7:00 pm   Friday 10:00 am - 7:00 pm   Saturday 10:00 am - 6:00 pm   Sunday 11:00 am - 5:00 pm","latitude":"44.1491016","longitude":"-79.878655"},{"source":"yellow page","service_name":"Nails For You","category":"manicure and pedicure","phone":"7052506888","address":"86 Young St, Alliston, ON L9R 1P8","postalcode":"L9R 1P8","website":" ","working_hour":"Monday 10:00 am - 7:00 pm   Tuesday 10:00 am - 7:00 pm   Wednesday 10:00 am - 7:00 pm   Thursday 10:00 am - 8:00 pm   Friday 10:00 am - 8:00 pm   Saturday 10:00 am - 6:00 pm   Sunday 11:00 am - 4:00 pm   Walk In Or By Appointment!","latitude":"44.1483803","longitude":"-79.8818989"},{"source":"yellow page","service_name":"Spa Zone","category":"manicure and pedicure","phone":"5199420243","address":"205467 County Road 109, Orangeville, ON L9W 2Y9","postalcode":"L9W 2Y9","website":"http://spazone.ca","working_hour":"","latitude":"43.9066441","longitude":"-80.1561871"},{"source":"yellow page","service_name":"Aroma Touch Esthetics","category":"manicure and pedicure","phone":"9055845928","address":"16035 Airport Rd, Caledon East, ON L7C 1E7","postalcode":"L7C 1E7","website":" ","working_hour":"","latitude":"43.870932","longitude":"-79.868212"},{"source":"yellow page","service_name":"Century Nails","category":"manicure and pedicure","phone":"705-434-0118","address":"101 Victoria St W, Alliston, ON L9R 1L7","postalcode":"L9R 1L7","website":" ","working_hour":"Monday 10:00 am - 6:00 pm   Tuesday 10:00 am - 6:00 pm   Wednesday 10:00 am - 7:00 pm   Thursday 10:00 am - 7:00 pm   Friday 10:00 am - 7:00 pm   Saturday 10:00 am - 5:00 pm","latitude":"44.1533421","longitude":"-79.8721697"},{"source":"yellow page","service_name":"Just Nails","category":"manicure and pedicure","phone":"7054358899","address":"45 Victoria St E, Alliston, ON L9R 1T4","postalcode":"L9R 1T4","website":" ","working_hour":"Monday 9:30 am - 8:00 pm   Tuesday 9:30 am - 8:00 pm   Wednesday 9:30 am - 8:00 pm   Thursday 9:30 am - 8:00 pm   Friday 9:30 am - 8:00 pm   Saturday 9:30 am - 6:00 pm   Sunday by Appointment","latitude":"44.1543684","longitude":"-79.8673109"},{"source":"yellow page","service_name":"Crystal Nail Spa","category":"manicure and pedicure","phone":"905-592-3780","address":"3505 Upper Middle Rd, Burlington, ON L7M 4C6","postalcode":"L7M 4C6","website":"http://www.crystalnailspainc.com","working_hour":"","latitude":"43.378196","longitude":"-79.807246"},{"source":"yellow page","service_name":"Blanca's Aesthetics","category":"manicure and pedicure","phone":"9056891292","address":"317 Parkside Dr, Waterdown, ON L0R 2H1","postalcode":"L0R 2H1","website":" ","working_hour":"","latitude":"43.340216","longitude":"-79.900194"},{"source":"yellow page","service_name":"Elegant Nails","category":"manicure and pedicure","phone":"905-340-9932","address":"1400 Plains Rd E, Burlington, ON L7R 3P8","postalcode":"L7R 3P8","website":" ","working_hour":"Monday 10:00 am - 7:00 pm   Tuesday 10:00 am - 7:00 pm   Wednesday 10:00 am - 7:00 pm   Thursday 10:00 am - 7:00 pm   Friday 10:00 am - 7:00 pm   Saturday 10:00 am - 6:00 pm","latitude":"43.336789","longitude":"-79.818517"},{"source":"yellow page","service_name":"Tip 2 Toe","category":"manicure and pedicure","phone":"905-690-7041","address":"1-80 Hamilton St N SS 4, Waterdown, ON L0R 2H6","postalcode":"L0R 2H6","website":" ","working_hour":"","latitude":"43.333379","longitude":"-79.898877"},{"source":"yellow page","service_name":"Danny's Nails","category":"manicure and pedicure","phone":"905-631-0190","address":"516 Plains Rd E, Burlington, ON L7T 2E1","postalcode":"L7T 2E1","website":" ","working_hour":"Monday 10:00 am - 8:00 pm   Tuesday 10:00 am - 8:00 pm   Wednesday 10:00 am - 8:00 pm   Thursday 10:00 am - 8:00 pm   Friday 10:00 am - 8:00 pm   Saturday 10:00 am - 6:00 pm   Sunday 11:00 am - 5:00 pm","latitude":"43.319381","longitude":"-79.835945"},{"source":"yellow page","service_name":"Twin Nails Salon","category":"manicure and pedicure","phone":"9056375604","address":"3480 Fairview St, Burlington, ON L7N 2R5","postalcode":"L7N 2R5","website":"http://www.nailsalonburlington.ca","working_hour":"Monday 10:00 am - 7:00 pm   Tuesday 10:00 am - 7:00 pm   Wednesday 10:00 am - 7:00 pm   Thursday 10:00 am - 7:00 pm   Friday 10:00 am - 7:00 pm   Saturday 10:00 am - 6:00 pm","latitude":"43.357691","longitude":"-79.781703"},{"source":"yellow page","service_name":"Nail Passion","category":"manicure and pedicure","phone":"2893372814","address":"495 Walker's Line, Burlington, ON L7N 2E3","postalcode":"L7N 2E3","website":"http://www.nailpassion.ca","working_hour":"","latitude":"43.353889","longitude":"-79.770946"},{"source":"yellow page","service_name":"Charming Nails & Spa","category":"manicure and pedicure","phone":"9056312343","address":"596 Plains Rd E, Burlington, ON L7T 2E7","postalcode":"L7T 2E7","website":" ","working_hour":"Monday 10:00 am - 7:00 pm   Tuesday 10:00 am - 7:00 pm   Wednesday 10:00 am - 7:00 pm   Thursday 10:00 am - 7:00 pm   Friday 10:00 am - 7:00 pm   Saturday 10:00 am - 6:00 pm","latitude":"43.321349","longitude":"-79.833142"},{"source":"yellow page","service_name":"Purity Nail And Spa","category":"manicure and pedicure","phone":"9056349696","address":"535 Brant St, Burlington, ON L7R 2G6","postalcode":"L7R 2G6","website":" ","working_hour":"Monday 10:00 am - 7:00 pm   Tuesday 10:00 am - 7:00 pm   Wednesday 10:00 am - 7:00 pm   Thursday 10:00 am - 7:00 pm   Friday 10:00 am - 7:00 pm   Saturday 10:00 am - 6:00 pm   Sunday 10:00 am - 4:00 pm","latitude":"43.328386","longitude":"-79.801772"},{"source":"yellow page","service_name":"Pedi N Nails","category":"manicure and pedicure","phone":"2897685089","address":"9-80 Dundas St E2, Dundas, ON L0R 2H2","postalcode":"L0R 2H2","website":" ","working_hour":"Monday 10:00 am - 7:00 pm   Tuesday 10:00 am - 7:00 pm   Wednesday 10:00 am - 7:00 pm   Thursday 10:00 am - 7:00 pm   Friday 10:00 am - 7:00 pm   Saturday 10:00 am - 6:00 pm   Sunday 11:00 am - 5:00 pm","latitude":"43.310117","longitude":"-80.076875"},{"source":"yellow page","service_name":"Natural Nails","category":"manicure and pedicure","phone":"905-639-9063","address":"3B-645 Plains Rd E, Burlington, ON L7T 4J5","postalcode":"L7T 4J5","website":" ","working_hour":"Monday 9:30 am - 7:30 pm   Tuesday 9:30 am - 7:30 pm   Wednesday 9:30 am - 7:30 pm   Thursday 9:30 am - 7:30 pm   Friday 9:30 am - 7:30 pm   Saturday 9:00 am - 5:30 pm","latitude":"43.322668","longitude":"-79.831463"},{"source":"yellow page","service_name":"L'Amour Nails","category":"manicure and pedicure","phone":"905-340-0147","address":"777 Guelph Line, Burlington, ON L7R 3N2","postalcode":"L7R 3N2","website":"http://www.lamournails.ca","working_hour":"Monday 9:30 am - 9:00 pm   Tuesday 9:30 am - 9:00 pm   Wednesday 9:30 am - 9:00 pm   Thursday 9:30 am - 9:00 pm   Friday 9:30 am - 9:00 pm   Saturday 9:30 am - 6:00 pm   Sunday 11:00 am - 5:00 pm","latitude":"43.346567","longitude":"-79.796347"},{"source":"yellow page","service_name":"Euphoria Nails & Spa","category":"manicure and pedicure","phone":"9053191292","address":"2-1505 Guelph Line, Burlington, ON L7P 3B6","postalcode":"L7P 3B6","website":" ","working_hour":"Monday 9:30 am - 7:30 pm   Tuesday 9:30 am - 7:30 pm   Wednesday 9:30 am - 7:30 pm   Thursday 9:30 am - 7:30 pm   Friday 9:30 am - 7:30 pm   Saturday 9:30 am - 6:00 pm   Sunday 11:00 am - 4:30 pm","latitude":"43.363733","longitude":"-79.820243"},{"source":"yellow page","service_name":"Nail Secrets","category":"manicure and pedicure","phone":"905-680-2423","address":"289 Glendale Ave, St Catharines, ON L2T 2L4","postalcode":"L2T 2L4","website":"http://www.nailsecrets.ca","working_hour":"Monday 10:00 am - 7:30 pm   Tuesday 10:00 am - 7:30 pm   Wednesday 10:00 am - 7:30 pm   Thursday 10:00 am - 7:30 pm   Friday 10:00 am - 7:30 pm   Saturday 10:00 am - 5:30 pm","latitude":"43.135147","longitude":"-79.219293"},{"source":"yellow page","service_name":"Bolsa Nails","category":"manicure and pedicure","phone":"905-938-1470","address":"389 Vine St, St Catharines, ON L2M 4T9","postalcode":"L2M 4T9","website":" ","working_hour":"","latitude":"43.187159","longitude":"-79.230856"},{"source":"yellow page","service_name":"Mimi Nails","category":"manicure and pedicure","phone":"905-934-1776","address":"292 Geneva St, St Catharines, ON L2N 2E8","postalcode":"L2N 2E8","website":"http://miminails.ca","working_hour":"Monday 9:00 am - 8:00 pm   Tuesday 9:00 am - 8:00 pm   Wednesday 9:00 am - 8:00 pm   Thursday 9:00 am - 8:00 pm   Friday 9:00 am - 8:00 pm   Saturday 9:00 am - 6:00 pm   Sunday 12:00 pm - 5:00 pm","latitude":"43.177821","longitude":"-79.24085"},{"source":"yellow page","service_name":"Lv Nails & Spa","category":"manicure and pedicure","phone":"905-735-2761","address":"95 Lincoln St, Welland, ON L3C 7C3","postalcode":"L3C 7C3","website":" ","working_hour":"Monday 9:30 am - 7:00 pm   Tuesday 9:30 am - 7:00 pm   Wednesday 9:30 am - 7:00 pm   Thursday 9:30 am - 7:00 pm   Friday 9:30 am - 7:00 pm   Saturday 9:30 am - 6:00 pm","latitude":"42.984013","longitude":"-79.2586111"},{"source":"yellow page","service_name":"The Nail Hut","category":"manicure and pedicure","phone":"905-688-1561","address":"6-2 Tremont Dr, St Catharines, ON L2T 3B2","postalcode":"L2T 3B2","website":" ","working_hour":"","latitude":"43.132235","longitude":"-79.224193"},{"source":"yellow page","service_name":"Phoenix Nail","category":"manicure and pedicure","phone":"9053539987","address":"3491 Portage Rd, Niagara Falls, ON L2J 2K5","postalcode":"L2J 2K5","website":" ","working_hour":"Monday 9:00 am - 7:00 pm   Tuesday 8:00 am - 4:00 pm","latitude":"43.122571","longitude":"-79.099675"},{"source":"yellow page","service_name":"Spa Nail Garden","category":"manicure and pedicure","phone":"905-641-1850","address":"Suite 111-525 Welland Ave, St Catharines, ON L2M 6P3","postalcode":"L2M 6P3","website":" ","working_hour":"","latitude":"43.175674","longitude":"-79.212646"},{"source":"yellow page","service_name":"Shenail Hair Lounge","category":"manicure and pedicure","phone":"9053538889","address":"8043 Lundy's Lane, Niagara Falls, ON L2H 1H3","postalcode":"L2H 1H3","website":"http://shenailhairlounge.ca/","working_hour":"Monday 10:00 am - 5:00 pm   Tuesday 9:30 am - 7:00 pm   Wednesday 9:30 am - 7:00 pm   Thursday 9:30 am - 7:00 pm   Friday 9:30 am - 7:00 pm   Saturday 10:00 am - 6:00 pm","latitude":"43.088915","longitude":"-79.132096"},{"source":"yellow page","service_name":"Pretty Nails","category":"manicure and pedicure","phone":"905-309-4386","address":"63 Main St W, Grimsby, ON L3M 4H1","postalcode":"L3M 4H1","website":" ","working_hour":"Monday 9:30 am - 7:30 pm   Tuesday 9:30 am - 7:30 pm   Wednesday 9:30 am - 7:30 pm   Thursday 9:30 am - 7:30 pm   Friday 9:30 am - 7:30 pm   Saturday 9:30 am - 6:00 pm","latitude":"43.194531","longitude":"-79.56292"},{"source":"yellow page","service_name":"Pretty Nails","category":"manicure and pedicure","phone":"905-684-3337","address":"526 Welland Ave, St Catharines, ON L2M 5V5","postalcode":"L2M 5V5","website":" ","working_hour":"","latitude":"43.176366","longitude":"-79.210809"},{"source":"yellow page","service_name":"Sunshine Nails","category":"manicure and pedicure","phone":"905-732-6345","address":"844 Niagara St, Welland, ON L3C 1M3","postalcode":"L3C 1M3","website":" ","working_hour":"","latitude":"43.0180761","longitude":"-79.2498481"},{"source":"yellow page","service_name":"4 Your Health","category":"manicure and pedicure","phone":"9057141907","address":"947 Niagara St, Welland, ON L3C 1M5","postalcode":"L3C 1M5","website":" ","working_hour":"Monday 9:00 am - 5:00 pm   Tuesday 9:00 am - 5:00 pm   Wednesday 9:00 am - 5:00 pm   Thursday 9:00 am - 5:00 pm   Friday 9:00 am - 5:00 pm   \"Appointments Available 7 Days A Week Including Evenings Until 8\"","latitude":"43.0223704","longitude":"-79.2497939"},{"source":"yellow page","service_name":"Kim's Nail & Spa","category":"manicure and pedicure","phone":"905-714-3330","address":"8b-572 Niagara St, Welland, ON L3C 6T8","postalcode":"L3C 6T8","website":" ","working_hour":"","latitude":"43.0068112","longitude":"-79.2519205"},{"source":"yellow page","service_name":"Polished Nails & Spa","category":"manicure and pedicure","phone":"2892960486","address":"2-4728 Dorchester Road, Niagara Falls, ON L2E 7H9","postalcode":"L2E 7H9","website":" ","working_hour":"Monday 10:00 am - 7:00 pm   Tuesday 10:00 am - 7:00 pm   Wednesday 10:00 am - 7:00 pm   Thursday 10:00 am - 7:00 pm   Friday 10:00 am - 7:00 pm   Saturday 10:00 am - 6:00 pm   Sunday 11:00 am - 4:00 pm   Sunday By Appointment Only","latitude":"43.1041254","longitude":"-79.1112423"},{"source":"yellow page","service_name":"Solar Nails","category":"manicure and pedicure","phone":"905-354-5396","address":"7-6175 Dunn St, Niagara Falls, ON L2G 2P4","postalcode":"L2G 2P4","website":" ","working_hour":"","latitude":"43.078687","longitude":"-79.096356"},{"source":"yellow page","service_name":"Princess Nails","category":"manicure and pedicure","phone":"905-357-1888","address":"6769 Lundy's Lane, Niagara Falls, ON L2G 1V4","postalcode":"L2G 1V4","website":" ","working_hour":"Monday 9:30 am - 7:00 pm   Tuesday 9:30 am - 7:00 pm   Wednesday 9:30 am - 7:00 pm   Thursday 9:30 am - 7:00 pm   Friday 9:30 am - 7:00 pm   Saturday 9:30 am - 6:00 pm","latitude":"43.089293","longitude":"-79.108233"},{"source":"yellow page","service_name":"Star Nails","category":"manicure and pedicure","phone":"289-362-1748","address":"3-209 Glenridge Ave, St Catharines, ON L2T 3J6","postalcode":"L2T 3J6","website":" ","working_hour":"","latitude":"43.1429479","longitude":"-79.2393878"},{"source":"yellow page","service_name":"Sugar Me Sweet","category":"manicure and pedicure","phone":"9059329076","address":"297 Simpson Ave, Welland, ON L3B 4Y7","postalcode":"L3B 4Y7","website":"http://www.sugarmesweetbakers.com/","working_hour":"","latitude":"42.978976","longitude":"-79.2394225"},{"source":"yellow page","service_name":"Famous Nails","category":"manicure and pedicure","phone":"9059380036","address":"391 Vine St, St Catharines, ON L2M 4T9","postalcode":"L2M 4T9","website":"http://famousnails.ca","working_hour":"Monday 9:00 am - 7:00 pm   Tuesday 9:00 am - 7:00 pm   Wednesday 9:00 am - 7:00 pm   Thursday 9:00 am - 7:00 pm   Friday 9:00 am - 7:00 pm   Saturday 9:00 am - 6:00 pm","latitude":"43.18754","longitude":"-79.230872"},{"source":"yellow page","service_name":"Professional Nail","category":"manicure and pedicure","phone":"905-371-3418","address":"6703 Drummond Rd, Niagara Falls, ON L2G 4N8","postalcode":"L2G 4N8","website":" ","working_hour":"","latitude":"43.078104","longitude":"-79.097252"},{"source":"yellow page","service_name":"Professional Nail","category":"manicure and pedicure","phone":"905-720-2267","address":"20 Bond St W, Oshawa, ON L1G 1A2","postalcode":"L1G 1A2","website":" ","working_hour":"Monday 10:00 am - 7:30 pm   Tuesday 10:00 am - 7:30 pm   Wednesday 10:00 am - 7:30 pm   Thursday 10:00 am - 7:30 pm   Friday 10:00 am - 7:30 pm   Saturday 10:00 am - 6:30 pm","latitude":"43.898252","longitude":"-78.864856"},{"source":"yellow page","service_name":"Beauty Nails","category":"manicure and pedicure","phone":"905-720-2052","address":"650 King St E, Oshawa, ON L1H 1G5","postalcode":"L1H 1G5","website":" ","working_hour":"Monday 10:00 am - 7:00 pm   Tuesday 10:00 am - 7:00 pm   Wednesday 10:00 am - 7:00 pm   Thursday 10:00 am - 7:00 pm   Friday 10:00 am - 7:00 pm","latitude":"43.902988","longitude":"-78.840237"},{"source":"yellow page","service_name":"L A Nails","category":"manicure and pedicure","phone":"905-432-0955","address":"B 7 200 John W, Oshawa, ON L1J 2B4","postalcode":"L1J 2B4","website":"http://lanailsbc.com/","working_hour":"Monday 7:00 am - 6:00 pm   Tuesday 7:00 am - 6:00 pm   Wednesday 7:00 am - 6:00 pm   Thursday 7:00 am - 6:00 pm   Friday 7:00 am - 6:00 pm","latitude":"43.892591","longitude":"-78.868777"},{"source":"yellow page","service_name":"The Spa Nails","category":"manicure and pedicure","phone":"905-436-3963","address":"1615 Dundas St E, Whitby, ON L1N 2L1","postalcode":"L1N 2L1","website":" ","working_hour":"","latitude":"43.886589","longitude":"-78.912263"},{"source":"yellow page","service_name":"Garden Party Boutique","category":"manicure and pedicure","phone":"9054367843","address":"15 Bond St E, Oshawa, ON L1G 1A8","postalcode":"L1G 1A8","website":" ","working_hour":"Monday 10:00 am - 5:00 pm   Tuesday 10:00 am - 5:00 pm   Wednesday 10:00 am - 5:00 pm   Thursday 10:00 am - 7:00 pm   Friday 10:00 am - 7:00 pm   Saturday 10:00 am - 5:00 pm","latitude":"43.898623","longitude":"-78.863256"},{"source":"yellow page","service_name":"Lily Nails","category":"manicure and pedicure","phone":"905-720-2350","address":"7B-199 Wentworth St W, Oshawa, ON L1J 6P4","postalcode":"L1J 6P4","website":" ","working_hour":"Monday 10:00 am - 7:00 pm   Tuesday 10:00 am - 7:00 pm   Wednesday 10:00 am - 7:00 pm   Thursday 10:00 am - 7:00 pm   Friday 10:00 am - 7:00 pm   Saturday 10:00 am - 7:00 pm","latitude":"43.870405","longitude":"-78.850525"},{"source":"yellow page","service_name":"Glamour Girl Nail & Spas","category":"manicure and pedicure","phone":"2892404369","address":"22 Stevenson Rd S, Oshawa, ON L1J 5L9","postalcode":"L1J 5L9","website":" ","working_hour":"","latitude":"43.892572","longitude":"-78.883162"},{"source":"yellow page","service_name":"Paris Nails","category":"manicure and pedicure","phone":"905-579-9145","address":"419 King St W, Oshawa, ON L1J 2K5","postalcode":"L1J 2K5","website":"http://lamournails.ca","working_hour":"","latitude":"43.8940463","longitude":"-78.8790655"},{"source":"yellow page","service_name":"Hip Hop Nails","category":"manicure and pedicure","phone":"416-849-8897","address":"5550 Lawrence Ave E, Scarborough, ON M1C 3B2","postalcode":"M1C 3B2","website":" ","working_hour":"Monday 10:00 am - 8:00 pm   Tuesday 10:00 am - 8:00 pm   Wednesday 10:00 am - 8:00 pm   Thursday 10:00 am - 8:00 pm   Friday 10:00 am - 8:00 pm   Saturday 9:30 am - 7:00 pm   Sunday 11:00 am - 6:00 pm","latitude":"43.779482","longitude":"-79.137161"},{"source":"yellow page","service_name":"QS Nail And Spa","category":"manicure and pedicure","phone":"416-282-3600","address":"75 Rylander Blvd, Scarborough, ON M1B 5M5","postalcode":"M1B 5M5","website":" ","working_hour":"Monday 10:00 am - 8:00 pm   Tuesday 10:00 am - 8:00 pm   Wednesday 10:00 am - 8:00 pm   Thursday 10:00 am - 8:00 pm   Friday 10:00 am - 8:00 pm   Saturday 10:00 am - 6:00 pm   Sunday 10:00 am - 5:00 pm","latitude":"43.798109","longitude":"-79.151708"},{"source":"yellow page","service_name":"Nails For You","category":"manicure and pedicure","phone":"6474289817","address":"31 Tapscott Rd, Scarborough, ON M1B 4Y7","postalcode":"M1B 4Y7","website":"http://nailsforyou.ca","working_hour":"","latitude":"43.805533","longitude":"-79.221176"},{"source":"yellow page","service_name":"Belle Ny Nail Salon","category":"manicure and pedicure","phone":"905-640-5145","address":"6286 Main St, Stouffville, ON L4A 1G7","postalcode":"L4A 1G7","website":" ","working_hour":"Monday 10:00 am - 7:00 pm   Tuesday 10:00 am - 7:00 pm   Wednesday 10:00 am - 7:00 pm   Thursday 10:00 am - 7:00 pm   Friday 10:00 am - 7:00 pm","latitude":"43.971409","longitude":"-79.246621"},{"source":"yellow page","service_name":"Picturesque Rosy Nail & Skin Care Spa","category":"manicure and pedicure","phone":"905-642-9699","address":"6331 Main St, Stouffville, ON L4A 1G5","postalcode":"L4A 1G5","website":" ","working_hour":"Monday 10:00 am - 7:00 pm   Tuesday 10:00 am - 7:00 pm   Wednesday 10:00 am - 7:00 pm   Thursday 10:00 am - 7:00 pm   Friday 10:00 am - 7:00 pm   Saturday 10:00 am - 6:00 pm   Sunday 11:00 am - 5:00 pm   Call To Book Appointment And Walk Ins Welcome","latitude":"43.971498","longitude":"-79.246203"},{"source":"yellow page","service_name":"Picturesque Rosy Nails & Skin Care","category":"manicure and pedicure","phone":"9056429699","address":"6331 Main, Stouffville, ON L4A 1G5","postalcode":"L4A 1G5","website":" ","working_hour":"Monday 10:00 am - 7:00 pm   Tuesday 10:00 am - 7:00 pm   Wednesday 10:00 am - 7:00 pm   Thursday 10:00 am - 7:00 pm   Friday 10:00 am - 7:00 pm   Saturday 11:00 am - 6:00 pm   Sunday 12:00 am - 5:00 pm","latitude":"43.971498","longitude":"-79.246203"},{"source":"yellow page","service_name":"Nail Design","category":"manicure and pedicure","phone":"905-358-6245","address":"6240 Thorold Stone Rd, Niagara Falls, ON L2J 1A7","postalcode":"L2J 1A7","website":" ","working_hour":"","latitude":"43.115303","longitude":"-79.099517"},{"source":"yellow page","service_name":"Rose Nails","category":"manicure and pedicure","phone":"9053577888","address":"23A-7555 Montrose Rd, Niagara Falls, ON L2H 2E9","postalcode":"L2H 2E9","website":"http://rosenailsandspa.com","working_hour":"","latitude":"43.068389","longitude":"-79.125392"},{"source":"yellow page","service_name":"Majestic Nails","category":"manicure and pedicure","phone":"9053531864","address":"6687 Lundy's Lane, Niagara Falls, ON L2G 1V4","postalcode":"L2G 1V4","website":"http://www.majesticnailsnf.com","working_hour":"Monday 9:30 am - 7:00 pm   Tuesday 9:30 am - 7:00 pm   Wednesday 9:30 am - 7:00 pm   Thursday 9:30 am - 7:00 pm   Friday 9:30 am - 7:00 pm   Saturday 9:30 am - 6:00 pm   Walk-ins Welcome","latitude":"43.0893245","longitude":"-79.1066444"},{"source":"yellow page","service_name":"Envy's Nails","category":"manicure and pedicure","phone":"9052950909","address":"3464 Cattell Dr, Niagara Falls, ON L2G 7K7","postalcode":"L2G 7K7","website":"http://lesnails.ca/","working_hour":"Monday 9:30 am - 6:00 pm   Tuesday 9:30 am - 6:00 pm   Wednesday 9:30 am - 6:00 pm   Thursday 9:30 am - 6:00 pm   Friday 9:30 am - 6:00 pm   Saturday 9:30 am - 5:00 pm","latitude":"43.054482","longitude":"-79.04582"},{"source":"yellow page","service_name":"Five Lakes Spa Aveda At Doubletree","category":"manicure and pedicure","phone":"905-353-4100","address":"6039 Fallsview Blvd, Niagara Falls, ON L2G 3V6","postalcode":"L2G 3V6","website":"http://fivelakesspa.com","working_hour":"Tuesday 10:00 am - 6:00 pm   Wednesday 10:00 am - 6:00 pm   Thursday 10:00 am - 6:00 pm   Friday 10:00 am - 7:00 pm   Saturday 9:00 am - 6:00 pm   Sunday 9:00 am - 2:00 pm   Closed Mondays","latitude":"43.08741","longitude":"-79.083194"},{"source":"yellow page","service_name":"Golden Touch","category":"manicure and pedicure","phone":"905-543-0898","address":"977 Main St E, Hamilton, ON L8M 1N2","postalcode":"L8M 1N2","website":" ","working_hour":"","latitude":"43.2448771","longitude":"-79.8292676"},{"source":"yellow page","service_name":"Lees Nails","category":"manicure and pedicure","phone":"905-388-4925","address":"11-1104 Fennell Ave E, Hamilton, ON L8T 1R9","postalcode":"L8T 1R9","website":"http://www.leenailshamilton.com","working_hour":"","latitude":"43.225742","longitude":"-79.830274"},{"source":"yellow page","service_name":"U'nique Nail Salon","category":"manicure and pedicure","phone":"905-578-6700","address":"323 Grays Rd, Hamilton, ON L8E 2Z1","postalcode":"L8E 2Z1","website":" ","working_hour":"","latitude":"43.2326948","longitude":"-79.7401781"},{"source":"yellow page","service_name":"Kimmy's Nail Salon","category":"manicure and pedicure","phone":"905-560-7854","address":"800 Queenston Rd, Stoney Creek, ON L8G 1A7","postalcode":"L8G 1A7","website":" ","working_hour":"","latitude":"43.2279227","longitude":"-79.7637245"},{"source":"yellow page","service_name":"Anna Top Nail Spa","category":"manicure and pedicure","phone":"905-574-8820","address":"4-1119 Fennell Ave E, Hamilton, ON L8T 1S2","postalcode":"L8T 1S2","website":" ","working_hour":"","latitude":"43.225397","longitude":"-79.828448"},{"source":"yellow page","service_name":"PA Nails","category":"manicure and pedicure","phone":"9053878246","address":"598 Upper Sherman Ave, Hamilton, ON L8V 3M2","postalcode":"L8V 3M2","website":" ","working_hour":"","latitude":"43.229717","longitude":"-79.848348"},{"source":"yellow page","service_name":"Supercare Nails & Spa","category":"manicure and pedicure","phone":"9056430668","address":"6-621 Barton St, Stoney Creek, ON L8E 5R8","postalcode":"L8E 5R8","website":"http://www.supercarespa.ca","working_hour":"Monday 9:30 am - 7:00 pm   Tuesday 9:30 am - 7:00 pm   Wednesday 9:30 am - 7:00 pm   Thursday 9:30 am - 7:00 pm   Friday 9:30 am - 7:00 pm   Saturday 9:30 am - 5:30 pm   Sunday 11:00 am - 5:00 pm","latitude":"43.2229048","longitude":"-79.7022212"},{"source":"yellow page","service_name":"Mei Nails","category":"manicure and pedicure","phone":"905-383-4860","address":"15-989 Fennell Ave E, Hamilton, ON L8T 1R1","postalcode":"L8T 1R1","website":" ","working_hour":"","latitude":"43.2274335","longitude":"-79.836845"},{"source":"yellow page","service_name":"The Nail Lady & Aesthetics","category":"manicure and pedicure","phone":"905-294-7471","address":"83 Main St N, Markham, ON L3P 1X7","postalcode":"L3P 1X7","website":"https://www.facebook.com/pages/The-Nailady/253731011313910?sk=info","working_hour":"","latitude":"43.8770188","longitude":"-79.2605808"},{"source":"yellow page","service_name":"Sun Nails","category":"manicure and pedicure","phone":"416-297-5006","address":"5111 Sheppard Ave E, Scarborough, ON M1S 4N8","postalcode":"M1S 4N8","website":"http://www.sunnails.com/","working_hour":"","latitude":"43.793698","longitude":"-79.239442"},{"source":"yellow page","service_name":"Seaweed Nails & Spa","category":"manicure and pedicure","phone":"905-201-8832","address":"9850 HWY-48, Markham, ON L6E 0H7","postalcode":"L6E 0H7","website":" ","working_hour":"Monday 9:00 am - 8:00 pm   Tuesday 9:00 am - 8:00 pm   Wednesday 9:00 am - 8:00 pm   Thursday 9:00 am - 8:00 pm   Friday 9:00 am - 8:00 pm   Saturday 9:00 am - 6:00 pm   Sunday 10:00 am - 5:00 pm","latitude":"43.9070986","longitude":"-79.2676121"},{"source":"yellow page","service_name":"Nails & Toes Spa","category":"manicure and pedicure","phone":"4162988897","address":"4830 Sheppard Ave E, Scarborough, ON M1S 5M9","postalcode":"M1S 5M9","website":" ","working_hour":"Monday 10:00 am - 8:00 pm   Tuesday 10:00 am - 8:00 pm   Wednesday 10:00 am - 8:00 pm   Thursday 10:00 am - 8:00 pm   Friday 10:00 am - 8:00 pm   Saturday 10:00 am - 8:00 pm   Sunday 10:00 am - 5:00 pm","latitude":"43.791689","longitude":"-79.249211"},{"source":"yellow page","service_name":"Relaxzone Wellness Center","category":"manicure and pedicure","phone":"905-554-2908","address":"20 Main N, Markham, ON L3P 1X2","postalcode":"L3P 1X2","website":"http://www.artisticnailspa.ca","working_hour":"","latitude":"43.87477","longitude":"-79.260055"},{"source":"yellow page","service_name":"Elegant Nails","category":"manicure and pedicure","phone":"9054891187","address":"4981 Highway 7, Unionville, ON L3R 1N1","postalcode":"L3R 1N1","website":" ","working_hour":"","latitude":"43.865273","longitude":"-79.292347"},{"source":"yellow page","service_name":"Daisy Nails","category":"manicure and pedicure","phone":"905-201-0060","address":"5990 16th Ave, Markham, ON L3P 7R2","postalcode":"L3P 7R2","website":" ","working_hour":"Monday 9:30 am - 7:30 pm   Tuesday 9:30 am - 7:30 pm   Wednesday 9:30 am - 7:30 pm   Thursday 9:30 am - 7:30 pm   Friday 9:30 am - 7:30 pm   Saturday 9:30 am - 7:30 pm   Sunday 9:30 am - 7:30 pm","latitude":"43.891477","longitude":"-79.265553"},{"source":"yellow page","service_name":"Graceful Nails & Spa","category":"manicure and pedicure","phone":"9052011117","address":"150 New Delhi Dr, Markham, ON L3S 0B6","postalcode":"L3S 0B6","website":"http://www.go4nails.com","working_hour":"Monday 9:30 am - 7:30 pm   Tuesday 9:30 am - 7:30 pm   Wednesday 9:30 am - 7:30 pm   Thursday 9:30 am - 7:30 pm   Friday 9:30 am - 7:30 pm   Saturday 9:30 am - 7:30 pm   Sunday 11:00 am - 6:00 pm","latitude":"43.8509505","longitude":"-79.2524723"},{"source":"yellow page","service_name":"New Century Nails","category":"manicure and pedicure","phone":"9055547988","address":"4-60 Main St N, Markham, ON L3P 1X5","postalcode":"L3P 1X5","website":" ","working_hour":"Monday 10:00 am - 7:30 pm   Tuesday 10:00 am - 7:30 pm   Wednesday 10:00 am - 7:30 pm   Thursday 10:00 am - 7:30 pm   Friday 10:00 am - 7:30 pm   Saturday 10:00 am - 6:00 pm   Sunday 10:00 am - 5:00 pm","latitude":"43.8762319","longitude":"-79.2604316"},{"source":"yellow page","service_name":"Bliss Nail Bar","category":"manicure and pedicure","phone":"9055548872","address":"6-6050 Hwy 7, Markham, ON L3P 3A9","postalcode":"L3P 3A9","website":" ","working_hour":"Monday 10:00 am - 7:00 pm   Tuesday 10:00 am - 7:00 pm   Wednesday 10:00 am - 7:00 pm   Thursday 10:00 am - 7:00 pm   Friday 10:00 am - 7:00 pm   Saturday 10:00 am - 6:00 pm","latitude":"43.874409","longitude":"-79.257775"},{"source":"yellow page","service_name":"Em1 Nails","category":"manicure and pedicure","phone":"9056047774","address":"8339 Kennedy Rd, Markham, ON","postalcode":"","website":" ","working_hour":"","latitude":"43.8586983","longitude":"-79.3029347"},{"source":"yellow page","service_name":"Em1 Nails","category":"manicure and pedicure","phone":"9056041548","address":"2707 8339 Kennedy Rd, Markham, ON L3R 5Y5","postalcode":"L3R 5Y5","website":" ","working_hour":"","latitude":"43.8586983","longitude":"-79.3029347"},{"source":"yellow page","service_name":"Nail Mart","category":"manicure and pedicure","phone":"905-604-6617","address":"30 Gibson Dr, Markham, ON L3R 2S3","postalcode":"L3R 2S3","website":" ","working_hour":"","latitude":"43.823785","longitude":"-79.32623"},{"source":"yellow page","service_name":"Fashion Nails","category":"manicure and pedicure","phone":"9054718265","address":"6040 Highway 7, Markham, ON L3P 3A8","postalcode":"L3P 3A8","website":" ","working_hour":"","latitude":"43.874259","longitude":"-79.258397"},{"source":"yellow page","service_name":"Better Life Nails & Spa","category":"manicure and pedicure","phone":"905-604-4990","address":"8312 McCowan Rd, Unionville, ON L3P 8E1","postalcode":"L3P 8E1","website":" ","working_hour":"Monday 10:00 am - 7:30 pm   Tuesday 10:00 am - 7:30 pm   Wednesday 10:00 am - 7:30 pm   Thursday 10:00 am - 7:30 pm   Friday 10:00 am - 7:30 pm   Saturday 10:00 am - 7:00 pm   Sunday 11:00 am - 5:00 pm","latitude":"43.864937","longitude":"-79.283931"},{"source":"yellow page","service_name":"Ashgrove Spa & Medi Spa","category":"manicure and pedicure","phone":"9054740343","address":"105 Main St, Unionville, ON L3R 2G1","postalcode":"L3R 2G1","website":" ","working_hour":"Monday 10:00 am - 8:00 pm   Tuesday 9:00 am - 5:00 pm   Wednesday 10:00 am - 8:00 pm   Thursday 10:00 am - 8:00 pm   Friday 9:00 am - 5:00 pm   Saturday 9:00 am - 5:00 pm","latitude":"43.861834","longitude":"-79.309712"},{"source":"yellow page","service_name":"Melody Nails","category":"manicure and pedicure","phone":"9056042026","address":"3255 Highway 7, Markham, ON L3R 3P9","postalcode":"L3R 3P9","website":" ","working_hour":"Monday 11:00 am - 7:30 pm   Tuesday 11:00 am - 7:30 pm   Wednesday 11:00 am - 7:30 pm   Thursday 11:00 am - 7:30 pm   Friday 11:00 am - 7:30 pm   Saturday 11:00 am - 7:30 pm   Sunday 11:00 am - 7:30 pm","latitude":"43.851933","longitude":"-79.348567"},{"source":"yellow page","service_name":"Passion Nails and Spa","category":"manicure and pedicure","phone":"905-201-1369","address":"2 Fincham Ave, Markham, ON L3P 4C8","postalcode":"L3P 4C8","website":" ","working_hour":"Monday 10:00 am - 7:00 pm   Tuesday 10:00 am - 7:00 pm   Wednesday 10:00 am - 7:00 pm   Thursday 10:00 am - 7:00 pm   Friday 10:00 am - 7:00 pm   Saturday 10:00 am - 5:00 pm","latitude":"43.8931927","longitude":"-79.2585989"},{"source":"yellow page","service_name":"Nail Art","category":"manicure and pedicure","phone":"416-250-6561","address":"1547 Steeles Ave E, North York, ON M2M 3Y7","postalcode":"M2M 3Y7","website":" ","working_hour":"Monday 9:30 am - 7:00 pm   Tuesday 9:30 am - 7:00 pm   Wednesday 9:30 am - 7:00 pm   Thursday 9:30 am - 7:00 pm   Friday 9:30 am - 7:00 pm   Saturday 9:00 am - 6:00 pm   Sunday 11:00 am - 5:00 pm","latitude":"43.8058063","longitude":"-79.3846742"},{"source":"yellow page","service_name":"A Plus Nails Salon","category":"manicure and pedicure","phone":"6473616803","address":"30 Gibson Dr, Markham, ON L3R 2S3","postalcode":"L3R 2S3","website":"http://aplusnail.ca","working_hour":"Monday 10:30 am - 8:00 pm   Tuesday 10:30 am - 8:00 pm   Wednesday 10:30 am - 8:00 pm   Thursday 10:30 am - 8:00 pm   Friday 10:30 am - 8:00 pm   Saturday 10:30 am - 7:00 pm   Sunday 10:30 am - 7:00 pm   Booking System Is Available 24Hrs/7 Days By Vagaros   Or Whatsapp: 647 970 1109","latitude":"43.823785","longitude":"-79.32623"},{"source":"yellow page","service_name":"The Nail Salon","category":"manicure and pedicure","phone":"2895973372","address":"22B-7378 Yonge Street, Vaughan, ON L4J 8J1","postalcode":"L4J 8J1","website":" ","working_hour":"Monday 9:30 am - 7:00 pm   Tuesday 9:30 am - 7:00 pm   Wednesday 9:30 am - 7:00 pm   Thursday 9:30 am - 7:00 pm   Friday 9:30 am - 7:00 pm   Saturday 9:30 am - 5:00 pm","latitude":"43.80828","longitude":"-79.422662"},{"source":"yellow page","service_name":"Tayrona Capital","category":"manicure and pedicure","phone":"9057070772","address":"9080 Yonge St, Richmond Hill, ON L4C 0Y7","postalcode":"L4C 0Y7","website":"http://www.tayronacapital.com","working_hour":"Monday 9:00 am - 9:00 pm   Tuesday 9:00 am - 9:00 pm   Wednesday 9:00 am - 9:00 pm   Thursday 9:00 am - 9:00 pm   Friday 9:00 am - 10:00 pm   Saturday 9:00 am - 10:00 pm   Sunday 10:00 am - 7:00 pm","latitude":"43.848501","longitude":"-79.4319258"},{"source":"yellow page","service_name":"Nail Garden","category":"manicure and pedicure","phone":"416-491-0550","address":"3909 Don Mills Rd, North York, ON M2H 2S7","postalcode":"M2H 2S7","website":" ","working_hour":"Tuesday 10:00 am - 7:00 pm   Wednesday 10:00 am - 7:00 pm   Thursday 10:00 am - 7:00 pm   Friday 10:00 am - 7:00 pm   Saturday 10:00 am - 6:00 pm   Sunday 12:00 pm - 5:00 pm   Call For Details: Sunday, Saturday.","latitude":"43.8066661","longitude":"-79.3564289"},{"source":"yellow page","service_name":"Demi Nail","category":"manicure and pedicure","phone":"9055979331","address":"7181 Yonge St, Markham, ON L3T 0C7","postalcode":"L3T 0C7","website":" ","working_hour":"","latitude":"43.803604","longitude":"-79.421534"},{"source":"yellow page","service_name":"Bayview Nails & Spa","category":"manicure and pedicure","phone":"416-226-1092","address":"3305 Bayview Ave, North York, ON M2K 1G4","postalcode":"M2K 1G4","website":" ","working_hour":"Monday 9:30 am - 7:00 pm   Tuesday 9:30 am - 7:00 pm   Wednesday 9:30 am - 7:00 pm   Thursday 9:30 am - 7:00 pm   Friday 9:30 am - 7:00 pm   Saturday 9:30 am - 7:00 pm","latitude":"43.7905534","longitude":"-79.3932593"},{"source":"yellow page","service_name":"Rainbow Nail Spa","category":"manicure and pedicure","phone":"647-348-8608","address":"3030 Don Mills Rd, North York, ON M2J 3C1","postalcode":"M2J 3C1","website":" ","working_hour":"","latitude":"43.786246","longitude":"-79.351648"},{"source":"yellow page","service_name":"Lisaz Nails Salon","category":"manicure and pedicure","phone":"647-380-4152","address":"1200-251 Consumers Rd, North York, ON M2J 4R3","postalcode":"M2J 4R3","website":" ","working_hour":"","latitude":"43.7724258","longitude":"-79.3318368"},{"source":"yellow page","service_name":"Nail Brite","category":"manicure and pedicure","phone":"9057808200","address":"1070 Major Mackenzie Dr E, Richmond Hill, ON L4S 1P3","postalcode":"L4S 1P3","website":"http://www.nailbrite.ca","working_hour":"Monday 10:00 am - 7:30 pm   Tuesday 10:00 am - 7:30 pm   Wednesday 10:00 am - 7:30 pm   Thursday 10:00 am - 7:30 pm   Friday 10:00 am - 7:30 pm   Saturday 10:00 am - 7:30 pm   Sunday 11:00 am - 6:00 pm","latitude":"43.8762394","longitude":"-79.410043"},{"source":"yellow page","service_name":"Fanny K Salon","category":"manicure and pedicure","phone":"2895977803","address":"8763 Bayview Ave, Richmond Hill, ON L4B 3V1","postalcode":"L4B 3V1","website":"http://fannyksalon.com/","working_hour":"Tuesday 10:00 am - 7:00 pm   Wednesday 10:00 am - 7:00 pm   Thursday 10:00 am - 7:00 pm   Friday 10:00 am - 7:00 pm   Saturday 9:00 am - 5:00 pm","latitude":"43.844861","longitude":"-79.407724"},{"source":"yellow page","service_name":"Moretti Eugene","category":"manicure and pedicure","phone":"416-909-2421","address":"5807 Yonge St, North York, ON M2M 3T9","postalcode":"M2M 3T9","website":" ","working_hour":"","latitude":"43.7845842","longitude":"-79.416724"},{"source":"yellow page","service_name":"Nail Gallery","category":"manicure and pedicure","phone":"416-636-7645","address":"624B Sheppard Ave W, North York, ON M3H 2S1","postalcode":"M3H 2S1","website":"http://nailsmag.com","working_hour":"Monday 6:00 am - 4:00 pm   Tuesday 6:00 am - 4:00 pm   Wednesday 6:00 am - 4:00 pm   Thursday 6:00 am - 4:00 pm   Friday 6:00 am - 4:00 pm   Call For Details: Sunday.","latitude":"43.7551737","longitude":"-79.440382"},{"source":"yellow page","service_name":"Dazzle Nail Spa","category":"manicure and pedicure","phone":"6474799553","address":"1027-7 Finch Ave W, North York, ON M3J 2C7","postalcode":"M3J 2C7","website":" ","working_hour":"Tuesday 11:00 am - 8:00 pm   Wednesday 11:00 am - 8:00 pm   Thursday 11:00 am - 8:00 pm   Friday 11:00 am - 8:00 pm   Saturday 11:00 am - 9:00 pm   Sunday 11:00 am - 9:00 pm","latitude":"43.779844","longitude":"-79.4151282"},{"source":"yellow page","service_name":"Sweet Nails And Spa","category":"manicure and pedicure","phone":"905-886-2525","address":"670 7 E, Thornhill, ON L4B 3P2","postalcode":"L4B 3P2","website":" ","working_hour":"Monday 8:30 am - 6:00 pm   Tuesday 8:30 am - 6:00 pm   Wednesday 8:30 am - 6:00 pm   Thursday 8:30 am - 6:00 pm   Friday 8:30 am - 6:00 pm   Saturday 10:00 am - 5:00 pm   Sunday 10:00 am - 5:00 pm","latitude":"43.830287","longitude":"-79.44955"},{"source":"yellow page","service_name":"Daisy Nails & Spa","category":"manicure and pedicure","phone":"416-551-0702","address":"5460 Yonge St, North York, ON M2N 6K7","postalcode":"M2N 6K7","website":" ","working_hour":"","latitude":"43.777298","longitude":"-79.414923"},{"source":"yellow page","service_name":"Beautiful Nails","category":"manicure and pedicure","phone":"905-763-2022","address":"100 Steeles Ave W, Thornhill, ON L4J 7Y1","postalcode":"L4J 7Y1","website":"http://www.beautifulnailsstl.com/","working_hour":"Tuesday 9:00 am - 7:00 pm   Wednesday 9:00 am - 7:00 pm   Thursday 9:00 am - 7:00 pm   Friday 9:00 am - 7:00 pm   Saturday 9:00 am - 7:00 pm   Sunday 9:00 am - 5:00 pm","latitude":"43.797028","longitude":"-79.42469"},{"source":"yellow page","service_name":"Nails For You","category":"manicure and pedicure","phone":"416-512-2094","address":"6464 Yonge St, Toronto, ON M2M 3X4","postalcode":"M2M 3X4","website":"http://nailsforyou.ca","working_hour":"","latitude":"43.7957164","longitude":"-79.4194962"},{"source":"yellow page","service_name":"Top Lovely Nails","category":"manicure and pedicure","phone":"905-884-5412","address":"9580 Yonge St, Richmond Hill, ON L4C 1V6","postalcode":"L4C 1V6","website":" ","working_hour":"Monday 10:00 am - 8:00 pm   Tuesday 10:00 am - 8:00 pm   Wednesday 10:00 am - 8:00 pm   Thursday 10:00 am - 8:00 pm   Friday 10:00 am - 8:00 pm   Saturday 10:00 am - 7:00 pm   Sunday 11:00 am - 4:00 pm","latitude":"43.860989","longitude":"-79.434966"},{"source":"yellow page","service_name":"Nice One Nails","category":"manicure and pedicure","phone":"9055086607","address":"209-9737 Yonge St, Richmond Hill, ON L4C 8J7","postalcode":"L4C 8J7","website":" ","working_hour":"","latitude":"43.865063","longitude":"-79.435845"},{"source":"yellow page","service_name":"Pedi N Nails 1","category":"manicure and pedicure","phone":"9058842777","address":"304-10785 Leslie St, Richmond Hill, ON L4S 0B2","postalcode":"L4S 0B2","website":" ","working_hour":"Monday 10:00 am - 7:00 pm   Tuesday 10:00 am - 7:00 pm   Wednesday 10:00 am - 7:00 pm   Thursday 10:00 am - 7:00 pm   Friday 10:00 am - 7:00 pm   Saturday 10:00 am - 6:00 pm","latitude":"43.9014876","longitude":"-79.3964417"},{"source":"yellow page","service_name":"Polished Beauty Bar","category":"manicure and pedicure","phone":"9058843222","address":"14C-10520 Yonge St, Richmond Hill, ON L4C 3C7","postalcode":"L4C 3C7","website":"http://www.polishedbeautybar.ca","working_hour":"Tuesday 9:30 am - 6:30 pm   Wednesday 9:30 am - 6:30 pm   Thursday 9:00 am - 9:00 pm   Friday 9:00 am - 9:00 pm   Saturday 9:00 am - 5:00 pm","latitude":"43.884063","longitude":"-79.441383"},{"source":"yellow page","service_name":"Soft Radiance Nail","category":"manicure and pedicure","phone":"9052921320","address":"10441 Yonge St, Richmond Hill, ON L4C 3C2","postalcode":"L4C 3C2","website":" ","working_hour":"Tuesday 10:00 am - 7:00 pm   Wednesday 10:00 am - 7:00 pm   Thursday 9:30 am - 7:30 pm   Friday 9:30 am - 7:30 pm   Saturday 9:00 am - 6:00 pm   Sunday 10:00 am - 5:00 pm","latitude":"43.88196","longitude":"-79.439729"},{"source":"yellow page","service_name":"Nails Crazy","category":"manicure and pedicure","phone":"905-737-8449","address":"b 15-10610 Bayview Ave, Richmond Hill, ON L4C 3N8","postalcode":"L4C 3N8","website":" ","working_hour":"","latitude":"43.889535","longitude":"-79.418954"},{"source":"yellow page","service_name":"Season Nails Spa","category":"manicure and pedicure","phone":"905-553-0388","address":"1850 Major MacKenzie Dr, Maple, ON L6A 4R9","postalcode":"L6A 4R9","website":" ","working_hour":"","latitude":"43.8581437","longitude":"-79.5007761"},{"source":"yellow page","service_name":"Nice City Nails","category":"manicure and pedicure","phone":"9058842728","address":"11685 Yonge St, Richmond Hill, ON L4E 0K7","postalcode":"L4E 0K7","website":"http://www.nicecitynails.com","working_hour":"Monday 10:00 am - 8:00 pm   Tuesday 10:00 am - 8:00 pm   Wednesday 10:00 am - 8:00 pm   Thursday 10:00 am - 8:00 pm   Friday 10:00 am - 8:00 pm   Saturday 9:00 am - 6:00 pm   Sunday 11:00 am - 5:00 pm","latitude":"43.912462","longitude":"-79.446867"},{"source":"yellow page","service_name":"Unique Nails And Spa","category":"manicure and pedicure","phone":"905-770-6937","address":"10 Headdon Gate, Richmond Hill, ON L4C 8A3","postalcode":"L4C 8A3","website":" ","working_hour":"Monday 10:00 am - 8:00 pm   Tuesday 10:00 am - 8:00 pm   Wednesday 10:00 am - 8:00 pm   Thursday 10:00 am - 8:00 pm   Friday 10:00 am - 8:00 pm   Saturday 10:00 am - 8:00 pm   Sunday 10:00 am - 5:00 pm","latitude":"43.867382","longitude":"-79.4579"},{"source":"yellow page","service_name":"Nails To Go And Spa","category":"manicure and pedicure","phone":"9054179799","address":"9330 Bathurst St, Maple, ON L6A 4N9","postalcode":"L6A 4N9","website":"http://www.nailstogo.ca","working_hour":"Monday 9:00 am - 9:00 pm   Tuesday 9:00 am - 9:00 pm   Wednesday 9:00 am - 9:00 pm   Thursday 9:00 am - 9:00 pm   Friday 9:00 am - 9:00 pm   Saturday 9:00 am - 6:30 pm   Sunday 9:00 am - 6:30 pm","latitude":"43.848524","longitude":"-79.4588777"},