{"table":[{"source":"yellow page","service_name":"Drake International","category":"professional designation tutoring","phone":"613-938-4777","address":"226 Pitt St, Cornwall, ON K6J 3P6","postalcode":"K6J 3P6","website":" ","working_hour":"","latitude":"45.018992","longitude":"-74.728996"},{"source":"yellow page","service_name":"Tarle & McAllister Appraisals Inc","category":"professional designation tutoring","phone":"613-937-4912","address":"1664 Birmingham St, Cornwall, ON K6H 3N2","postalcode":"K6H 3N2","website":" ","working_hour":"Monday 9:00 am - 5:00 pm   Tuesday 9:00 am - 5:00 pm   Wednesday 9:00 am - 5:00 pm   Thursday 9:00 am - 5:00 pm   Friday 9:00 am - 5:00 pm","latitude":"45.041325","longitude":"-74.744856"},{"source":"yellow page","service_name":"Glengarry Funeral Home Ltd","category":"professional designation tutoring","phone":"6135253400","address":"580 Alexandria Main S, Alexandria, ON K0C 1A0","postalcode":"K0C 1A0","website":"http://www.glengarryfuneralhome.com","working_hour":"Monday 12:00 am - 11:59 pm   Tuesday 12:00 am - 11:59 pm   Wednesday 12:00 am - 11:59 pm   Thursday 12:00 am - 11:59 pm   Friday 12:00 am - 11:59 pm   Saturday 12:00 am - 11:59 pm   Sunday 12:00 am - 11:59 pm","latitude":"45.356868","longitude":"-74.605001"},{"source":"yellow page","service_name":"Enns MacEachern Pace Maloney & Associates Inc","category":"professional designation tutoring","phone":"613-209-3234","address":"10-850 Boundary Rd, Cornwall, ON K6H 5R5","postalcode":"K6H 5R5","website":" ","working_hour":"Monday 9:00 am - 5:00 pm   Tuesday 9:00 am - 5:00 pm   Wednesday 9:00 am - 5:00 pm   Thursday 9:00 am - 5:00 pm   Friday 9:00 am - 5:00 pm","latitude":"45.048742","longitude":"-74.678681"},{"source":"yellow page","service_name":"Conference Board Of Canada","category":"professional designation tutoring","phone":"6135263280","address":"255 Smyth Rd, Ottawa, ON K1H 8M7","postalcode":"K1H 8M7","website":"http://www.conferenceboard.ca","working_hour":"","latitude":"45.398551","longitude":"-75.660415"},{"source":"yellow page","service_name":"Fire-Alert Mobile Extinguishers","category":"professional designation tutoring","phone":"613-590-9352","address":"12-3809 St Joseph Blvd, Orléans, ON K4A 0Z8","postalcode":"K4A 0Z8","website":" ","working_hour":"Monday 8:00 am - 4:30 pm   Tuesday 8:00 am - 5:30 pm   Wednesday 8:00 am - 5:30 pm   Thursday 8:00 am - 5:30 pm   Friday 8:00 am - 4:30 pm","latitude":"45.488827","longitude":"-75.478683"},{"source":"yellow page","service_name":"FITT - Forum for International Trade Training Inc","category":"professional designation tutoring","phone":"613-230-3553","address":"100-116 Lisgar St, Ottawa, ON K2P 0C2","postalcode":"K2P 0C2","website":"http://www.fitt.ca","working_hour":"","latitude":"45.419584","longitude":"-75.690544"},{"source":"yellow page","service_name":"Fire Alert Mobile Extinguishers","category":"professional designation tutoring","phone":"6137618328","address":"2-3791 St-Joseph, Orleans, ON K1C 1T1","postalcode":"K1C 1T1","website":"http://www.fire-alert.ca/index.php/en/","working_hour":"Monday 8:00 am - 4:30 pm   Tuesday 8:00 am - 5:30 pm   Wednesday 8:00 am - 5:30 pm   Thursday 8:00 am - 5:30 pm   Friday 8:00 am - 4:30 pm","latitude":"45.481587","longitude":"-75.506346"},{"source":"yellow page","service_name":"Appraisal Institute Of Canada","category":"professional designation tutoring","phone":"613-234-6533","address":"200 Catherine St, Ottawa, ON K2P 2K9","postalcode":"K2P 2K9","website":"http://www.aicanada.ca","working_hour":"","latitude":"45.409805","longitude":"-75.691319"},{"source":"yellow page","service_name":"Canadian Council of Technicians and Technologists","category":"professional designation tutoring","phone":"613-238-8123","address":"2197 Riverside Dr, Ottawa, ON K1H 7X3","postalcode":"K1H 7X3","website":"http://www.cctt.ca","working_hour":"","latitude":"45.389054","longitude":"-75.67546"},{"source":"yellow page","service_name":"Drake International","category":"professional designation tutoring","phone":"613-237-3370","address":"1900 Merivale Rd, Nepean, ON K2G 4N4","postalcode":"K2G 4N4","website":" ","working_hour":"","latitude":"45.330446","longitude":"-75.7217"},{"source":"yellow page","service_name":"Yoga And Wellness Studio","category":"professional designation tutoring","phone":"6132833443","address":"42 William St W, Smiths Falls, ON K7A 1N3","postalcode":"K7A 1N3","website":" ","working_hour":"","latitude":"44.900226","longitude":"-76.025088"},{"source":"yellow page","service_name":"Drake International","category":"professional designation tutoring","phone":"6135423790","address":"370 King St E, Kingston, ON K7K 2Y2","postalcode":"K7K 2Y2","website":" ","working_hour":"","latitude":"44.2314451","longitude":"-76.4809018"},{"source":"yellow page","service_name":"The Mortgage Professionals","category":"professional designation tutoring","phone":"6133821216","address":"77 Pine St, Gananoque, ON K7G 2W3","postalcode":"K7G 2W3","website":" ","working_hour":"","latitude":"44.328613","longitude":"-76.162153"},{"source":"yellow page","service_name":"Drake International","category":"professional designation tutoring","phone":"613-342-2653","address":"102 King Street West, Brockville, ON K6V 3P9","postalcode":"K6V 3P9","website":" ","working_hour":"","latitude":"44.588896","longitude":"-75.685435"},{"source":"yellow page","service_name":"The Mortgage Professionals","category":"professional designation tutoring","phone":"6133823800","address":"3-650 Charles St N, Gananoque, ON K7G 2W5","postalcode":"K7G 2W5","website":" ","working_hour":"Monday 9:00 am - 8:00 pm   Tuesday 9:00 am - 8:00 pm   Wednesday 9:00 am - 8:00 pm   Thursday 9:00 am - 8:00 pm   Friday 9:00 am - 8:00 pm   Saturday 9:00 am - 6:00 pm   Sunday 10:00 am - 5:00 pm","latitude":"44.338266","longitude":"-76.167042"},{"source":"yellow page","service_name":"The Mortgage Professionals","category":"professional designation tutoring","phone":"6133827239","address":"389 King St E, Gananoque, ON","postalcode":"","website":" ","working_hour":"","latitude":"44.332885","longitude":"-76.157322"},{"source":"yellow page","service_name":"Wills Transfer Ltd","category":"professional designation tutoring","phone":"613-283-0225","address":"146 Highway 15, Smiths Falls, ON K7A 4T2","postalcode":"K7A 4T2","website":"http://www.willstransfer.com","working_hour":"Monday 8:00 am - 5:00 pm   Tuesday 8:00 am - 5:00 pm   Wednesday 8:00 am - 5:00 pm   Thursday 8:00 am - 5:00 pm   Friday 8:00 am - 5:00 pm","latitude":"44.888863","longitude":"-76.033104"},{"source":"yellow page","service_name":"The Mortgage Professionals","category":"professional designation tutoring","phone":"613-546-2989","address":"261 Ontario St, Kingston, ON K7K 2X5","postalcode":"K7K 2X5","website":" ","working_hour":"","latitude":"44.231391","longitude":"-76.479329"},{"source":"yellow page","service_name":"Capital Benefit Financial Group Inc","category":"professional designation tutoring","phone":"613-725-2128","address":"103-5335 Canotek Rd, Gloucester, ON K1J 9L4","postalcode":"K1J 9L4","website":"http://www.capitalbenefit.ca","working_hour":"","latitude":"45.453439","longitude":"-75.585496"},{"source":"yellow page","service_name":"Menard Mario P Professional Photographer","category":"professional designation tutoring","phone":"613-866-7548","address":"1856 Cloverlawn Cres, Gloucester, ON K1J 6V2","postalcode":"K1J 6V2","website":" ","working_hour":"","latitude":"45.439555","longitude":"-75.601919"},{"source":"yellow page","service_name":"Phoenix OHC Inc","category":"professional designation tutoring","phone":"613-544-4046","address":"847 Princess St, Kingston, ON K7L 1G7","postalcode":"K7L 1G7","website":"http://www.phoenix-ohc.ca","working_hour":"","latitude":"44.240565","longitude":"-76.5100447"},{"source":"yellow page","service_name":"RE/MAX Pembroke Realty Ltd","category":"professional designation tutoring","phone":"613-732-2895","address":"","postalcode":"","website":"http://remax.ca","working_hour":"Monday 9:00 am - 5:00 pm   Tuesday 9:00 am - 5:00 pm   Wednesday 9:00 am - 5:00 pm   Thursday 9:00 am - 5:00 pm   Friday 9:00 am - 5:00 pm   Appointments Are Available After Hours","latitude":"","longitude":""},{"source":"yellow page","service_name":"North Renfrew Times","category":"professional designation tutoring","phone":"6135844161","address":"21 Champlain, Deep River, ON K0J 1P0","postalcode":"K0J 1P0","website":"http://www.northrenfrewtimes.com/","working_hour":"Monday 9:00 am - 5:00 pm   Tuesday 9:00 am - 5:00 pm   Wednesday 9:00 am - 5:00 pm   Thursday 9:00 am - 5:00 pm   Friday 9:00 am - 5:00 pm","latitude":"46.101139","longitude":"-77.488191"},{"source":"yellow page","service_name":"Century 21 Lanthorn Real Estate Ltd","category":"professional designation tutoring","phone":"6134762100","address":"102 Picton Main, Picton, ON K0K 2T0","postalcode":"K0K 2T0","website":"http://pictonrealestateinfo.com","working_hour":"","latitude":"44.005135","longitude":"-77.1462874"},{"source":"yellow page","service_name":"Drake International","category":"professional designation tutoring","phone":"613-966-7283","address":"4A-170 North Front Street, Belleville, ON K8P 3B8","postalcode":"K8P 3B8","website":" ","working_hour":"","latitude":"44.1776861","longitude":"-77.391146"},{"source":"yellow page","service_name":"Vanecko Business Communications","category":"professional designation tutoring","phone":"7057430058","address":"547 Crystal Drive, Peterborough, ON K9J 8H7","postalcode":"K9J 8H7","website":" ","working_hour":"Monday 9:00 am - 5:00 pm   Tuesday 9:00 am - 5:00 pm   Wednesday 9:00 am - 5:00 pm   Thursday 9:00 am - 5:00 pm   Friday 9:00 am - 5:00 pm   Appointment Only","latitude":"44.280636","longitude":"-78.298419"},{"source":"yellow page","service_name":"Sutton Group Kawartha Lakes Realty Inc","category":"professional designation tutoring","phone":"7054541239","address":"39 Hoskin, Coboconk, ON K0M 2L0","postalcode":"K0M 2L0","website":"http://kawartha.sutton.com","working_hour":"","latitude":"44.699423","longitude":"-78.874428"},{"source":"yellow page","service_name":"Financial Management Institute Of Canada (FMI IGF)","category":"professional designation tutoring","phone":"613-569-1158","address":"309 Cooper St, Ottawa, ON K2P 0G5","postalcode":"K2P 0G5","website":" ","working_hour":"","latitude":"45.417311","longitude":"-75.693886"},{"source":"yellow page","service_name":"Kelly Santini Management","category":"professional designation tutoring","phone":"6132386321","address":"2401-160 Elgin St, Ottawa, ON K2P 2P7","postalcode":"K2P 2P7","website":"http://www.kellysantini.com","working_hour":"Monday 8:30 am - 5:30 pm   Tuesday 8:30 am - 5:30 pm   Wednesday 8:30 am - 5:30 pm   Thursday 8:30 am - 5:30 pm   Friday 8:30 am - 5:30 pm","latitude":"45.420085","longitude":"-75.692342"},{"source":"yellow page","service_name":"Vendange Institute","category":"professional designation tutoring","phone":"6135627840","address":"108-440 Albert St, Ottawa, ON K1R 5B5","postalcode":"K1R 5B5","website":" ","working_hour":"","latitude":"45.41712","longitude":"-75.706786"},{"source":"yellow page","service_name":"Association des traducteurs et interprètes de l'Ontario (ATIO)","category":"professional designation tutoring","phone":"613-241-2846","address":"1202-1 Nicholas St, Ottawa, ON K1N 7B7","postalcode":"K1N 7B7","website":"http://www.atio.on.ca","working_hour":"Monday 9:00 am - 5:00 pm   Tuesday 9:00 am - 5:00 pm   Wednesday 9:00 am - 5:00 pm   Thursday 9:00 am - 5:00 pm   Friday 9:00 am - 5:00 pm","latitude":"45.4266955","longitude":"-75.6904893"},{"source":"yellow page","service_name":"The Attain Group","category":"professional designation tutoring","phone":"613-739-9424","address":"208-1680 Woodward Dr, Ottawa, ON K2C 3R7","postalcode":"K2C 3R7","website":" ","working_hour":"","latitude":"45.3729754","longitude":"-75.74931"},{"source":"yellow page","service_name":"Manderley Turf","category":"professional designation tutoring","phone":"613-736-9393","address":"17269 Lafleche Rd, Ottawa, ON K2C 1W0","postalcode":"K2C 1W0","website":" ","working_hour":"","latitude":"","longitude":""},{"source":"yellow page","service_name":"Bronson Consulting","category":"professional designation tutoring","phone":"613-787-2000","address":"","postalcode":"","website":"http://bronson.ca","working_hour":"","latitude":"","longitude":""},{"source":"yellow page","service_name":"Anderson R V Associates Limited","category":"professional designation tutoring","phone":"613-226-1844","address":"1750 Courtwood Cres, Ottawa, ON K2C 2B5","postalcode":"K2C 2B5","website":"http://www.rvanderson.com","working_hour":"","latitude":"45.37137","longitude":"-75.749608"},{"source":"yellow page","service_name":"Murray Charles B Dr","category":"professional designation tutoring","phone":"613-820-3000","address":"2039 Robertson Rd, Bells Corners, ON K2H 8R2","postalcode":"K2H 8R2","website":" ","working_hour":"","latitude":"45.320418","longitude":"-75.837011"},{"source":"yellow page","service_name":"First Nations Health Managers Association","category":"professional designation tutoring","phone":"613-599-6070","address":"202-300 March Rd, Kanata, ON K2K 2E2","postalcode":"K2K 2E2","website":" ","working_hour":"","latitude":"45.335087","longitude":"-75.906942"},{"source":"yellow page","service_name":"McIntyre & Associates","category":"professional designation tutoring","phone":"613-726-7788","address":"202-900 Morrison Dr, Ottawa, ON K2H 8K7","postalcode":"K2H 8K7","website":" ","working_hour":"Monday 8:30 am - 4:30 pm   Tuesday 8:30 am - 4:30 pm   Wednesday 8:30 am - 4:30 pm   Thursday 8:30 am - 4:30 pm   Friday 8:30 am - 4:30 pm","latitude":"45.345897","longitude":"-75.789096"},{"source":"yellow page","service_name":"MacDonald Brian J Dr","category":"professional designation tutoring","phone":"613-820-3000","address":"2039 Robertson Rd, Bells Corners, ON K2H 8R2","postalcode":"K2H 8R2","website":" ","working_hour":"","latitude":"45.320418","longitude":"-75.837011"},{"source":"yellow page","service_name":"ICSA Canada","category":"professional designation tutoring","phone":"613-595-1151","address":"300 March Rd, Kanata, ON K2K 2E2","postalcode":"K2K 2E2","website":"http://www.icsacanada.org","working_hour":"","latitude":"45.335087","longitude":"-75.906942"},{"source":"yellow page","service_name":"Supply Chain Management","category":"professional designation tutoring","phone":"6133941311","address":"178 Stockdale Rd, Trenton, ON K8V 5P6","postalcode":"K8V 5P6","website":"http://scmanational.ca","working_hour":"","latitude":"44.1246407","longitude":"-77.6013446"},{"source":"yellow page","service_name":"Curry Financial Services","category":"professional designation tutoring","phone":"705-749-1131","address":"A 223 Aylmer N, Indian River, ON K9J 3K3","postalcode":"K9J 3K3","website":"http://www.curryfinancial.ca","working_hour":"Monday 9:00 am - 4:30 pm   Tuesday 9:00 am - 4:30 pm   Wednesday 9:00 am - 4:30 pm   Thursday 9:00 am - 4:30 pm   Friday 9:00 am - 4:30 pm","latitude":"44.299893","longitude":"-78.323017"},{"source":"yellow page","service_name":"Devere-Bennett Nick CLU TEP","category":"professional designation tutoring","phone":"705-748-6604","address":"ON","postalcode":"","website":"http://nickdeverebennett.com","working_hour":"","latitude":"","longitude":""},{"source":"yellow page","service_name":"Kelly Olsen","category":"professional designation tutoring","phone":"9052595127","address":"278 Union Ave, Prince Albert, ON L9L 1C2","postalcode":"L9L 1C2","website":"http://mortgageintelligence.ca/brokers/Kelly-Olsen","working_hour":"Monday 8:00 am - 10:00 pm   Tuesday 8:00 am - 10:00 pm   Wednesday 8:00 am - 10:00 pm   Thursday 8:00 am - 10:00 pm   Friday 8:00 am - 10:00 pm   Saturday 8:00 am - 10:00 pm   Sunday 8:00 am - 10:00 pm","latitude":"44.085832","longitude":"-78.95075"},{"source":"yellow page","service_name":"Drake International","category":"professional designation tutoring","phone":"2893160591","address":"105 Consumers Dr, Whitby, ON L1N 1C4","postalcode":"L1N 1C4","website":" ","working_hour":"","latitude":"43.869648","longitude":"-78.918823"},{"source":"yellow page","service_name":"Toryntek","category":"professional designation tutoring","phone":"905-989-2700","address":"213 The Queensway S, Keswick, ON L4P 2A7","postalcode":"L4P 2A7","website":"http://www.toryntek.ca","working_hour":"","latitude":"44.229375","longitude":"-79.465302"},{"source":"yellow page","service_name":"Whispering Pines","category":"professional designation tutoring","phone":"705-329-3454","address":"261 Millard St, Orillia, ON L3V 4H2","postalcode":"L3V 4H2","website":"http://mmcorp.ca","working_hour":"","latitude":"44.604881","longitude":"-79.405578"},{"source":"yellow page","service_name":"Sarah Brown Chartered Professional Accountant","category":"professional designation tutoring","phone":"905-231-3355","address":"173 Brock St N, Whitby, ON L1N 4H3","postalcode":"L1N 4H3","website":" ","working_hour":"","latitude":"43.8812521","longitude":"-78.9426481"},{"source":"yellow page","service_name":"AC Technical Systems Inc","category":"professional designation tutoring","phone":"9054348224","address":"2100 Forbes St, Whitby, ON L1N 9T3","postalcode":"L1N 9T3","website":" ","working_hour":"","latitude":"43.859357","longitude":"-78.893817"},{"source":"yellow page","service_name":"RK Fischer and Associates","category":"professional designation tutoring","phone":"2892781970","address":"204-101 Dundas St W, Whitby, ON L1N 2M2","postalcode":"L1N 2M2","website":" ","working_hour":"Monday 8:00 am - 6:00 pm   Tuesday 8:00 am - 6:00 pm   Wednesday 8:00 am - 6:00 pm   Thursday 8:00 am - 6:00 pm   Friday 8:00 am - 6:00 pm","latitude":"43.87977","longitude":"-78.942541"},{"source":"yellow page","service_name":"Risen Inch And Fraser","category":"professional designation tutoring","phone":"289-274-0890","address":"1C-57 Simcoe St S, Oshawa, ON L1H 4G4","postalcode":"L1H 4G4","website":"http://www.riseninchfraser.com","working_hour":"24 hours a day - 7 days a week","latitude":"43.895915","longitude":"-78.862867"},{"source":"yellow page","service_name":"Brilliam Academy","category":"professional designation tutoring","phone":"9055561338","address":"Whitby, ON","postalcode":"","website":" ","working_hour":"","latitude":"","longitude":""},{"source":"yellow page","service_name":"Dr Barbara Landau","category":"professional designation tutoring","phone":"416-391-3110","address":"76 Truman Rd, North York, ON M2L 2L6","postalcode":"M2L 2L6","website":"http://www.coop-solutions.ca","working_hour":"Monday 9:30 am - 4:30 pm   Tuesday 9:30 am - 4:30 pm   Wednesday 9:30 am - 4:30 pm   Thursday 9:30 am - 4:30 pm","latitude":"43.761518","longitude":"-79.381198"},{"source":"yellow page","service_name":"Ritchie Lisa CGA","category":"professional designation tutoring","phone":"905-862-4166","address":"ON","postalcode":"","website":"http://lisaritchie.ca","working_hour":"","latitude":"","longitude":""},{"source":"yellow page","service_name":"Worldwide Canadian Management Consultants Inc","category":"professional designation tutoring","phone":"905-686-0469","address":"PO Box 639 Stn Main, Pickering, ON L1V 3T3","postalcode":"L1V 3T3","website":"http://cmc-canada.ca","working_hour":"","latitude":"43.835023","longitude":"-79.103116"},{"source":"yellow page","service_name":"Canadian Business Health Management Inc","category":"professional designation tutoring","phone":"705-325-0006","address":"75 Mississaga St W, Orillia, ON L3V 3A7","postalcode":"L3V 3A7","website":"http://www.yoursafetyexperts.com/","working_hour":"Monday 9:00 am - 5:00 pm   Tuesday 9:00 am - 5:00 pm   Wednesday 9:00 am - 5:00 pm   Thursday 9:00 am - 5:00 pm   Friday 9:00 am - 5:00 pm","latitude":"44.607292","longitude":"-79.421977"},{"source":"yellow page","service_name":"Creative Journeys","category":"professional designation tutoring","phone":"705-770-9647","address":"4-72 Ross St, Barrie, ON L4N 1G3","postalcode":"L4N 1G3","website":"http://creativejourneys.co.nz","working_hour":"","latitude":"44.390811","longitude":"-79.6976884"},{"source":"yellow page","service_name":"Chaggares & Bonhomme","category":"professional designation tutoring","phone":"905-895-9922","address":"355 Harry Walker Pky N, Newmarket, ON L3Y 7B3","postalcode":"L3Y 7B3","website":"http://www.cb-ca.ca","working_hour":"","latitude":"44.0788673","longitude":"-79.4265597"},{"source":"yellow page","service_name":"The Growth Group","category":"professional designation tutoring","phone":"705-728-6918","address":"10-72 Ross St, Barrie, ON L4N 1G3","postalcode":"L4N 1G3","website":"http://www.thegrowthgroup.ca","working_hour":"Monday 7:00 am - 7:30 pm   Tuesday 7:00 am - 7:30 pm   Wednesday 7:00 am - 7:30 pm   Thursday 7:00 am - 7:30 pm   Friday 7:00 am - 7:30 pm   Saturday 8:30 am - 1:00 pm   Sunday 8:30 am - 1:00 pm","latitude":"44.390811","longitude":"-79.6976884"},{"source":"yellow page","service_name":"Brainmass Inc","category":"professional designation tutoring","phone":"905-967-0866","address":"76 Prospect St, Newmarket, ON L3Y 3T2","postalcode":"L3Y 3T2","website":"http://www.brainmass.com","working_hour":"","latitude":"44.057991","longitude":"-79.453594"},{"source":"yellow page","service_name":"Kode Garment","category":"professional designation tutoring","phone":"905-235-9444","address":"17-320 Harry Walker Pky N, Newmarket, ON L3Y 7B4","postalcode":"L3Y 7B4","website":" ","working_hour":"Monday 10:00 am - 5:00 pm   Tuesday 10:00 am - 5:00 pm   Wednesday 10:00 am - 5:00 pm   Thursday 10:00 am - 5:00 pm   Friday 10:00 am - 5:00 pm","latitude":"44.0781418","longitude":"-79.4263575"},{"source":"yellow page","service_name":"Canadian Institute Of Management","category":"professional designation tutoring","phone":"705-725-8926","address":"80 Bradford St, Barrie, ON L4N 6S7","postalcode":"L4N 6S7","website":"http://cim.ca","working_hour":"Monday 9:00 am - 5:00 pm   Tuesday 9:00 am - 5:00 pm   Wednesday 9:00 am - 5:00 pm   Thursday 9:00 am - 5:00 pm   Friday 9:00 am - 5:00 pm","latitude":"44.3836321","longitude":"-79.6938251"},{"source":"yellow page","service_name":"Dr Muyal & Associates Dentistry","category":"professional designation tutoring","phone":"2898070716","address":"209-7368 Yonge St, Thornhill, ON L4J 8H9","postalcode":"L4J 8H9","website":"http://www.muyaldentistry.ca/","working_hour":"","latitude":"43.807672","longitude":"-79.422596"},{"source":"yellow page","service_name":"Façade Academy","category":"professional designation tutoring","phone":"647-558-0236","address":"93-3570 Rutherford Rd, Woodbridge, ON L4H 3T8","postalcode":"L4H 3T8","website":" ","working_hour":"Monday 12:00 pm - 10:00 pm   Tuesday 12:00 pm - 8:00 pm   Wednesday 12:00 pm - 8:00 pm   Thursday 12:00 pm - 8:00 pm   Friday By Appointment Only","latitude":"43.8268063","longitude":"-79.5523155"},{"source":"yellow page","service_name":"Mark Feighenbaum","category":"professional designation tutoring","phone":"9056950869","address":"1137 Centre St, Thornhill, ON L4J 3M6","postalcode":"L4J 3M6","website":"http://www.feigenbaumlaw.com","working_hour":"","latitude":"43.80818","longitude":"-79.462739"},{"source":"yellow page","service_name":"Paramedic Rehabilitation Clinic Inc","category":"professional designation tutoring","phone":"9057620561","address":"7368 Yonge St, Vaughan, ON L4J 8H9","postalcode":"L4J 8H9","website":"http://www.ric.org","working_hour":"Monday 7:00 am - 5:00 pm   Tuesday 7:00 am - 5:00 pm   Wednesday 7:00 am - 5:00 pm   Thursday 7:00 am - 5:00 pm   Friday 7:00 am - 5:00 pm   Saturday 7:30 am - 6:30 pm   Sunday 7:30 am - 6:30 pm","latitude":"43.807672","longitude":"-79.422596"},{"source":"yellow page","service_name":"High Performance Glazing Inc","category":"professional designation tutoring","phone":"9054822144","address":"177 Drumlin, Concord, ON L4K 3E7","postalcode":"L4K 3E7","website":" ","working_hour":"","latitude":"43.785847","longitude":"-79.488055"},{"source":"yellow page","service_name":"DelZotto Zorzi LLP","category":"professional designation tutoring","phone":"4166655555","address":"4810D Dufferin St, North York, ON M3H 5S8","postalcode":"M3H 5S8","website":" ","working_hour":"","latitude":"43.779015","longitude":"-79.469353"},{"source":"yellow page","service_name":"Dynamic Dialogues","category":"professional designation tutoring","phone":"416-628-5590","address":"500-5000 Yonge St, North York, ON M2N 7J8","postalcode":"M2N 7J8","website":" ","working_hour":"Monday 8:30 am - 5:00 pm   Tuesday 8:30 am - 5:00 pm   Wednesday 8:30 am - 5:00 pm   Thursday 8:30 am - 5:00 pm   Friday 8:30 am - 5:00 pm","latitude":"43.766079","longitude":"-79.412147"},{"source":"yellow page","service_name":"Muyal Jamie Dr","category":"professional designation tutoring","phone":"9058892727","address":"7368 Yonge St, Thornhill, ON L4J 8H9","postalcode":"L4J 8H9","website":"http://www.muyaldentistry.ca","working_hour":"Monday 10:00 am - 7:00 pm   Tuesday 10:00 am - 7:00 pm   Wednesday 10:00 am - 7:00 pm   Thursday 10:00 am - 7:00 pm   Friday 10:00 am - 7:00 pm","latitude":"43.807672","longitude":"-79.422596"},{"source":"yellow page","service_name":"Cooper & Co Ltd","category":"professional designation tutoring","phone":"416-665-3383","address":"108-1120 Finch Ave W, North York, ON M3J 3H7","postalcode":"M3J 3H7","website":"http://www.coopertrustee.ca/","working_hour":"Monday 9:00 am - 5:00 pm   Tuesday 9:00 am - 5:00 pm   Wednesday 9:00 am - 5:00 pm   Thursday 9:00 am - 5:00 pm   Friday 9:00 am - 5:00 pm","latitude":"43.766986","longitude":"-79.475199"},{"source":"yellow page","service_name":"Ontario Society Of Professional Engineers","category":"professional designation tutoring","phone":"416-223-9961","address":"4950 Yonge St, North York, ON M2N 6K1","postalcode":"M2N 6K1","website":"http://www.ospe.on.ca","working_hour":"","latitude":"43.764949","longitude":"-79.411866"},{"source":"yellow page","service_name":"Incompro Ltd","category":"professional designation tutoring","phone":"905-850-5500","address":"7050 Weston Rd, Woodbridge, ON L4L 8G7","postalcode":"L4L 8G7","website":"http://www.tonydicarlo.com","working_hour":"","latitude":"43.772472","longitude":"-79.545147"},{"source":"yellow page","service_name":"Learning Disabilities","category":"professional designation tutoring","phone":"4162245150","address":"121 Willowdale Ave, North York, ON M2N 6A3","postalcode":"M2N 6A3","website":" ","working_hour":"","latitude":"43.765056","longitude":"-79.400126"},{"source":"yellow page","service_name":"Tim Moore Associates-ers","category":"professional designation tutoring","phone":"905-201-6515","address":"6021 Yonge St, North York, ON M2M 3W2","postalcode":"M2M 3W2","website":"http://www.timmooreassociates.com","working_hour":"Monday 8:00 am - 9:00 pm   Tuesday 8:00 am - 9:00 pm   Wednesday 8:00 am - 9:00 pm   Thursday 8:00 am - 9:00 pm   Friday 8:00 am - 9:00 pm","latitude":"43.7893847","longitude":"-79.4178891"},{"source":"yellow page","service_name":"Cardiac Health Foundation Of Canada","category":"professional designation tutoring","phone":"416-730-8299","address":"901 Lawrence Ave W, North York, ON M6A 1C3","postalcode":"M6A 1C3","website":" ","working_hour":"Monday 9:00 am - 4:30 pm   Tuesday 9:00 am - 4:30 pm   Wednesday 9:00 am - 4:30 pm   Thursday 9:00 am - 4:30 pm   Friday 9:00 am - 4:30 pm","latitude":"43.713625","longitude":"-79.456997"},{"source":"yellow page","service_name":"Olmsted Physiotherapy","category":"professional designation tutoring","phone":"4165752020","address":"526 6-14845 Yonge, Aurora, ON L4G 6H8","postalcode":"L4G 6H8","website":" ","working_hour":"Monday 7:00 am - 7:00 pm   Tuesday 7:00 am - 7:00 pm   Thursday 7:00 am - 7:00 pm   Friday 7:00 am - 7:00 pm","latitude":"43.989832","longitude":"-79.465033"},{"source":"yellow page","service_name":"Counselling Services for York Region","category":"professional designation tutoring","phone":"416-999-3437","address":"7845 Kipling Ave, Woodbridge, ON L4L 1Z4","postalcode":"L4L 1Z4","website":" ","working_hour":"Monday 9:00 am - 7:00 pm   Tuesday 9:00 am - 7:00 pm   Wednesday 9:00 am - 9:00 pm   Thursday 9:00 am - 7:00 pm   Friday 9:00 am - 7:00 pm   Saturday 9:00 am - 5:00 pm   Sunday 9:00 am - 3:00 pm","latitude":"43.781057","longitude":"-79.597824"},{"source":"yellow page","service_name":"Toryntek Computer Sales and Repair","category":"professional designation tutoring","phone":"289-579-2700","address":"","postalcode":"","website":"http://www.toryntek.ca","working_hour":"","latitude":"","longitude":""},{"source":"yellow page","service_name":"Chaggares & Bonhomme","category":"professional designation tutoring","phone":"289-803-1871","address":"ON","postalcode":"","website":" ","working_hour":"","latitude":"","longitude":""},{"source":"yellow page","service_name":"Simpson T Roofing","category":"professional designation tutoring","phone":"289-319-0761","address":"","postalcode":"","website":" ","working_hour":"Monday 8:30 am - 5:00 pm   Tuesday 8:30 am - 5:00 pm   Wednesday 8:30 am - 5:00 pm   Thursday 8:30 am - 5:00 pm   Friday 8:30 am - 5:00 pm   Free Estimates","latitude":"","longitude":""},{"source":"yellow page","service_name":"Step Canada Society Of Trust And Estate Practitioners","category":"professional designation tutoring","phone":"416-491-4949","address":"45 Sheppard Ave E, North York, ON M2N 5W9","postalcode":"M2N 5W9","website":"http://www.step.ca","working_hour":"","latitude":"43.7622771","longitude":"-79.4075386"},{"source":"yellow page","service_name":"Barbara C Hughes & Associates Appraisal ServicesLtd","category":"professional designation tutoring","phone":"705-417-0369","address":"PO Box 7107, Innisfil, ON L9S 1A9","postalcode":"L9S 1A9","website":"http://www.bchughes.com","working_hour":"Monday 9:00 am - 5:00 pm   Tuesday 9:00 am - 5:00 pm   Wednesday 9:00 am - 5:00 pm   Thursday 9:00 am - 5:00 pm   Friday 9:00 am - 5:00 pm","latitude":"","longitude":""},{"source":"yellow page","service_name":"Training Business Leaders","category":"professional designation tutoring","phone":"705-345-0200","address":"ON","postalcode":"","website":"http://trainingbusinessleaders.com","working_hour":"","latitude":"","longitude":""},{"source":"yellow page","service_name":"Interior Lifestyles","category":"professional designation tutoring","phone":"705-487-0146","address":"ON","postalcode":"","website":"http://www.interiorlifestyles.ca","working_hour":"","latitude":"","longitude":""},{"source":"yellow page","service_name":"Integra Graphic Designs","category":"professional designation tutoring","phone":"705-725-1247","address":"","postalcode":"","website":"http://integradesigns.com","working_hour":"","latitude":"","longitude":""},{"source":"yellow page","service_name":"The Reading Network","category":"professional designation tutoring","phone":"519-855-1345","address":"ON","postalcode":"","website":" ","working_hour":"","latitude":"","longitude":""},{"source":"yellow page","service_name":"Assurance Appraisals","category":"professional designation tutoring","phone":"416-471-0176","address":"13035 Yonge St, Richmond Hill, ON L4E 1A7","postalcode":"L4E 1A7","website":"http://www.assuranceappraisals.com","working_hour":"Monday 9:00 am - 5:00 pm   Tuesday 9:00 am - 5:00 pm   Wednesday 9:00 am - 5:00 pm   Thursday 9:00 am - 5:00 pm   Friday 9:00 am - 5:00 pm   Saturday 9:00 am - 5:00 pm   Sunday 10:00 am - 4:00 pm","latitude":"43.945391","longitude":"-79.454872"},{"source":"yellow page","service_name":"Canadian Diabetes Educator Certification Board","category":"professional designation tutoring","phone":"9058385863","address":"2878 King, Victoria Harbour, ON","postalcode":"","website":"http://www.cdecb.ca/","working_hour":"","latitude":"43.651893","longitude":"-79.381713"},{"source":"yellow page","service_name":"Blake Matlock and Marshal Ltd","category":"professional designation tutoring","phone":"519-940-0900","address":"106-75 First St, Orangeville, ON L9W 2E7","postalcode":"L9W 2E7","website":"http://www.blakematlockandmarshal.com","working_hour":"Please Call For Details","latitude":"43.926944","longitude":"-80.099354"},{"source":"yellow page","service_name":"MacKay MacKay & Peters Limited","category":"professional designation tutoring","phone":"289-812-8274","address":"101-3380 South Service Rd, Burlington, ON L7N 3J5","postalcode":"L7N 3J5","website":" ","working_hour":"","latitude":"43.361806","longitude":"-79.792426"},{"source":"yellow page","service_name":"Conservation Halton","category":"professional designation tutoring","phone":"9056360859","address":"5437 Steeles Ave, Milton, ON L9T 2Y1","postalcode":"L9T 2Y1","website":" ","working_hour":"Monday 8:30 am - 4:30 pm   Tuesday 8:30 am - 4:30 pm   Wednesday 8:30 am - 4:30 pm   Thursday 8:30 am - 4:30 pm   Friday 8:30 am - 4:00 pm","latitude":"43.4982297","longitude":"-79.9198432"},{"source":"yellow page","service_name":"Green Benefits Group","category":"professional designation tutoring","phone":"905-635-9091","address":"3425 Harvester Rd, Burlington, ON L7N 3N1","postalcode":"L7N 3N1","website":" ","working_hour":"","latitude":"43.360132","longitude":"-79.788095"},{"source":"yellow page","service_name":"Aura Landscaping","category":"professional designation tutoring","phone":"9052283733","address":"18 Court St, St Catharines, ON L2R 4R4","postalcode":"L2R 4R4","website":"http://www.auralandscaping.com","working_hour":"","latitude":"43.161619","longitude":"-79.241543"},{"source":"yellow page","service_name":"Take Charge Financial Planning","category":"professional designation tutoring","phone":"905-340-7526","address":"201-3430 South Service Rd, Burlington, ON L7N 3T9","postalcode":"L7N 3T9","website":"http://www.takecharge.ca","working_hour":"Monday 9:00 am - 5:00 pm   Tuesday 9:00 am - 5:00 pm    7:00 pm - 9:00 pm   Wednesday 9:00 am - 5:00 pm   Thursday 9:00 am - 5:00 pm    7:00 pm - 9:00 pm   Friday 9:00 am - 5:00 pm   Saturday 10:00 am - 3:00 pm","latitude":"43.361866","longitude":"-79.788951"},{"source":"yellow page","service_name":"Talk Wireless Inc","category":"professional designation tutoring","phone":"9056808255","address":"216 Merritt St, St Catharines, ON L2T 1J6","postalcode":"L2T 1J6","website":"http://www.talkwireless.com","working_hour":"Monday 8:30 am - 5:00 pm   Tuesday 8:30 am - 5:00 pm   Wednesday 8:30 am - 5:00 pm   Thursday 8:30 am - 5:00 pm   Friday 8:30 am - 5:00 pm","latitude":"43.135487","longitude":"-79.210038"},{"source":"yellow page","service_name":"Goodman Brown Financial Ltd","category":"professional designation tutoring","phone":"9058922586","address":"2 Pelham Town Sq, Fonthill, ON L0S 1E3","postalcode":"L0S 1E3","website":"http://goodmanbrown.ca","working_hour":"","latitude":"43.050923","longitude":"-79.280266"},{"source":"yellow page","service_name":"Ransberry Photography","category":"professional designation tutoring","phone":"9056822400","address":"7 Cranbrook Terr, St Catharines, ON L2T 2A4","postalcode":"L2T 2A4","website":"http://www.ransberryphotography.com","working_hour":"","latitude":"43.127983","longitude":"-79.247465"},{"source":"yellow page","service_name":"Jacob Ellens & Associates","category":"professional designation tutoring","phone":"905-577-0403","address":"25 Main W, Hamilton, ON","postalcode":"","website":"http://www.ellens.ca","working_hour":"Monday 9:00 am - 5:00 pm   Tuesday 9:00 am - 5:00 pm   Wednesday 9:00 am - 5:00 pm   Thursday 9:00 am - 5:00 pm   Friday 9:00 am - 5:00 pm   Saturday 12:00 am - 12:00 am   Sunday 12:00 am - 12:00 am","latitude":"43.255659","longitude":"-79.870874"},{"source":"yellow page","service_name":"CSP International","category":"professional designation tutoring","phone":"905-984-6955","address":"36 Hiscott St, St Catharines, ON L2R 1C8","postalcode":"L2R 1C8","website":"http://www.stagingtraining.com","working_hour":"","latitude":"43.177925","longitude":"-79.264914"},{"source":"yellow page","service_name":"Urquhart Investigation & Forensic Accounting","category":"professional designation tutoring","phone":"905-688-9222","address":"St. Catharines, ON","postalcode":"","website":"http://urquhartforensics.com","working_hour":"","latitude":"","longitude":""},{"source":"yellow page","service_name":"Welcome Home Learning Centre","category":"professional designation tutoring","phone":"2892084985","address":"","postalcode":"","website":" ","working_hour":"","latitude":"","longitude":""},{"source":"yellow page","service_name":"Jennie Dignard Denturist","category":"professional designation tutoring","phone":"289-434-3911","address":"154 West Main St, Welland, ON L3C 5A2","postalcode":"L3C 5A2","website":" ","working_hour":"Monday 9:00 am - 4:00 pm   Tuesday 9:00 am - 4:00 pm   Wednesday 9:00 am - 4:00 pm   Thursday 9:00 am - 4:00 pm   Friday 9:00 am - 12:00 am   Emergency Appointments Available","latitude":"42.9911911","longitude":"-79.2557521"},{"source":"yellow page","service_name":"Bryan Caporicci Photography","category":"professional designation tutoring","phone":"2898979523","address":"25 Highway 20 E, Niagara Falls, ON L0S 1E0","postalcode":"L0S 1E0","website":" ","working_hour":"","latitude":"43.043298","longitude":"-79.28561"},{"source":"yellow page","service_name":"Teo Hair & Body Works","category":"professional designation tutoring","phone":"9053311002","address":"2465 Appleby Line, Burlington, ON L7L 0B6","postalcode":"L7L 0B6","website":"http://www.oakvilleliteracy.ca","working_hour":"Tuesday 10:00 am - 6:00 pm   Wednesday 10:00 am - 8:00 pm   Thursday 10:00 am - 8:00 pm   Friday 9:00 am - 7:00 pm   Saturday 8:00 am - 5:00 pm","latitude":"43.405232","longitude":"-79.806317"},{"source":"yellow page","service_name":"BDO Canada Limited","category":"professional designation tutoring","phone":"905-664-6370","address":"202-800 Queenston Rd, Stoney Creek, ON L8G 1A7","postalcode":"L8G 1A7","website":"http://www.perrykrieger.com","working_hour":"","latitude":"43.2279227","longitude":"-79.7637245"},{"source":"yellow page","service_name":"Stage A House Sell A Home By Tina","category":"professional designation tutoring","phone":"905-914-8462","address":"ON","postalcode":"","website":"http://stagedhomes.com","working_hour":"","latitude":"","longitude":""},{"source":"yellow page","service_name":"Canadian Council Of Professional Certification","category":"professional designation tutoring","phone":"4167244833","address":"1 Edenmills Dr, Scarborough, ON M1E 4L1","postalcode":"M1E 4L1","website":"http://ccpcglobal.com","working_hour":"","latitude":"43.79203","longitude":"-79.210049"},{"source":"yellow page","service_name":"Head Injury Assoc Of Fort Erie","category":"professional designation tutoring","phone":"905-871-7789","address":"649 Niagara Blvd, Fort Erie, ON L2A 3H7","postalcode":"L2A 3H7","website":" ","working_hour":"","latitude":"42.931474","longitude":"-78.914759"},{"source":"yellow page","service_name":"Appraisals Niagara Real Estate Appraisers Inc","category":"professional designation tutoring","phone":"905-357-7187","address":"5773 Depew Ave, Niagara Falls, ON L2G 5M2","postalcode":"L2G 5M2","website":"http://www.appraisalsniagara.com","working_hour":"Monday 9:00 am - 5:00 pm   Tuesday 9:00 am - 5:00 pm   Wednesday 9:00 am - 5:00 pm   Thursday 9:00 am - 5:00 pm   Friday 9:00 am - 5:00 pm   Call For Details","latitude":"43.090651","longitude":"-79.10917"},{"source":"yellow page","service_name":"Medical Ministry Canada Inc","category":"professional designation tutoring","phone":"905-664-0804","address":"455 Barton St, Stoney Creek, ON L8E 2L7","postalcode":"L8E 2L7","website":" ","working_hour":"Monday 9:00 am - 5:00 pm   Tuesday 9:00 am - 5:00 pm   Wednesday 9:00 am - 5:00 pm   Thursday 9:00 am - 5:00 pm   Friday 9:00 am - 5:00 pm","latitude":"43.226141","longitude":"-79.71551"},{"source":"yellow page","service_name":"Jacob Ellens & Associates Inc","category":"professional designation tutoring","phone":"226-400-6618","address":"25 Main St W, Hamilton, ON L8P 1H1","postalcode":"L8P 1H1","website":" ","working_hour":"Monday 9:00 am - 5:00 pm   Tuesday 9:00 am - 5:00 pm   Wednesday 9:00 am - 5:00 pm   Thursday 9:00 am - 5:00 pm   Friday 9:00 am - 5:00 pm","latitude":"43.255659","longitude":"-79.870874"},{"source":"yellow page","service_name":"Knibbs Investments Management","category":"professional designation tutoring","phone":"416-252-0444","address":"3479 Whileabout Terrace, Toronto, ON L6L 6X3","postalcode":"L6L 6X3","website":"http://www.knibbsinvestments.com","working_hour":"","latitude":"43.383573","longitude":"-79.734035"},{"source":"yellow page","service_name":"Drake International","category":"professional designation tutoring","phone":"905-528-9855","address":"101-25 Main St W, Hamilton, ON L8P 1H1","postalcode":"L8P 1H1","website":" ","working_hour":"","latitude":"43.255659","longitude":"-79.870874"},{"source":"yellow page","service_name":"Canadian Institute Of Quantity Surveyors-ON","category":"professional designation tutoring","phone":"9054773222","address":"90 Nolan Crt, Markham, ON L3R 4L9","postalcode":"L3R 4L9","website":"http://www.ciqs-ontario.org","working_hour":"Monday 9:00 am - 5:00 pm   Tuesday 9:00 am - 5:00 pm   Wednesday 9:00 am - 5:00 pm   Thursday 9:00 am - 5:00 pm   Friday 9:00 am - 5:00 pm","latitude":"43.823627","longitude":"-79.356089"},{"source":"yellow page","service_name":"Canadian Institute Of Quantity Surveyor's","category":"professional designation tutoring","phone":"9054770008","address":"90 Nolan Crt, Markham, ON L3R 4L9","postalcode":"L3R 4L9","website":"http://www.ciqs-ontario.org/ontario/english/the-institute","working_hour":"","latitude":"43.823627","longitude":"-79.356089"},{"source":"yellow page","service_name":"Markham Professional Group","category":"professional designation tutoring","phone":"9059408317","address":"14-2800 14th Ave, Markham, ON L3R 0E4","postalcode":"L3R 0E4","website":"http://www.mpgcga.ca/","working_hour":"","latitude":"43.830603","longitude":"-79.356989"},{"source":"yellow page","service_name":"The Kingston Learning Center","category":"professional designation tutoring","phone":"9055978069","address":"9005 Leslie St, Richmond Hill, ON L4B 1G7","postalcode":"L4B 1G7","website":"http://www.klccollege.ca","working_hour":"","latitude":"43.845116","longitude":"-79.382439"},{"source":"yellow page","service_name":"Pease Ted","category":"professional designation tutoring","phone":"6473627243","address":"301-1595 16th Ave, Richmond Hill, ON L4B 3N9","postalcode":"L4B 3N9","website":"http://www.mcintosh-pease.com","working_hour":"Monday 9:00 am - 5:00 pm   Tuesday 9:00 am - 5:00 pm   Wednesday 9:00 am - 5:00 pm   Thursday 9:00 am - 5:00 pm   Friday 9:00 am - 5:00 pm","latitude":"43.863159","longitude":"-79.383805"},{"source":"yellow page","service_name":"Keriakos Law","category":"professional designation tutoring","phone":"9057316214","address":"1595 16th Ave, Richmond Hill, ON L4B 3N9","postalcode":"L4B 3N9","website":"http://mjkeriakoslaw.com","working_hour":"Monday 9:00 am - 5:00 pm   Tuesday 9:00 am - 5:00 pm   Wednesday 9:00 am - 5:00 pm   Thursday 9:00 am - 5:00 pm   Friday 9:00 am - 5:00 pm","latitude":"43.863159","longitude":"-79.383805"},{"source":"yellow page","service_name":"Arbor Glen Public School - Toronto District School Board","category":"professional designation tutoring","phone":"416-395-2020","address":"55 Freshmeadow Dr, North York, ON M2H 3H6","postalcode":"M2H 3H6","website":"http://www.tdsb.on.ca","working_hour":"Monday 8:00 am - 4:00 pm   Tuesday 8:00 am - 4:00 pm   Wednesday 8:00 am - 4:00 pm   Thursday 8:00 am - 4:00 pm   Friday 8:00 am - 4:00 pm","latitude":"43.81006","longitude":"-79.355964"},{"source":"yellow page","service_name":"Chim And Seto LLP","category":"professional designation tutoring","phone":"9059460949","address":"3100 Steeles Ave E, Markham, ON L3R 8T3","postalcode":"L3R 8T3","website":"http://www.chimseto.com","working_hour":"","latitude":"43.8144082","longitude":"-79.3466545"},{"source":"yellow page","service_name":"The Examining Board of Natural Medicine Practitioners","category":"professional designation tutoring","phone":"416-756-9355","address":"2201 Warden Ave, Scarborough, ON M1T 1V5","postalcode":"M1T 1V5","website":" ","working_hour":"","latitude":"43.779851","longitude":"-79.308425"},{"source":"yellow page","service_name":"Rovey Service Group","category":"professional designation tutoring","phone":"905-604-8112","address":"8500 Warden Ave, Markham, ON L6G 1A5","postalcode":"L6G 1A5","website":" ","working_hour":"","latitude":"43.854567","longitude":"-79.333719"},{"source":"yellow page","service_name":"BestMatch Inc","category":"professional designation tutoring","phone":"647-718-3391","address":"168 Konrad Crescent, Markham, ON L3R 9T9","postalcode":"L3R 9T9","website":" ","working_hour":"24 hours a day - 7 days a week   Call For Bookings","latitude":"43.8322","longitude":"-79.360107"},{"source":"yellow page","service_name":"Stonehaven Financial Group","category":"professional designation tutoring","phone":"905-470-9940","address":"10 Station Lane, Unionville, ON L3R 1R3","postalcode":"L3R 1R3","website":"http://www.stonehaven-group.ca","working_hour":"Monday 8:00 am - 5:00 pm   Tuesday 8:00 am - 5:00 pm   Wednesday 8:00 am - 5:00 pm   Thursday 8:00 am - 5:00 pm   Friday 8:00 am - 5:00 pm","latitude":"43.864492","longitude":"-79.3116"},{"source":"yellow page","service_name":"PrepFast","category":"professional designation tutoring","phone":"416-871-4807","address":"88-7393 Markham Rd, Markham, ON L3S 0B5","postalcode":"L3S 0B5","website":" ","working_hour":"","latitude":"43.8460426","longitude":"-79.253146"},{"source":"yellow page","service_name":"Can-Fit-Pro","category":"professional designation tutoring","phone":"416-493-3515","address":"225 Select, Toronto, ON M1V 4A5","postalcode":"M1V 4A5","website":" ","working_hour":"Monday 10:00 am - 5:30 pm   Tuesday 10:00 am - 5:30 pm   Wednesday 10:00 am - 5:30 pm   Thursday 10:00 am - 5:30 pm   Friday 10:00 am - 5:30 pm","latitude":"43.833586","longitude":"-79.249344"},{"source":"yellow page","service_name":"Building Experts Canada","category":"professional designation tutoring","phone":"416-332-1743","address":"263-5215 Finch Ave E, Scarborough, ON M1S 0C2","postalcode":"M1S 0C2","website":"http://www.buildingexperts.ca","working_hour":"","latitude":"43.809961","longitude":"-79.25718"},{"source":"yellow page","service_name":"Research Emporium","category":"professional designation tutoring","phone":"4164491931","address":"330-100 Canadian Rd, Toronto, ON M1R 4Z5","postalcode":"M1R 4Z5","website":" ","working_hour":"Monday 9:00 am - 9:00 pm   Tuesday 9:00 am - 9:00 pm   Wednesday 9:00 am - 9:00 pm   Thursday 9:00 am - 9:00 pm   Friday 9:00 am - 6:00 pm   Saturday 10:00 am - 5:00 pm   Sunday  by appointment","latitude":"43.761116","longitude":"-79.291545"},{"source":"yellow page","service_name":"Southeast Dental (Inc)","category":"professional designation tutoring","phone":"2893015167","address":"70 Karachi Dr, Markham, ON L3S 0B5","postalcode":"L3S 0B5","website":" ","working_hour":"Monday 10:00 am - 6:00 pm   Tuesday 10:00 am - 6:00 pm   Thursday 10:00 am - 6:00 pm   Friday 10:00 am - 6:00 pm   Saturday 10:00 am - 6:00 pm   Sunday 10:00 am - 4:00 pm   Emergency Appointments Available","latitude":"43.8495389","longitude":"-79.2524667"},{"source":"yellow page","service_name":"Learning Disabilities Association Of Toronto Dis trict","category":"professional designation tutoring","phone":"416-229-1680","address":"121 Willowdale Ave, North York, ON M2N 6A3","postalcode":"M2N 6A3","website":" ","working_hour":"Monday 9:30 am - 4:30 pm   Tuesday 9:00 am - 4:30 pm   Wednesday 9:00 am - 4:30 pm   Thursday 9:00 am - 4:30 pm   Friday 9:00 am - 4:00 pm","latitude":"43.765056","longitude":"-79.400126"},{"source":"yellow page","service_name":"Mary Coughlan","category":"professional designation tutoring","phone":"6474900635","address":"8854 Yonge St, Richmond Hill, ON L4C 0T4","postalcode":"L4C 0T4","website":" ","working_hour":"Monday 9:00 am - 9:00 pm   Tuesday 9:00 am - 9:00 pm   Wednesday 9:00 am - 9:00 pm   Thursday 9:00 am - 9:00 pm   Friday 9:00 am - 9:00 pm   Saturday 9:00 am - 9:00 pm   Sunday 9:00 am - 9:00 pm","latitude":"43.843045","longitude":"-79.430621"},{"source":"yellow page","service_name":"Advance Appraisals Inc","category":"professional designation tutoring","phone":"416-805-0851","address":"250-8171 Yonge St, Thornhill, ON L3T 2C6","postalcode":"L3T 2C6","website":"https://www.advanceappraisals.ca","working_hour":"Monday 9:00 am - 5:00 pm   Tuesday 9:00 am - 5:00 pm   Wednesday 9:00 am - 5:00 pm   Thursday 9:00 am - 5:00 pm   Friday 9:00 am - 5:00 pm","latitude":"43.826976","longitude":"-79.426917"},{"source":"yellow page","service_name":"Andy Kovacs Insurance And Financial Solutions Inc.","category":"professional designation tutoring","phone":"289-818-1741","address":"","postalcode":"","website":" ","working_hour":"","latitude":"","longitude":""},{"source":"yellow page","service_name":"Ramanjeet Tung Professional Corporation CPA CA","category":"professional designation tutoring","phone":"647-261-6981","address":"8 Brewster Road, Brampton, ON L6T 5B7","postalcode":"L6T 5B7","website":" ","working_hour":"Monday 9:00 am - 5:30 pm   Tuesday 9:00 am - 5:30 pm   Wednesday 9:00 am - 5:30 pm   Thursday 9:00 am - 5:30 pm   Friday 9:00 am - 5:30 pm   Saturday 10:00 am - 3:00 pm","latitude":"43.763627","longitude":"-79.66076"},{"source":"yellow page","service_name":"Inpace Academy","category":"professional designation tutoring","phone":"9055646002","address":"4535 Ebenezer Rd, Mississauga, ON L6P 2P7","postalcode":"L6P 2P7","website":"http://inpaceacademy.com","working_hour":"","latitude":"43.773221","longitude":"-79.661985"},{"source":"yellow page","service_name":"Wadehra PC - CPA CA Firm","category":"professional designation tutoring","phone":"905-790-0657","address":"80 Maritime Ontario Boulevard, Brampton, ON L6S 0E7","postalcode":"L6S 0E7","website":" ","working_hour":"Monday 9:00 am - 5:00 pm   Tuesday 9:00 am - 5:00 pm   Wednesday 9:00 am - 5:00 pm   Thursday 9:00 am - 5:00 pm   Friday 9:00 am - 5:00 pm   Saturday 11:00 am - 4:00 pm   Sunday's Appointment Only","latitude":"43.7488852","longitude":"-79.6993423"},{"source":"yellow page","service_name":"Orthocellular Nutrition and Exercise Inc","category":"professional designation tutoring","phone":"705-293-0950","address":"302-169 Eighth St, Collingwood, ON L9Y 2C9","postalcode":"L9Y 2C9","website":"http://www.PreventativeHealthPrograms.ca","working_hour":"","latitude":"44.490791","longitude":"-80.223679"},{"source":"yellow page","service_name":"Hg Appraisers Inc","category":"professional designation tutoring","phone":"1-844-498-6412","address":"297 Saint Marie St, Collingwood, ON L9Y 3K6","postalcode":"L9Y 3K6","website":"http://hgappraisers.com","working_hour":"","latitude":"44.4959472","longitude":"-80.2139036"},{"source":"yellow page","service_name":"Kamal Goswami & Co. CGA","category":"professional designation tutoring","phone":"9054611085","address":"6770 Davand Dr, Mississauga, ON L5T 2G3","postalcode":"L5T 2G3","website":"http://kamalgoswamicga.com","working_hour":"","latitude":"43.669549","longitude":"-79.669909"},{"source":"yellow page","service_name":"Appraisal Institute Of Canada","category":"professional designation tutoring","phone":"416-695-9333","address":"104-5407 Eglinton Ave W, Etobicoke, ON M9C 5K6","postalcode":"M9C 5K6","website":" ","working_hour":"","latitude":"43.661751","longitude":"-79.59195"},{"source":"yellow page","service_name":"Kamal Goswani Comp Cga","category":"professional designation tutoring","phone":"9055645278","address":"6760 Davand Dr, Mississauga, ON L5T 2L9","postalcode":"L5T 2L9","website":"http://kamalgoswamicga.com","working_hour":"","latitude":"43.668507","longitude":"-79.668504"},{"source":"yellow page","service_name":"Simmons Da Silva & Sinton","category":"professional designation tutoring","phone":"905-457-1660","address":"201 County Court Blvd, Brampton, ON L6W 4L2","postalcode":"L6W 4L2","website":"http://www.sdslawfirm.com","working_hour":"","latitude":"43.6611869","longitude":"-79.7205838"},{"source":"yellow page","service_name":"Denturist Association Of Ontario","category":"professional designation tutoring","phone":"905-238-6090","address":"5780 Timberlea Blvd, Mississauga, ON L4W 4W8","postalcode":"L4W 4W8","website":"http://www.denturistassociation.com","working_hour":"Monday 9:00 am - 5:00 pm   Tuesday 9:00 am - 5:00 pm   Wednesday 9:00 am - 5:00 pm   Thursday 9:00 am - 5:00 pm   Friday 9:00 am - 5:00 pm","latitude":"43.63864","longitude":"-79.649877"},{"source":"yellow page","service_name":"Sapient Management Consulting Inc","category":"professional designation tutoring","phone":"905-301-2052","address":"ON L4W 5G6","postalcode":"L4W 5G6","website":"http://www.sapientmgmt.com","working_hour":"","latitude":"43.632916","longitude":"-79.614124"},{"source":"yellow page","service_name":"Cooper & Co Ltd Licensed Insolvency Trustee","category":"professional designation tutoring","phone":"905-454-4510","address":"36 Queen St E, Brampton, ON L6V 1A2","postalcode":"L6V 1A2","website":"http://www.coopertrustee.ca","working_hour":"Monday 8:00 am - 6:00 pm   Tuesday 8:00 am - 6:00 pm   Wednesday 8:00 am - 7:00 pm   Thursday 8:00 am - 6:00 pm   Friday 8:00 am - 6:00 pm","latitude":"43.686802","longitude":"-79.758943"},{"source":"yellow page","service_name":"Prudent Asset Management Inc","category":"professional designation tutoring","phone":"9056706999","address":"235 Derry Rd W, Mississauga, ON L5W 1G3","postalcode":"L5W 1G3","website":"http://www.prudentasset.ca","working_hour":"","latitude":"43.640895","longitude":"-79.712112"},{"source":"yellow page","service_name":"Northstar Montessori Private School","category":"professional designation tutoring","phone":"289-327-1065","address":"4900 Tomken Rd, Mississauga, ON L4W 1J8","postalcode":"L4W 1J8","website":"http://www.northstarmontessori.com","working_hour":"Monday 7:00 am - 6:00 pm   Tuesday 7:00 am - 6:00 pm   Wednesday 7:00 am - 6:00 pm   Thursday 7:00 am - 6:00 pm   Friday 7:00 am - 6:00 pm","latitude":"43.62613","longitude":"-79.629202"},{"source":"yellow page","service_name":"Hs Partners","category":"professional designation tutoring","phone":"905-678-2740","address":"400-5025 Orbitor Dr, Mississauga, ON L4W 4Y5","postalcode":"L4W 4Y5","website":"http://www.hsp-ca.com","working_hour":"","latitude":"43.6561594","longitude":"-79.5989418"},{"source":"yellow page","service_name":"Ontario Association of Certified Technicians","category":"professional designation tutoring","phone":"416-621-9621","address":"10 Four Seasons Pl, Etobicoke, ON M9B 6H7","postalcode":"M9B 6H7","website":"http://www.oacett.org","working_hour":"","latitude":"43.647684","longitude":"-79.561451"},{"source":"yellow page","service_name":"OACETT","category":"professional designation tutoring","phone":"4166214080","address":"10 Four Seasons Pl, Etobicoke, ON M9B 6H7","postalcode":"M9B 6H7","website":" ","working_hour":"","latitude":"43.647684","longitude":"-79.561451"},{"source":"yellow page","service_name":"TSCC 1736","category":"professional designation tutoring","phone":"4162447544","address":"38 Fontenay Crt, Etobicoke, ON M9A 5H5","postalcode":"M9A 5H5","website":"http://www.condominiumtoronto.com/the-fountains-of-edenbridge-38-fontenay-court","working_hour":"Monday 9:00 am - 6:00 pm   Tuesday 9:00 am - 6:00 pm   Wednesday 9:00 am - 6:00 pm   Thursday 9:00 am - 6:00 pm   Friday 9:00 am - 6:00 pm   Saturday 10:00 am - 1:00 pm   Appointments available: Saturday.","latitude":"43.682843","longitude":"-79.511223"},{"source":"yellow page","service_name":"Fourteen-Forty","category":"professional designation tutoring","phone":"4164610923","address":"1494 Islington Ave, Etobicoke, ON M9A 3L5","postalcode":"M9A 3L5","website":"http://www.fourteenforty.com","working_hour":"","latitude":"43.662233","longitude":"-79.531085"},{"source":"yellow page","service_name":"Henein & Associates Inc","category":"professional designation tutoring","phone":"9058975015","address":"2087 Dundas E, Mississauga, ON L4X 1M2","postalcode":"L4X 1M2","website":"http://heneinassociates.com","working_hour":"","latitude":"43.623207","longitude":"-79.569008"},{"source":"yellow page","service_name":"Nextgen Interactive Media Inc","category":"professional designation tutoring","phone":"416-477-8591","address":"401-50 Burnhamthorpe Rd W, Mississauga, ON L5B 3C2","postalcode":"L5B 3C2","website":"http://www.theiimp.org","working_hour":"","latitude":"43.592285","longitude":"-79.636631"},{"source":"yellow page","service_name":"Learning Disabilities Assoc Of Mississauga","category":"professional designation tutoring","phone":"905-272-4100","address":"165 Dundas St W, Mississauga, ON L5B 2N6","postalcode":"L5B 2N6","website":" ","working_hour":"Thursday 9:30 am - 3:30 pm   Friday 9:30 am - 3:30 pm","latitude":"43.5772442","longitude":"-79.6198675"},{"source":"yellow page","service_name":"Staff Click Personnel Inc","category":"professional designation tutoring","phone":"905-276-2100","address":"33 City Centre Dr, Mississauga, ON L5B 2N5","postalcode":"L5B 2N5","website":"http://www.staffclick.com","working_hour":"","latitude":"43.594526","longitude":"-79.639574"},{"source":"yellow page","service_name":"Blake Matlock and Marshal Ltd","category":"professional designation tutoring","phone":"1-866-778-7775","address":"401-2325 Hurontario St, Mississauga, ON L5A 4C7","postalcode":"L5A 4C7","website":"http://www.blakematlockandmarshal.com","working_hour":"","latitude":"43.574579","longitude":"-79.608155"},{"source":"yellow page","service_name":"Triple J Canada Tax","category":"professional designation tutoring","phone":"647-388-9717","address":"3085 Hurontario St, Mississauga, ON L5A 4E4","postalcode":"L5A 4E4","website":" ","working_hour":"Monday 10:00 am - 5:00 pm   Tuesday 10:00 am - 5:00 pm   Wednesday 10:00 am - 5:00 pm   Thursday 10:00 am - 5:00 pm   Friday 10:00 am - 5:00 pm","latitude":"43.582046","longitude":"-79.618825"},{"source":"yellow page","service_name":"Get Software Service","category":"professional designation tutoring","phone":"647-852-9840","address":"2119-3888 Duke of York Blvd, Mississauga, ON L5B 4P5","postalcode":"L5B 4P5","website":" ","working_hour":"","latitude":"43.5877232","longitude":"-79.6409592"},{"source":"yellow page","service_name":"St Bernadette Child Care Centre","category":"professional designation tutoring","phone":"905-501-0906","address":"1060 White Clover Way, Mississauga, ON L5V 1G7","postalcode":"L5V 1G7","website":" ","working_hour":"","latitude":"43.582202","longitude":"-79.674067"},{"source":"yellow page","service_name":"Abraham Chan LLP","category":"professional designation tutoring","phone":"416-986-3421","address":"3B-300 New Toronto St, Toronto, ON M8V 2E8","postalcode":"M8V 2E8","website":" ","working_hour":"Monday 9:00 am - 5:00 pm   Tuesday 9:00 am - 5:00 pm   Wednesday 9:00 am - 5:00 pm   Thursday 9:00 am - 5:00 pm   Friday 9:00 am - 5:00 pm","latitude":"43.604401","longitude":"-79.517409"},{"source":"yellow page","service_name":"Drake International","category":"professional designation tutoring","phone":"905-279-9000","address":"7-25 Watline Ave, Mississauga, ON L4Z 2Z1","postalcode":"L4Z 2Z1","website":" ","working_hour":"","latitude":"43.62156","longitude":"-79.671713"},{"source":"yellow page","service_name":"Compliance Trainings","category":"professional designation tutoring","phone":"416-915-4458","address":"5939 Candlebrook Crt, Mississauga, ON L5V 2V6","postalcode":"L5V 2V6","website":" ","working_hour":"","latitude":"43.601895","longitude":"-79.705008"},{"source":"yellow page","service_name":"Royal Pharmacy","category":"professional designation tutoring","phone":"4162513007","address":"745 The Queensway, Etobicoke, ON M8Z 1M8","postalcode":"M8Z 1M8","website":" ","working_hour":"Monday 8:30 am - 4:30 pm   Tuesday 8:30 am - 4:30 pm   Wednesday 8:30 am - 4:30 pm   Thursday 8:30 am - 4:30 pm   Friday 8:30 am - 4:30 pm","latitude":"43.626023","longitude":"-79.503396"},{"source":"yellow page","service_name":"Fletcher Professional Realty Appraisal","category":"professional designation tutoring","phone":"905-829-4916","address":"1174 WOODINGTON LANE, OAKVILLE, ON L6H 7V1","postalcode":"L6H 7V1","website":"http://www.fletcherappraisal.ca","working_hour":"","latitude":"43.492148","longitude":"-79.698581"},{"source":"yellow page","service_name":"Oakville Athletic Therapy Center","category":"professional designation tutoring","phone":"9058421707","address":"418 North Service E, Oakville, ON","postalcode":"","website":" ","working_hour":"","latitude":"43.464608","longitude":"-79.682278"},{"source":"yellow page","service_name":"Drake International","category":"professional designation tutoring","phone":"9053379898","address":"514-710 Dorval Dr, Oakville, ON L6K 3V7","postalcode":"L6K 3V7","website":" ","working_hour":"","latitude":"43.444298","longitude":"-79.696886"},{"source":"yellow page","service_name":"Meeting Professionals International Canadian Office","category":"professional designation tutoring","phone":"9052864807","address":"6700 Century Ave, Mississauga, ON L5N 6A4","postalcode":"L5N 6A4","website":" ","working_hour":"","latitude":"43.599858","longitude":"-79.74295"},{"source":"yellow page","service_name":"Canadian Automatic Merchandising Association","category":"professional designation tutoring","phone":"9058267695","address":"6835 Century Av, Mississauga, ON L5N 7K2","postalcode":"L5N 7K2","website":" ","working_hour":"Monday 7:00 am - 10:00 pm   Tuesday 7:00 am - 10:00 pm   Wednesday 7:00 am - 10:00 pm","latitude":"43.602082","longitude":"-79.747374"},{"source":"yellow page","service_name":"RX Canada","category":"professional designation tutoring","phone":"905-821-2700","address":"6711 Mississauga Rd, Mississauga, ON L5N 2W3","postalcode":"L5N 2W3","website":"http://www.tutoringwonders.com","working_hour":"Monday 9:00 am - 5:00 pm   Tuesday 9:00 am - 5:00 pm   Wednesday 9:00 am - 5:00 pm   Thursday 9:00 am - 5:00 pm   Friday 9:00 am - 5:00 pm","latitude":"43.6013771","longitude":"-79.7404383"},{"source":"yellow page","service_name":"Canadian Business Strategy Association","category":"professional designation tutoring","phone":"647-547-7771","address":"499 Ray Lawson Blvd, Brampton, ON L6Y 4E6","postalcode":"L6Y 4E6","website":" ","working_hour":"","latitude":"43.6514","longitude":"-79.735965"},{"source":"yellow page","service_name":"Balvir Saini, Professional Corp.","category":"professional designation tutoring","phone":"905-451-2883","address":"7-110 Pertosa Dr, Brampton, ON L6X 5E9","postalcode":"L6X 5E9","website":"http://www.bssaini.com","working_hour":"Monday 9:00 am - 6:00 pm   Tuesday 9:00 am - 6:00 pm   Wednesday 9:00 am - 6:00 pm   Thursday 9:00 am - 6:00 pm   Friday 9:00 am - 6:00 pm   Saturday 9:00 am - 3:00 pm","latitude":"43.680376","longitude":"-79.805209"},{"source":"yellow page","service_name":"Kavita Bhagat Lawyer","category":"professional designation tutoring","phone":"9054976806","address":"215 Queen St W, Brampton, ON L6Y 1M6","postalcode":"L6Y 1M6","website":"http://www.bramptonfamilylawyers.ca","working_hour":"Monday 9:00 am - 5:00 pm   Tuesday 9:00 am - 5:00 pm   Wednesday 9:00 am - 5:00 pm   Thursday 9:00 am - 5:00 pm   Friday 9:00 am - 5:00 pm","latitude":"43.680555","longitude":"-79.765792"},{"source":"yellow page","service_name":"Fletcher Professional Realty Appraisal Inc.","category":"professional designation tutoring","phone":"905-829-4916","address":"","postalcode":"","website":"http://www.fletcherappraisal.ca","working_hour":"","latitude":"","longitude":""},{"source":"yellow page","service_name":"HR Logistics","category":"professional designation tutoring","phone":"905-582-4697","address":"461 Levanna Lane, Oakville, ON L6H 6C1","postalcode":"L6H 6C1","website":" ","working_hour":"","latitude":"43.462355","longitude":"-79.735179"},{"source":"yellow page","service_name":"ThorSight Solutions","category":"professional designation tutoring","phone":"905-580-2999","address":"ON","postalcode":"","website":"http://www.thorsight.com","working_hour":"","latitude":"","longitude":""},{"source":"yellow page","service_name":"Raising The Standard Consulting Inc","category":"professional designation tutoring","phone":"905-840-1918","address":"ON","postalcode":"","website":"http://www.rtsconsulting.com","working_hour":"","latitude":"","longitude":""},{"source":"yellow page","service_name":"Math: Professional Tutor","category":"professional designation tutoring","phone":"905-230-3270","address":"ON","postalcode":"","website":" ","working_hour":"","latitude":"","longitude":""},{"source":"yellow page","service_name":"Brown Governance Inc","category":"professional designation tutoring","phone":"519-853-8082","address":"243 Main St N, Acton, ON L7J 1W7","postalcode":"L7J 1W7","website":"http://www.browngovernance.com","working_hour":"Monday 9:00 am - 5:00 pm   Tuesday 9:00 am - 5:00 pm   Wednesday 9:00 am - 5:00 pm   Thursday 9:00 am - 5:00 pm   Friday 9:00 am - 5:00 pm","latitude":"43.635704","longitude":"-80.049481"},{"source":"yellow page","service_name":"Berk Appraisal","category":"professional designation tutoring","phone":"289-238-8621","address":"2-36 Thorpe St, Dundas, ON L9H 1K7","postalcode":"L9H 1K7","website":"http://berkappraisals.ca","working_hour":"","latitude":"43.263086","longitude":"-79.945626"},{"source":"yellow page","service_name":"Call Us Computer Service","category":"professional designation tutoring","phone":"9055278410","address":"1045 King St W, Hamilton, ON L8S 1L6","postalcode":"L8S 1L6","website":"http://www.thevitaminstorecanada.com","working_hour":"Monday 9:00 am - 6:00 pm   Tuesday 9:00 am - 6:00 pm   Wednesday 9:00 am - 6:00 pm   Thursday 9:00 am - 6:00 pm   Friday 9:00 am - 6:00 pm   Saturday 10:00 am - 3:00 pm","latitude":"43.261441","longitude":"-79.906918"},{"source":"yellow page","service_name":"Backup-Power.ca","category":"professional designation tutoring","phone":"905-664-4300","address":"ON","postalcode":"","website":"http://www.rrubinassociates.com","working_hour":"Monday 9:00 am - 5:00 pm   Tuesday 9:00 am - 5:00 pm   Wednesday 9:00 am - 5:00 pm   Thursday 9:00 am - 5:00 pm   Friday 9:00 am - 5:00 pm","latitude":"","longitude":""},{"source":"yellow page","service_name":"Perry Krieger & Associates","category":"professional designation tutoring","phone":"9053878886","address":"Hamilton, ON","postalcode":"","website":" ","working_hour":"","latitude":"43.651893","longitude":"-79.381713"},{"source":"yellow page","service_name":"Reptile Camp","category":"professional designation tutoring","phone":"905-531-5367","address":"ON","postalcode":"","website":" ","working_hour":"","latitude":"","longitude":""},{"source":"yellow page","service_name":"ICIWorld.ca","category":"professional designation tutoring","phone":"905-577-7764","address":"2 Bloor St, Hamilton, ON M5V 2W8","postalcode":"M5V 2W8","website":"http://www.iciworld.net","working_hour":"","latitude":"43.643533","longitude":"-79.40398"},{"source":"yellow page","service_name":"Applied Biomechanics Custom Orthotic Services Inc","category":"professional designation tutoring","phone":"519-836-4755","address":"7-214 Speedvale Ave W, Guelph, ON N1H 1C4","postalcode":"N1H 1C4","website":" ","working_hour":"","latitude":"43.549041","longitude":"-80.281106"},{"source":"yellow page","service_name":"Wasaga Beach Co-Operative Nursery School","category":"professional designation tutoring","phone":"705-429-4228","address":"Mosley St, Wasaga Beach, ON","postalcode":"","website":"http://scottcampbell.ca","working_hour":"","latitude":"","longitude":""},{"source":"yellow page","service_name":"Kamal Professional Corporation","category":"professional designation tutoring","phone":"647-898-1792","address":"205-777 Warden Ave, Scarborough, ON M1L 4C3","postalcode":"M1L 4C3","website":"http://www.kamal-pc.com","working_hour":"Monday 9:00 am - 5:00 pm   Tuesday 9:00 am - 5:00 pm   Wednesday 9:00 am - 5:00 pm   Thursday 9:00 am - 5:00 pm   Friday 9:00 am - 5:00 pm   Emergency Appointments Available","latitude":"43.724399","longitude":"-79.286265"},{"source":"yellow page","service_name":"Ontario Association For Family Mediation","category":"professional designation tutoring","phone":"4167406236","address":"2167 Victoria Park Ave, Scarborough, ON M1R 1V5","postalcode":"M1R 1V5","website":"http://oafm.on.ca","working_hour":"","latitude":"43.758856","longitude":"-79.315671"},{"source":"yellow page","service_name":"Witz Training","category":"professional designation tutoring","phone":"416-444-9480","address":"60 Scarsdale Rd, North York, ON M3B 2R7","postalcode":"M3B 2R7","website":" ","working_hour":"Monday 8:30 am - 5:00 pm   Tuesday 8:30 am - 5:00 pm   Wednesday 8:30 am - 5:00 pm   Thursday 8:30 am - 5:00 pm   Friday 8:30 am - 5:00 pm","latitude":"43.7479478","longitude":"-79.3540973"},{"source":"yellow page","service_name":"Mirza Professional Corporation","category":"professional designation tutoring","phone":"416-755-5554","address":"1315 Lawrence Ave E, North York, ON M3A 3R3","postalcode":"M3A 3R3","website":"http://bilalmirza.ca","working_hour":"Monday 10:00 am - 6:00 pm   Tuesday 10:00 am - 6:00 pm   Wednesday 10:00 am - 6:00 pm   Thursday 10:00 am - 6:00 pm   Friday 10:00 am - 6:00 pm","latitude":"43.740881","longitude":"-79.323073"},{"source":"yellow page","service_name":"Step (Canada)","category":"professional designation tutoring","phone":"4167731680","address":"2225 Sheppard Ave E, North York, ON M2J 5C2","postalcode":"M2J 5C2","website":"http://www.step.ca","working_hour":"","latitude":"43.774843","longitude":"-79.329073"},{"source":"yellow page","service_name":"Ten Men And One Idea","category":"professional designation tutoring","phone":"647-748-8805","address":"201 Consumers Rd, North York, ON M2J 4G8","postalcode":"M2J 4G8","website":"http://tmisu.com/","working_hour":"Monday 10:00 am - 6:00 pm   Tuesday 10:00 am - 6:00 pm   Wednesday 10:00 am - 6:00 pm   Thursday 10:00 am - 6:00 pm   Friday 10:00 am - 6:00 pm","latitude":"43.772197","longitude":"-79.331753"},{"source":"yellow page","service_name":"Toronto Mandarin School - North York","category":"professional designation tutoring","phone":"416-304-0260","address":"410-200 Consumers Rd, Toronto, ON M2J 4R4","postalcode":"M2J 4R4","website":"http://www.torontomandarinschool.com","working_hour":"Monday 9:00 am - 6:00 pm   Tuesday 9:00 am - 6:00 pm   Wednesday 9:00 am - 6:00 pm   Thursday 9:00 am - 6:00 pm   Friday 9:30 am - 9:00 pm   Call For Details: Sunday, Saturday.","latitude":"43.772742","longitude":"-79.331916"},{"source":"yellow page","service_name":"Ontario Home Builders Association","category":"professional designation tutoring","phone":"6472553873","address":"20 Upjohn Rd, North York, ON M3B 2V9","postalcode":"M3B 2V9","website":" ","working_hour":"","latitude":"43.753338","longitude":"-79.350211"},{"source":"yellow page","service_name":"Canadian Association of Food Service Professionals","category":"professional designation tutoring","phone":"4164223431","address":"40 Davies Cres, East York, ON M4J 2X5","postalcode":"M4J 2X5","website":"http://www.cafp.com","working_hour":"","latitude":"43.696792","longitude":"-79.34138"},{"source":"yellow page","service_name":"The Canadian Examining Board Of Health Care Practitioners","category":"professional designation tutoring","phone":"4164669755","address":"658 Danforth Ave, Toronto, ON M4J 5B9","postalcode":"M4J 5B9","website":"http://www.canadianexaminingboard.com","working_hour":"","latitude":"43.678973","longitude":"-79.344568"},{"source":"yellow page","service_name":"AuraData","category":"professional designation tutoring","phone":"416-406-0444","address":"ON M4J 1M3","postalcode":"M4J 1M3","website":"http://www.auradata.com","working_hour":"Monday 9:00 am - 5:00 pm   Tuesday 9:00 am - 5:00 pm   Wednesday 9:00 am - 5:00 pm   Thursday 9:00 am - 5:00 pm   Friday 9:00 am - 5:00 pm","latitude":"43.681323","longitude":"-79.333657"},{"source":"yellow page","service_name":"Cooper Michael Photographic","category":"professional designation tutoring","phone":"416-466-4474","address":"1159 Dundas St E, Toronto, ON M4M 1R9","postalcode":"M4M 1R9","website":"http://www.coopershoots.com","working_hour":"24 hours a day - 7 days a week","latitude":"43.664329","longitude":"-79.342563"},{"source":"yellow page","service_name":"Olmsted Physiotherapy","category":"professional designation tutoring","phone":"416-481-7890","address":"273 Airdrie Rd, East York, ON M4G 1N2","postalcode":"M4G 1N2","website":"http://www.olmstedphysiotherapy.ca/","working_hour":"Monday 9:00 am - 12:00 pm   Tuesday 9:00 am - 12:00 pm   Wednesday 9:00 am - 12:00 pm   Thursday 9:00 am - 12:00 pm   Friday 9:00 am - 12:00 pm","latitude":"43.707519","longitude":"-79.366285"},{"source":"yellow page","service_name":"Upbeat Piano Studio","category":"professional designation tutoring","phone":"647-345-6750","address":"670 Eglinton Ave E, East York, ON M4G 2K4","postalcode":"M4G 2K4","website":" ","working_hour":"Monday 9:00 am - 5:00 pm   Tuesday 9:00 am - 5:00 pm   Wednesday 9:00 am - 5:00 pm   Thursday 9:00 am - 5:00 pm   Friday 9:00 am - 5:00 pm   Appointment Only   Weekday And Weekend Lessons Available","latitude":"43.711998","longitude":"-79.372539"},{"source":"yellow page","service_name":"Chartered Accountants Students Assn Of Ont","category":"professional designation tutoring","phone":"416-515-1180","address":"69 Bloor St E, Toronto, ON M4W 1A9","postalcode":"M4W 1A9","website":"http://www.icao.on.ca","working_hour":"Monday 8:30 am - 5:00 pm   Tuesday 8:30 am - 5:00 pm   Wednesday 8:30 am - 5:00 pm   Thursday 8:30 am - 5:00 pm   Friday 8:30 am - 5:00 pm","latitude":"43.670625","longitude":"-79.38503"},{"source":"yellow page","service_name":"Espe English For Specific Purposes Education","category":"professional designation tutoring","phone":"416-447-2262","address":"220 Duncan Mill Rd, North York, ON M3B 3J5","postalcode":"M3B 3J5","website":"http://www.espeducation.ca","working_hour":"Monday 9:00 am - 5:00 pm   Tuesday 9:00 am - 5:00 pm   Wednesday 9:00 am - 5:00 pm   Thursday 9:00 am - 5:00 pm   Friday 9:00 am - 5:00 pm","latitude":"43.761878","longitude":"-79.352934"},{"source":"yellow page","service_name":"Around The Clock IT Solutions Ltd","category":"professional designation tutoring","phone":"416-657-4395","address":"94018-3409 Yonge St, North York, ON M4N 2M8","postalcode":"M4N 2M8","website":"http://www.AroundTheClock.ca","working_hour":"24 hours a day - 7 days a week","latitude":"43.732685","longitude":"-79.404189"},{"source":"yellow page","service_name":"The Salzburg Institute","category":"professional designation tutoring","phone":"416-975-0111","address":"3080 Yonge St, Toronto, ON M4N 3N1","postalcode":"M4N 3N1","website":"http://www.thesalzburginstitute.org","working_hour":"","latitude":"43.725658","longitude":"-79.402345"},{"source":"yellow page","service_name":"The Tutor Group","category":"professional designation tutoring","phone":"416-221-0018","address":"3230 Yonge St, Toronto, ON M4N 3P6","postalcode":"M4N 3P6","website":"http://thetutorgroup.com","working_hour":"","latitude":"43.729331","longitude":"-79.40331"},{"source":"yellow page","service_name":"Cooper Deborah Chesnie Dr","category":"professional designation tutoring","phone":"4163223161","address":"129 Edith Dr, Toronto, ON M4R 1Z4","postalcode":"M4R 1Z4","website":"http://chesniecooper.com","working_hour":"","latitude":"43.70945","longitude":"-79.404036"},{"source":"yellow page","service_name":"Aqua Pure Systems Inc-Ecowater Toronto","category":"professional designation tutoring","phone":"4167627200","address":"130 Industry St, North York, ON M6M 5G3","postalcode":"M6M 5G3","website":"http://www.aquapure.com","working_hour":"Monday 10:00 am - 5:00 pm   Tuesday 10:00 am - 5:00 pm   Wednesday 10:00 am - 5:00 pm   Thursday 10:00 am - 7:00 pm   Friday 10:00 am - 7:00 pm","latitude":"43.694498","longitude":"-79.495235"},{"source":"yellow page","service_name":"Content Rebel","category":"professional designation tutoring","phone":"416-410-0100","address":"229 Winona Dr, York, ON M6C 3S4","postalcode":"M6C 3S4","website":"http://www.contentrebel.ca/","working_hour":"Monday 9:00 am - 5:00 pm   Tuesday 9:00 am - 5:00 pm   Wednesday 9:00 am - 5:00 pm   Thursday 9:00 am - 5:00 pm   Friday 9:00 am - 5:00 pm","latitude":"43.681513","longitude":"-79.433186"},{"source":"yellow page","service_name":"Drake International","category":"professional designation tutoring","phone":"416-762-4414","address":"2018-2323 Bloor Street W, Toronto, ON M6S 4W1","postalcode":"M6S 4W1","website":"http://www.drakeintl.com","working_hour":"","latitude":"43.650296","longitude":"-79.480112"},{"source":"yellow page","service_name":"Elmspa","category":"professional designation tutoring","phone":"416-964-4500","address":"557 Church St, Toronto, ON M4Y 2E2","postalcode":"M4Y 2E2","website":"http://www.elmspa.ca","working_hour":"Thursday 11:00 am - 7:00 pm   Friday 11:00 am - 7:00 pm   Saturday 11:00 am - 7:00 pm   Sunday 11:00 am - 7:00 pm","latitude":"43.667164","longitude":"-79.381544"},{"source":"yellow page","service_name":"Canadian Institute Of Traffic & Transportation","category":"professional designation tutoring","phone":"4163635696","address":"10 King E, Toronto, ON M5C 1C3","postalcode":"M5C 1C3","website":"http://citt.ca","working_hour":"","latitude":"43.649255","longitude":"-79.3774"},{"source":"yellow page","service_name":"Independent Wine Education Guild","category":"professional designation tutoring","phone":"416-534-2570","address":"211 Yonge St, Toronto, ON M5B 1M4","postalcode":"M5B 1M4","website":" ","working_hour":"Monday 9:30 am - 5:30 pm   Tuesday 9:30 am - 5:30 pm   Wednesday 9:30 am - 5:30 pm   Thursday 9:30 am - 5:30 pm   Friday 9:30 am - 5:30 pm","latitude":"43.653708","longitude":"-79.379812"},{"source":"yellow page","service_name":"Avenue Investment Management","category":"professional designation tutoring","phone":"4164822004","address":"300-47 Colborne St, Toronto, ON M5E 1P8","postalcode":"M5E 1P8","website":"http://www.avenueinvestment.com","working_hour":"","latitude":"43.649087","longitude":"-79.374858"},{"source":"yellow page","service_name":"Conference Board Of Canada","category":"professional designation tutoring","phone":"4163508872","address":"20 Richmond St E, Toronto, ON M5C 2R9","postalcode":"M5C 2R9","website":" ","working_hour":"","latitude":"43.651848","longitude":"-79.378178"},{"source":"yellow page","service_name":"Insurance Institute","category":"professional designation tutoring","phone":"4163628586","address":"18 King St E, Toronto, ON M5C 1C4","postalcode":"M5C 1C4","website":"http://www.iic-iac.org","working_hour":"Monday 8:00 am - 5:30 pm   Tuesday 8:00 am - 5:30 pm   Wednesday 8:00 am - 5:30 pm   Thursday 8:00 am - 5:30 pm   Friday 8:00 am - 5:00 pm","latitude":"43.649339","longitude":"-79.377021"},{"source":"yellow page","service_name":"T.O Residence Home Selling Team","category":"professional designation tutoring","phone":"4168618757","address":"119 Front St E, Toronto, ON M5A 4S5","postalcode":"M5A 4S5","website":" ","working_hour":"Monday 9:00 am - 5:00 pm   Tuesday 9:00 am - 5:00 pm   Wednesday 9:00 am - 5:00 pm   Thursday 9:00 am - 5:00 pm   Friday 9:00 am - 5:00 pm   Weekends By Appointment","latitude":"43.649741","longitude":"-79.370618"},{"source":"yellow page","service_name":"Toronto Mandarin School","category":"professional designation tutoring","phone":"416-961-7878","address":"603-890 Yonge St, Toronto, ON M4W 3P4","postalcode":"M4W 3P4","website":"http://www.torontomandarinschool.com","working_hour":"Monday 9:00 am - 5:00 pm   Tuesday 9:00 am - 5:00 pm   Wednesday 9:00 am - 5:00 pm   Thursday 9:00 am - 5:00 pm   Friday 9:30 am - 9:00 pm","latitude":"43.67335","longitude":"-79.388075"},{"source":"yellow page","service_name":"JK Hannaford Management Inc","category":"professional designation tutoring","phone":"4162035660","address":"77 Bloor St W, Toronto, ON M5S 1M2","postalcode":"M5S 1M2","website":"http://www.jkhannaford.com/","working_hour":"Appointment Only","latitude":"43.669598","longitude":"-79.390061"},{"source":"yellow page","service_name":"Human Resources Professionals Association","category":"professional designation tutoring","phone":"4169232324","address":"150 Bloor St W, Toronto, ON M5S 2X9","postalcode":"M5S 2X9","website":"http://www.chrp.ca","working_hour":"Monday 8:30 am - 5:30 pm   Tuesday 8:30 am - 5:30 pm   Wednesday 8:30 am - 5:30 pm   Thursday 8:30 am - 5:30 pm   Friday 8:30 am - 5:30 pm","latitude":"43.668864","longitude":"-79.393404"},{"source":"yellow page","service_name":"Human Resources Professionals Association Of Ontario","category":"professional designation tutoring","phone":"4169643313","address":"150 Bloor St W, Toronto, ON M5S 2X9","postalcode":"M5S 2X9","website":" ","working_hour":"","latitude":"43.668864","longitude":"-79.393404"},{"source":"yellow page","service_name":"University of Toronto","category":"professional designation tutoring","phone":"4169782400","address":"158 St. George St, Toronto, ON M5S 2V8","postalcode":"M5S 2V8","website":"http://www.learn.utoronto.ca","working_hour":"","latitude":"43.666819","longitude":"-79.399549"},{"source":"yellow page","service_name":"Ontario Institute Of Purchasing Management A ssociation","category":"professional designation tutoring","phone":"4169777566","address":"2704 -1 Dundas St W, Toronto, ON M5G 1Z3","postalcode":"M5G 1Z3","website":"http://www.oipmac.ca","working_hour":"","latitude":"43.656185","longitude":"-79.381661"},{"source":"yellow page","service_name":"Altus Securities","category":"professional designation tutoring","phone":"416-369-9211","address":"55 Yonge St, Toronto, ON M5E 1J4","postalcode":"M5E 1J4","website":"http://www.altussecuritiesinc.com","working_hour":"Please call for details","latitude":"43.648367","longitude":"-79.377526"},{"source":"yellow page","service_name":"Mortgage Alliance","category":"professional designation tutoring","phone":"4168772458","address":"ON","postalcode":"","website":" ","working_hour":"","latitude":"43.651893","longitude":"-79.381713"},{"source":"yellow page","service_name":"Metro College Of Technology","category":"professional designation tutoring","phone":"416-585-9880","address":"203 College St, Toronto, ON M5T 1P9","postalcode":"M5T 1P9","website":" ","working_hour":"Monday 8:30 am - 5:00 pm   Tuesday 8:30 am - 5:00 pm   Wednesday 8:30 am - 5:00 pm   Thursday 8:30 am - 5:00 pm   Friday 8:30 am - 5:00 pm   Saturday 10:00 am - 2:00 pm   Sunday 10:30 am - 2:30 pm","latitude":"43.658593","longitude":"-79.395501"},{"source":"yellow page","service_name":"Clear Stream Natural Health Cl","category":"professional designation tutoring","phone":"416-530-6959","address":"980 Bathurst St, Toronto, ON M5R 3G6","postalcode":"M5R 3G6","website":"http://www.bowendirectory.com","working_hour":"Appointment Only","latitude":"43.669963","longitude":"-79.413128"},{"source":"yellow page","service_name":"Nella Cucina","category":"professional designation tutoring","phone":"416-922-9055","address":"876 Bathurst St, Toronto, ON M5R 3G3","postalcode":"M5R 3G3","website":"http://www.nellacutlery.ca","working_hour":"","latitude":"43.667236","longitude":"-79.412053"},{"source":"yellow page","service_name":"Riverdale Mediation Ltd","category":"professional designation tutoring","phone":"416-593-0210","address":"2000-393 University Ave, Toronto, ON M5G 1E6","postalcode":"M5G 1E6","website":" ","working_hour":"Monday 9:00 am - 5:00 pm   Tuesday 9:00 am - 5:00 pm   Wednesday 9:00 am - 5:00 pm   Thursday 9:00 am - 5:00 pm   Friday 9:00 am - 5:00 pm","latitude":"43.653868","longitude":"-79.387748"},{"source":"yellow page","service_name":"The Listening Centre","category":"professional designation tutoring","phone":"416-588-4136","address":"94 Harbord St, Toronto, ON M5S 1G6","postalcode":"M5S 1G6","website":"http://www.listeningcentre.com","working_hour":"Monday 10:00 am - 6:00 pm   Tuesday 10:00 am - 6:00 pm   Wednesday 10:00 am - 6:00 pm   Thursday 10:00 am - 6:00 pm   Friday 10:00 am - 6:00 pm","latitude":"43.662854","longitude":"-79.403153"},{"source":"yellow page","service_name":"Laure Ampilhac Mortgages","category":"professional designation tutoring","phone":"4163589686","address":"360-719 Bloor St W, Toronto, ON M6G 1L5","postalcode":"M6G 1L5","website":" ","working_hour":"","latitude":"43.663615","longitude":"-79.418151"},{"source":"yellow page","service_name":"Real Estate Tutoring","category":"professional designation tutoring","phone":"6473608378","address":"ON","postalcode":"","website":" ","working_hour":"","latitude":"43.651893","longitude":"-79.381713"},{"source":"yellow page","service_name":"Jag Wire Electrical Services Inc","category":"professional designation tutoring","phone":"4168852643","address":"ON","postalcode":"","website":"http://jagwire.ca","working_hour":"","latitude":"43.651893","longitude":"-79.381713"},{"source":"yellow page","service_name":"Drake International","category":"professional designation tutoring","phone":"416-216-1000","address":"1700-320 Bay St, Toronto, ON M5H 4A6","postalcode":"M5H 4A6","website":"http://www.drakeintl.com","working_hour":"","latitude":"43.649731","longitude":"-79.380729"},{"source":"yellow page","service_name":"Cohen Hamilton Steger & Co Inc","category":"professional designation tutoring","phone":"416-304-1595","address":"7011-100 King St W, Toronto, ON M5X 1A9","postalcode":"M5X 1A9","website":"http://cohenhamiltonsteger.com","working_hour":"","latitude":"43.648376","longitude":"-79.381545"},{"source":"yellow page","service_name":"WAM(RE) Development Management Corp","category":"professional designation tutoring","phone":"6472561014","address":"121 King St W, Toronto, ON M5H 3T9","postalcode":"M5H 3T9","website":"http://www.wamdevelopment.com","working_hour":"Monday 8:30 am - 5:00 pm   Tuesday 8:30 am - 5:00 pm   Wednesday 8:30 am - 5:00 pm   Thursday 8:30 am - 5:00 pm   Friday 8:30 am - 5:00 pm","latitude":"43.648034","longitude":"-79.383121"},{"source":"yellow page","service_name":"Financial Executives International Canada","category":"professional designation tutoring","phone":"416-366-3007","address":"1201-170 University Ave, Toronto, ON M5H 3B3","postalcode":"M5H 3B3","website":"http://www.feicanada.org","working_hour":"","latitude":"43.6487","longitude":"-79.385425"},{"source":"yellow page","service_name":"Canadian Professional Sales Association-Fax line","category":"professional designation tutoring","phone":"4164082684","address":"310 Front W, Toronto, ON M5V 3B5","postalcode":"M5V 3B5","website":" ","working_hour":"","latitude":"43.643527","longitude":"-79.390627"},{"source":"yellow page","service_name":"Tompkins Insurance Services Ltd","category":"professional designation tutoring","phone":"416-369-3010","address":"214 King St W, Toronto, ON M5H 3S6","postalcode":"M5H 3S6","website":"http://www.tompkinsinsurance.com","working_hour":"","latitude":"43.647266","longitude":"-79.386675"},{"source":"yellow page","service_name":"Canadian Association of Insolvency and Restructuring Professionals","category":"professional designation tutoring","phone":"416-204-3242","address":"277 Wellington St W, Toronto, ON M5V 3E4","postalcode":"M5V 3E4","website":" ","working_hour":"","latitude":"43.644782","longitude":"-79.391477"},{"source":"yellow page","service_name":"Tompkins Insurance Servic","category":"professional designation tutoring","phone":"416-506-9152","address":"214 King St W, Toronto, ON M5H 3S6","postalcode":"M5H 3S6","website":" ","working_hour":"","latitude":"43.647266","longitude":"-79.386675"},{"source":"yellow page","service_name":"Logistics Logistics Institute","category":"professional designation tutoring","phone":"6477256646","address":"500-20 Maud St, Toronto, ON M5V 2M5","postalcode":"M5V 2M5","website":" ","working_hour":"","latitude":"43.646491","longitude":"-79.399823"},{"source":"yellow page","service_name":"Misfitstudio","category":"professional designation tutoring","phone":"647-271-9037","address":"761 Queen St W, Toronto, ON M6J 1G1","postalcode":"M6J 1G1","website":" ","working_hour":"Monday 7:00 am - 9:00 pm   Tuesday 8:00 am - 9:00 pm   Wednesday 8:00 am - 7:30 pm   Thursday 7:00 am - 9:00 pm   Friday 8:00 am - 9:00 pm   Saturday 10:00 am - 12:00 pm   Sunday 10:00 am - 12:00 pm","latitude":"43.646465","longitude":"-79.407706"},{"source":"yellow page","service_name":"BYOB Cocktail Emporium","category":"professional designation tutoring","phone":"4168582932","address":"972 Queen St W, Toronto, ON M6J 1H1","postalcode":"M6J 1H1","website":" ","working_hour":"Monday 11:00 am - 7:00 pm   Tuesday 11:00 am - 7:00 pm   Wednesday 11:00 am - 7:00 pm   Thursday 11:00 am - 7:00 pm   Friday 11:00 am - 7:00 pm   Saturday 11:00 am - 7:00 pm   Sunday 12:00 pm - 7:00 pm","latitude":"43.644408","longitude":"-79.417719"},{"source":"yellow page","service_name":"The Credit Institute Of Canada","category":"professional designation tutoring","phone":"416-572-2615","address":"219 Dufferin St, Toronto, ON M6K 3J1","postalcode":"M6K 3J1","website":" ","working_hour":"Monday 8:30 am - 4:30 pm   Tuesday 8:30 am - 4:30 pm   Wednesday 8:30 am - 4:30 pm   Thursday 8:30 am - 4:30 pm   Friday 8:30 am - 4:30 pm","latitude":"43.636678","longitude":"-79.426511"},{"source":"yellow page","service_name":"Linamar Gear","category":"professional designation tutoring","phone":"519-827-9423","address":"375 Massey Rd, Guelph, ON N1K 1B2","postalcode":"N1K 1B2","website":"http://www.linamar.com","working_hour":"Monday 9:00 am - 5:00 pm   Tuesday 9:00 am - 5:00 pm   Wednesday 9:00 am - 5:00 pm   Thursday 9:00 am - 5:00 pm   Friday 9:00 am - 5:00 pm   Saturday 9:00 am - 5:00 pm   Sunday 10:00 am - 4:00 pm","latitude":"43.536319","longitude":"-80.307889"},{"source":"yellow page","service_name":"Eston Manufacturing","category":"professional designation tutoring","phone":"519-763-0063","address":"287 Speedvale Ave W, Guelph, ON N1H 1C5","postalcode":"N1H 1C5","website":"http://www.linamar.com","working_hour":"Monday 9:00 am - 5:00 pm   Tuesday 9:00 am - 5:00 pm   Wednesday 9:00 am - 5:00 pm   Thursday 9:00 am - 5:00 pm   Friday 9:00 am - 5:00 pm   Saturday 9:00 am - 5:00 pm   Sunday 10:00 am - 4:00 pm","latitude":"43.5447878","longitude":"-80.2869949"},{"source":"yellow page","service_name":"Guelph Vision Therapy Centre","category":"professional designation tutoring","phone":"519-265-8895","address":"1030 Gordon St, Guelph, ON N1G 4X5","postalcode":"N1G 4X5","website":" ","working_hour":"","latitude":"43.5213881","longitude":"-80.2112308"},{"source":"yellow page","service_name":"XL Tool Inc","category":"professional designation tutoring","phone":"519-578-6951","address":"19 Crestview Pl, Kitchener, ON N2B 3X6","postalcode":"N2B 3X6","website":"http://www.xltool.com","working_hour":"","latitude":"43.478991","longitude":"-80.431275"},{"source":"yellow page","service_name":"Wellington Early Learning Centre","category":"professional designation tutoring","phone":"519-763-5540","address":"271A Stephanie Dr, Guelph, ON N1K 1T1","postalcode":"N1K 1T1","website":"http://welcdaycare.ca/","working_hour":"Monday 7:00 am - 6:00 pm   Tuesday 7:00 am - 6:00 pm   Wednesday 7:00 am - 6:00 pm   Thursday 7:00 am - 6:00 pm   Friday 7:00 am - 6:00 pm","latitude":"43.5220654","longitude":"-80.2775762"},{"source":"yellow page","service_name":"Rcaf Wing 404","category":"professional designation tutoring","phone":"519-884-1272","address":"510 Dutton Dr, Waterloo, ON N2L 4C6","postalcode":"N2L 4C6","website":" ","working_hour":"","latitude":"43.494165","longitude":"-80.538954"},{"source":"yellow page","service_name":"Gold Seal Homes","category":"professional designation tutoring","phone":"519-580-9826","address":"22 Charleston Pl, Kitchener, ON N2A 4G1","postalcode":"N2A 4G1","website":"http://goldsealcertification.com","working_hour":"","latitude":"43.447952","longitude":"-80.428662"},{"source":"yellow page","service_name":"Dean Sport and Dive","category":"professional designation tutoring","phone":"519-742-1230","address":"1595 Victoria St N, Kitchener, ON N2B 3E6","postalcode":"N2B 3E6","website":" ","working_hour":"Monday 12:00 pm - 6:00 pm   Tuesday 12:00 pm - 5:00 pm   Thursday 12:00 pm - 5:00 pm   Friday 12:00 pm - 6:00 pm   Saturday 10:00 am - 4:00 pm","latitude":"43.473857","longitude":"-80.435247"},{"source":"yellow page","service_name":"Cassandra Cassidy - The Mortgage Centre","category":"professional designation tutoring","phone":"519-901-0774","address":"ON","postalcode":"","website":" ","working_hour":"","latitude":"","longitude":""},{"source":"yellow page","service_name":"Royal Astronomical Society Of Canada Toronto Centre","category":"professional designation tutoring","phone":"519-599-1184","address":"ON","postalcode":"","website":"http://rasc.ca","working_hour":"","latitude":"","longitude":""},{"source":"yellow page","service_name":"Ward Financial Group","category":"professional designation tutoring","phone":"5196643066","address":"20-826 King St N, Waterloo, ON N2J 4G8","postalcode":"N2J 4G8","website":"http://www.wardfinancial.net","working_hour":"Monday 9:00 am - 5:00 pm   Tuesday 9:00 am - 5:00 pm   Wednesday 9:00 am - 5:00 pm   Thursday 9:00 am - 5:00 pm   Friday 9:00 am - 5:00 pm","latitude":"43.512713","longitude":"-80.554231"},{"source":"yellow page","service_name":"Steve Brazier CA","category":"professional designation tutoring","phone":"519-657-3436","address":"355 Princess Ave, London, ON N6B 2A7","postalcode":"N6B 2A7","website":"http://www.ouraccountant.ca","working_hour":"Monday 8:00 am - 5:00 pm   Tuesday 8:00 am - 5:00 pm   Wednesday 8:00 am - 5:00 pm   Thursday 8:00 am - 5:00 pm   Friday 8:00 am - 5:00 pm","latitude":"42.989923","longitude":"-81.2436333"},{"source":"yellow page","service_name":"Helsdon Photography","category":"professional designation tutoring","phone":"1-855-763-0195","address":"36 Parkdale Ave, Tillsonburg, ON N4G 4C6","postalcode":"N4G 4C6","website":"http://www.helsdonphotography.com","working_hour":"Monday 12:00 am - 12:00 am   Tuesday 12:00 am - 12:00 am   Wednesday 12:00 am - 12:00 am   Thursday 12:00 am - 12:00 am   Friday 12:00 am - 12:00 am   Saturday 12:00 am - 12:00 am   Sunday 12:00 am - 12:00 am   Appointment Only   Please Call For Details And Appointment Times.","latitude":"42.860948","longitude":"-80.743312"},{"source":"yellow page","service_name":"Canadian Institute Of Management","category":"professional designation tutoring","phone":"519-681-4168","address":"48 Westbury Ave, London, ON N6J 3G1","postalcode":"N6J 3G1","website":" ","working_hour":"","latitude":"42.9434403","longitude":"-81.2719602"},{"source":"yellow page","service_name":"Success Link Marketing","category":"professional designation tutoring","phone":"5198633392","address":"25 Clyde St, Norwich, ON N0J 1P0","postalcode":"N0J 1P0","website":"http://successlink.org","working_hour":"","latitude":"42.989479","longitude":"-80.602194"},{"source":"yellow page","service_name":"D A Langeman Appraisal Services Limited","category":"professional designation tutoring","phone":"519-637-0390","address":"15 Hepburn Ave, St Thomas, ON N5R 4J4","postalcode":"N5R 4J4","website":" ","working_hour":"Monday 9:00 am - 5:00 pm   Tuesday 9:00 am - 5:00 pm   Wednesday 9:00 am - 5:00 pm   Thursday 9:00 am - 5:00 pm   Friday 9:00 am - 5:00 pm","latitude":"42.762948","longitude":"-81.181895"},{"source":"yellow page","service_name":"Drake International","category":"professional designation tutoring","phone":"519-433-3151","address":"1-201 Queens Ave, London, ON N6A 1J1","postalcode":"N6A 1J1","website":"http://www.drakejobs.com","working_hour":"","latitude":"42.985485","longitude":"-81.24844"},{"source":"yellow page","service_name":"Medical Residence","category":"professional designation tutoring","phone":"5193966628","address":"47 Eastwood Crescent, Kincardine, ON","postalcode":"","website":"http://kumc.edu","working_hour":"","latitude":"44.2420278","longitude":"-81.6059047"},{"source":"yellow page","service_name":"Gilkinson Financial Inc","category":"professional designation tutoring","phone":"519-291-9880","address":"256 Main St E, Listowel, ON N4W 2B7","postalcode":"N4W 2B7","website":" ","working_hour":"","latitude":"43.7302043","longitude":"-80.9498381"},{"source":"yellow page","service_name":"Clarica Paul Van Gerwen","category":"professional designation tutoring","phone":"519-348-9712","address":"37 Ontario Rd, Mitchell, ON N0K 1N0","postalcode":"N0K 1N0","website":" ","working_hour":"Monday 8:00 am - 8:00 pm   Tuesday 8:00 am - 8:00 pm   Wednesday 8:00 am - 8:00 pm   Thursday 8:00 am - 8:00 pm   Friday 8:00 am - 8:00 pm","latitude":"43.4678895","longitude":"-81.1974665"},{"source":"yellow page","service_name":"Mustang Roofing & Exteriors Inc","category":"professional designation tutoring","phone":"519-471-3969","address":"","postalcode":"","website":"http://www.mustangexteriors.com","working_hour":"","latitude":"","longitude":""},{"source":"yellow page","service_name":"Kit Wilson Photography","category":"professional designation tutoring","phone":"519-432-4207","address":"22790 Amiens Rd, Komoka, ON N0L 1R0","postalcode":"N0L 1R0","website":"http://www.kitwilsonphotography.ca","working_hour":"","latitude":"42.9372524","longitude":"-81.4629705"},{"source":"yellow page","service_name":"The Elite Engineering Group Inc","category":"professional designation tutoring","phone":"519-280-5384","address":"ON","postalcode":"","website":"http://www.eliteengineeringgroup.com/","working_hour":"Monday 9:00 am - 5:00 pm   Tuesday 9:00 am - 5:00 pm   Wednesday 9:00 am - 5:00 pm   Thursday 9:00 am - 5:00 pm   Friday 9:00 am - 5:00 pm","latitude":"","longitude":""},{"source":"yellow page","service_name":"Cambri Management Inc","category":"professional designation tutoring","phone":"5194743006","address":"11-1673 Richmond St, London, ON N6G 2N3","postalcode":"N6G 2N3","website":" ","working_hour":"Monday 9:00 am - 4:00 pm   Tuesday 9:00 am - 4:00 pm   Wednesday 9:00 am - 4:00 pm   Thursday 9:00 am - 4:00 pm   Friday 9:00 am - 12:00 pm","latitude":"43.025101","longitude":"-81.2819004"},{"source":"yellow page","service_name":"Dante Club Bocciofila","category":"professional designation tutoring","phone":"5195428578","address":"1330 London Rd, Sarnia, ON N7S 1P7","postalcode":"N7S 1P7","website":" ","working_hour":"","latitude":"42.980052","longitude":"-82.356192"},{"source":"yellow page","service_name":"Math Plus Tutors","category":"professional designation tutoring","phone":"519-542-1999","address":"805 Christina St N, Point Edward, ON N7V 1X6","postalcode":"N7V 1X6","website":" ","working_hour":"Monday 10:00 am - 9:00 pm   Tuesday 10:00 am - 9:00 pm   Wednesday 10:00 am - 9:00 pm   Thursday 10:00 am - 9:00 pm   Friday 10:00 am - 7:30 pm   Saturday 10:00 am - 6:00 pm   Sunday 10:00 am - 6:00 pm","latitude":"42.9901288","longitude":"-82.3968693"},{"source":"yellow page","service_name":"Ray Michael Dr","category":"professional designation tutoring","phone":"519-332-5999","address":"855 Exmouth St, Sarnia, ON N7T 5R3","postalcode":"N7T 5R3","website":" ","working_hour":"Monday 10:00 am - 7:00 pm   Tuesday 10:00 am - 7:00 pm   Wednesday 10:00 am - 7:00 pm   Thursday 10:00 am - 7:00 pm","latitude":"42.985068","longitude":"-82.378863"},{"source":"yellow page","service_name":"Robert E Dale Limited","category":"professional designation tutoring","phone":"519-337-7211","address":"208-429 Exmouth St, Sarnia, ON N7T 5P1","postalcode":"N7T 5P1","website":"http://www.redaleltd.ca","working_hour":"","latitude":"42.98533","longitude":"-82.388634"},