{"table":[{"source":"yellow page","service_name":"Southern Breeze Tanning Salon","category":"tanning","phone":"613-433-9797","address":"372 Raglan St S, Renfrew, ON K7V 1R7","postalcode":"K7V 1R7","website":" ","working_hour":"Monday 9:00 am - 7:00 pm   Tuesday 9:00 am - 7:00 pm   Wednesday 9:00 am - 7:00 pm   Thursday 9:00 am - 7:00 pm   Friday 9:00 am - 7:00 pm","latitude":"45.469361","longitude":"-76.680874"},{"source":"yellow page","service_name":"Suntek Studio","category":"tanning","phone":"613-836-4316","address":"121 Cardevco Rd RR 2, Carp, ON K0A 1L0","postalcode":"K0A 1L0","website":" ","working_hour":"","latitude":"45.2921606","longitude":"-75.9770427"},{"source":"yellow page","service_name":"Tropical Escape","category":"tanning","phone":"6132537888","address":"37 Lansdowne Ave, Carleton Place, ON K7C 3S9","postalcode":"K7C 3S9","website":" ","working_hour":"Monday 8:30 am - 7:00 pm   Tuesday 8:30 am - 7:00 pm   Wednesday 8:30 am - 7:00 pm   Thursday 8:30 am - 7:00 pm   Friday 8:30 am - 6:00 pm   Saturday 10:00 am - 4:00 pm","latitude":"45.1359537","longitude":"-76.1408975"},{"source":"yellow page","service_name":"L'Evasion Tropicale","category":"tanning","phone":"819-986-9665","address":"440, rue Charles, Gatineau, QC J8L 2K3","postalcode":"J8L 2K3","website":" ","working_hour":"","latitude":"45.588785","longitude":"-75.415731"},{"source":"yellow page","service_name":"Magic Tan","category":"tanning","phone":"613-632-6125","address":"382 Main St E, Hawkesbury, ON K6A 1A9","postalcode":"K6A 1A9","website":"http://magictaninc.com/","working_hour":"Monday 9:00 am - 8:00 pm   Tuesday 9:00 am - 8:00 pm   Wednesday 9:00 am - 8:00 pm   Thursday 9:00 am - 8:00 pm   Friday 9:00 am - 8:00 pm   Saturday 10:00 am - 5:00 pm   Sunday 11:00 am - 4:00 am","latitude":"45.6103644","longitude":"-74.6054557"},{"source":"yellow page","service_name":"Palm Beach Mega Tan - Orleans","category":"tanning","phone":"613-834-8826","address":"900 Watters, Orleans, ON K4A 0B4","postalcode":"K4A 0B4","website":" ","working_hour":"","latitude":"45.482976","longitude":"-75.475574"},{"source":"yellow page","service_name":"Nue O Soleil","category":"tanning","phone":"819-986-9990","address":"439, av de Buckingham, Gatineau, QC J8L 2G8","postalcode":"J8L 2G8","website":" ","working_hour":"Monday 11:00 am - 10:00 pm   Tuesday 11:00 am - 10:00 pm   Wednesday 11:00 am - 10:00 pm   Thursday 11:00 am - 10:00 pm   Friday 11:00 am - 10:00 pm   Saturday 11:00 am - 6:00 pm   Sunday 12:00 am - 6:00 pm","latitude":"45.588227","longitude":"-75.416837"},{"source":"yellow page","service_name":"Mi-Syl Santé","category":"tanning","phone":"819-427-8281","address":"154 St Denis, Papineauville, QC J0V 1R0","postalcode":"J0V 1R0","website":" ","working_hour":"","latitude":"45.6161666","longitude":"-75.0235691"},{"source":"yellow page","service_name":"Tropical Tanning Esthetics By Miriam","category":"tanning","phone":"6139336371","address":"725 Pitt St, Cornwall, ON K6J 3S1","postalcode":"K6J 3S1","website":" ","working_hour":"","latitude":"45.027067","longitude":"-74.73362"},{"source":"yellow page","service_name":"Sundeck Tanning","category":"tanning","phone":"6139373758","address":"100 Second St W, Cornwall, ON K6J 1G5","postalcode":"K6J 1G5","website":" ","working_hour":"Monday 9:00 am - 9:00 pm   Tuesday 9:00 am - 9:00 pm   Wednesday 9:00 am - 9:00 pm   Thursday 9:00 am - 9:00 pm   Friday 9:00 am - 9:00 pm   Saturday 9:00 am - 5:00 pm","latitude":"45.017492","longitude":"-74.731328"},{"source":"yellow page","service_name":"Ns Beauty Zone","category":"tanning","phone":"613-525-0091","address":"4162 County Rd 34, Green Valley, ON K0C 1L0","postalcode":"K0C 1L0","website":" ","working_hour":"Monday 7:00 am - 9:00 pm   Tuesday 7:00 am - 9:00 pm   Wednesday 7:00 am - 9:00 pm   Thursday 7:00 am - 9:00 pm   Friday 7:00 am - 9:00 pm   Saturday 8:00 am - 9:00 pm   Sunday 9:00 am - 7:00 pm","latitude":"45.2574566","longitude":"-74.5963986"},{"source":"yellow page","service_name":"Carte Blanche Bronzage Corporation","category":"tanning","phone":"613-841-3735","address":"2020 Lanthier Dr, Orleans, ON K4A 3V4","postalcode":"K4A 3V4","website":" ","working_hour":"","latitude":"45.458396","longitude":"-75.492587"},{"source":"yellow page","service_name":"Bronzage 2000","category":"tanning","phone":"613-446-0256","address":"1380 Laurier St, Rockland, ON K4K 1C7","postalcode":"K4K 1C7","website":" ","working_hour":"","latitude":"45.5525314","longitude":"-75.2863486"},{"source":"yellow page","service_name":"Tan on The Run Ottawa","category":"tanning","phone":"613-878-0274","address":"561 Petrichor Cres, Orléans, ON K4A 0Y4","postalcode":"K4A 0Y4","website":" ","working_hour":"24 hours a day - 7 days a week","latitude":"45.452512","longitude":"-75.490019"},{"source":"yellow page","service_name":"SecureTAN","category":"tanning","phone":"613-203-0388","address":"3349 Navan Rd, Navan, ON K4B 1H9","postalcode":"K4B 1H9","website":" ","working_hour":"","latitude":"45.427685","longitude":"-75.504254"},{"source":"yellow page","service_name":"Bronz'Eau Soleil","category":"tanning","phone":"613-632-4479","address":"1067 Main St E, Hawkesbury, ON K6A 1B8","postalcode":"K6A 1B8","website":" ","working_hour":"","latitude":"45.609833","longitude":"-74.592181"},{"source":"yellow page","service_name":"Bronzage Tropical Tanning","category":"tanning","phone":"6134465335","address":"2619 Laurier, Rockland, ON","postalcode":"","website":" ","working_hour":"","latitude":"45.5435268","longitude":"-75.2983866"},{"source":"yellow page","service_name":"Itan Studios (Merivale) Inc","category":"tanning","phone":"613-730-9779","address":"1867 Merivale Rd, Nepean, ON K2G 1E3","postalcode":"K2G 1E3","website":"http://www.southernlites.ca","working_hour":"","latitude":"45.334132","longitude":"-75.723632"},{"source":"yellow page","service_name":"iTan Advanced Tanning Studios","category":"tanning","phone":"613-248-4242","address":"1765 St. Laurent Blvd, Ottawa, ON K1G 3V4","postalcode":"K1G 3V4","website":" ","working_hour":"","latitude":"45.40436","longitude":"-75.626007"},{"source":"yellow page","service_name":"Mirage Tanning Centre","category":"tanning","phone":"613-736-8135","address":"5-2 Lorry Greenberg Dr, Ottawa, ON K1G 5H6","postalcode":"K1G 5H6","website":" ","working_hour":"","latitude":"45.369756","longitude":"-75.621325"},{"source":"yellow page","service_name":"iTAN Studios Corp","category":"tanning","phone":"613-274-0081","address":"2-1867 Merivale Rd, Nepean, ON K2G 1E3","postalcode":"K2G 1E3","website":" ","working_hour":"","latitude":"45.334132","longitude":"-75.723632"},{"source":"yellow page","service_name":"Du Soleil Tanning Studio","category":"tanning","phone":"613-258-0400","address":"2878 County Road 43 RR 1, Kemptville, ON K0G 1J0","postalcode":"K0G 1J0","website":"http://www.dusoleiltanningstudio.com","working_hour":"Because Our Hours Change By Season We Invite You To Call Anytime To Enquire.","latitude":"45.0255166","longitude":"-75.6450359"},{"source":"yellow page","service_name":"Itan Advanced Tanning Studios","category":"tanning","phone":"613-562-4826","address":"2-1867 Merivale Rd, Nepean, ON K2G 1E3","postalcode":"K2G 1E3","website":"http://www.itanstudios.com","working_hour":"","latitude":"45.334132","longitude":"-75.723632"},{"source":"yellow page","service_name":"Itan Advanced Tanning Studios","category":"tanning","phone":"613-823-8528","address":"3191 Strandherd Dr, Ottawa, ON K2J 4V1","postalcode":"K2J 4V1","website":" ","working_hour":"","latitude":"45.278955","longitude":"-75.725583"},{"source":"yellow page","service_name":"Bel-O-Sol Tanning Salon Inc","category":"tanning","phone":"6135233295","address":"1836 Bank St, Ottawa, ON K1V 7Y6","postalcode":"K1V 7Y6","website":"http://www.ottawatanningsalon.com","working_hour":"Monday 9:00 am - 9:00 pm   Tuesday 9:00 am - 9:00 pm   Wednesday 9:00 am - 9:00 pm   Thursday 9:00 am - 9:00 pm   Friday 9:00 am - 9:00 pm   Saturday 9:00 am - 7:00 pm   Sunday 10:00 am - 6:00 pm","latitude":"45.3713605","longitude":"-75.6638409"},{"source":"yellow page","service_name":"Ocean Tanning","category":"tanning","phone":"613-498-1740","address":"163 Ormond St, Brockville, ON K6V 7E6","postalcode":"K6V 7E6","website":" ","working_hour":"","latitude":"44.5982238","longitude":"-75.6843072"},{"source":"yellow page","service_name":"The Beach Tanning Salon","category":"tanning","phone":"613-544-0394","address":"396 Princess St, Kingston, ON K7L 5N3","postalcode":"K7L 5N3","website":"http://www.mrsuntan.com","working_hour":"","latitude":"44.233107","longitude":"-76.492171"},{"source":"yellow page","service_name":"Sundeck Tanning Salon","category":"tanning","phone":"6134984826","address":"27 King St E, Brockville, ON K6V 1A7","postalcode":"K6V 1A7","website":" ","working_hour":"","latitude":"44.591081","longitude":"-75.681905"},{"source":"yellow page","service_name":"Fabutan Sun Tan Studios","category":"tanning","phone":"613-384-0030","address":"1650 Bath Road, Kingston, ON K7M 4X6","postalcode":"K7M 4X6","website":" ","working_hour":"","latitude":"44.237269","longitude":"-76.566886"},{"source":"yellow page","service_name":"Du Soleil Tanning Studio","category":"tanning","phone":"6132830422","address":"23 Beckwith St N, Smiths Falls, ON K7A 2B2","postalcode":"K7A 2B2","website":"http://dusoleiltanningstudio.com","working_hour":"","latitude":"44.90024","longitude":"-76.02122"},{"source":"yellow page","service_name":"Palm Beach Mega Tan","category":"tanning","phone":"6136348400","address":"770 Gardiners Rd, Kingston, ON K7M 3X9","postalcode":"K7M 3X9","website":"http://www.palmbeachmegatan.com","working_hour":"","latitude":"44.249237","longitude":"-76.567971"},{"source":"yellow page","service_name":"Palm Beach Mega Tan","category":"tanning","phone":"613-345-6888","address":"1981 Parkedale Ave E, Brockville, ON K6V 5T2","postalcode":"K6V 5T2","website":" ","working_hour":"","latitude":"44.612004","longitude":"-75.687568"},{"source":"yellow page","service_name":"Artswear & Tanning Plus","category":"tanning","phone":"613-635-7500","address":"185 Pembroke W, Pembroke, ON K8A 5M8","postalcode":"K8A 5M8","website":" ","working_hour":"","latitude":"45.8249717","longitude":"-77.1171951"},{"source":"yellow page","service_name":"Sunsation Tanning","category":"tanning","phone":"613-687-6006","address":"3351 Petawawa Blvd, Petawawa, ON K8H 1X7","postalcode":"K8H 1X7","website":" ","working_hour":"Monday 9:00 am - 9:00 pm   Tuesday 9:00 am - 9:00 pm   Wednesday 9:00 am - 9:00 pm   Thursday 9:00 am - 9:00 pm   Friday 9:00 am - 7:00 pm   Saturday 10:00 am - 6:00 pm   Sunday 11:00 am - 5:00 pm","latitude":"45.895632","longitude":"-77.278962"},{"source":"yellow page","service_name":"The Hot Spot","category":"tanning","phone":"613-732-4446","address":"1041 Pembroke St W, Pembroke, ON K8A 5R3","postalcode":"K8A 5R3","website":" ","working_hour":"Monday 11:00 am - 4:00 pm   Tuesday 11:00 am - 4:00 pm   Wednesday 11:00 am - 4:00 pm   Thursday 11:00 am - 4:00 pm   Friday 11:00 am - 4:00 pm","latitude":"45.8302305","longitude":"-77.1397175"},{"source":"yellow page","service_name":"Paradise Tanning","category":"tanning","phone":"613-478-3630","address":"319 Victoria N, Tweed, ON K0K 3J0","postalcode":"K0K 3J0","website":"http://www.paradisetanningpa.com/","working_hour":"","latitude":"44.4783058","longitude":"-77.3138292"},{"source":"yellow page","service_name":"Palm Beach Mega Tan","category":"tanning","phone":"613-392-5800","address":"266 Dundas St E, Trenton, ON K8V 5Z9","postalcode":"K8V 5Z9","website":" ","working_hour":"","latitude":"44.1047069","longitude":"-77.5585481"},{"source":"yellow page","service_name":"Sunsational Sun Tanning Salon","category":"tanning","phone":"613-968-7875","address":"444 Dundas St E, Belleville, ON K8N 1E9","postalcode":"K8N 1E9","website":" ","working_hour":"Seasonal Hours - Call For Current Hours 6139687875","latitude":"44.1669417","longitude":"-77.3553409"},{"source":"yellow page","service_name":"Palm Beach Megatan","category":"tanning","phone":"613-354-7001","address":"113 Richmond Blvd, Napanee, ON K7R 3Z8","postalcode":"K7R 3Z8","website":" ","working_hour":"","latitude":"44.2631876","longitude":"-76.956646"},{"source":"yellow page","service_name":"Wellness In The Woods Salon Spa & Tanning","category":"tanning","phone":"613-354-0067","address":"7836-A County Road 2, Napanee, ON K7R 3K6","postalcode":"K7R 3K6","website":"http://www.wellnessinthewoods.com","working_hour":"Monday 9:00 am - 5:00 pm   Tuesday 9:00 am - 5:00 pm   Wednesday 9:00 am - 5:00 pm   Thursday 9:00 am - 5:00 pm   Friday 9:00 am - 5:00 pm","latitude":"44.2466265","longitude":"-76.9062817"},{"source":"yellow page","service_name":"Palm Beach Mega Tan","category":"tanning","phone":"613-962-1888","address":"145 Bell Blvd, Belleville, ON K8P 5N8","postalcode":"K8P 5N8","website":"http://www.palmbeachmegatan.com","working_hour":"","latitude":"44.1862393","longitude":"-77.405235"},{"source":"yellow page","service_name":"Cajun Tanz","category":"tanning","phone":"705-738-4040","address":"221 Main, ON K0M 1A0","postalcode":"K0M 1A0","website":" ","working_hour":"Monday 10:00 am - 7:00 pm   Tuesday 10:00 am - 7:00 pm   Wednesday 10:00 am - 7:00 pm   Thursday 10:00 am - 7:00 pm   Friday 10:00 am - 7:00 pm   Saturday 10:00 am - 5:00 pm","latitude":"44.583994","longitude":"-78.472544"},{"source":"yellow page","service_name":"Endless Summer Tanning & Nail Lounge","category":"tanning","phone":"6134765124","address":"14 Elizabeth St, Picton, ON K0K 2T0","postalcode":"K0K 2T0","website":" ","working_hour":"","latitude":"43.95061","longitude":"-77.203992"},{"source":"yellow page","service_name":"Golden Glow Tan","category":"tanning","phone":"705-876-9835","address":"1135 Lansdowne St W, Peterborough, ON K9J 7M2","postalcode":"K9J 7M2","website":"http://www.goldenglowtan.ca","working_hour":"Monday 9:00 am - 9:00 pm   Tuesday 9:00 am - 9:00 pm   Wednesday 9:00 am - 9:00 pm   Thursday 9:00 am - 9:00 pm   Friday 9:00 am - 9:00 pm   Saturday 9:00 am - 5:00 pm   Sunday 12:00 am - 5:00 pm","latitude":"44.281164","longitude":"-78.348359"},{"source":"yellow page","service_name":"Nu Bodies Fitness & Tanning World","category":"tanning","phone":"705-743-4994","address":"184 Marina Blvd, Peterborough, ON K9H 6M9","postalcode":"K9H 6M9","website":" ","working_hour":"Monday 5:00 am - 10:00 pm   Tuesday 5:00 am - 10:00 pm   Wednesday 5:00 am - 10:00 pm   Thursday 5:00 am - 10:00 pm   Friday 5:00 am - 10:00 pm   Saturday 7:00 am - 5:30 pm   Sunday 7:00 am - 5:30 pm","latitude":"44.332765","longitude":"-78.322745"},{"source":"yellow page","service_name":"Palm Beach Mega Tan","category":"tanning","phone":"705-745-3964","address":"864 Chemong Rd, Peterborough, ON K9H 5Z8","postalcode":"K9H 5Z8","website":"http://www.palmbeachmegatan.com","working_hour":"","latitude":"44.319481","longitude":"-78.332005"},{"source":"yellow page","service_name":"Trish's Hair Design","category":"tanning","phone":"7058871536","address":"9 Francis St W, Fenelon Falls, ON K0M 1N0","postalcode":"K0M 1N0","website":"http://trishshairdesign.com","working_hour":"","latitude":"44.537257","longitude":"-78.7368607"},{"source":"yellow page","service_name":"Carls Tanning Zone","category":"tanning","phone":"705-328-9656","address":"169 Queen St, Lindsay, ON K9V 1H5","postalcode":"K9V 1H5","website":" ","working_hour":"Monday 10:00 am - 8:00 pm   Tuesday 10:00 am - 8:00 pm   Wednesday 10:00 am - 8:00 pm   Thursday 10:00 am - 8:00 pm   Friday 10:00 am - 7:00 pm   Saturday 10:00 am - 4:00 pm   Sunday 10:00 am - 4:00 pm","latitude":"44.3611323","longitude":"-78.7210097"},{"source":"yellow page","service_name":"Sundaze Tanning Lounge","category":"tanning","phone":"705-745-0982","address":"194 Charlotte St, Peterborough, ON K9J 2T8","postalcode":"K9J 2T8","website":" ","working_hour":"Monday 10:00 am - 9:00 pm   Tuesday 10:00 am - 9:00 pm   Wednesday 10:00 am - 9:00 pm   Thursday 10:00 am - 9:00 pm   Friday 10:00 am - 9:00 pm   Saturday 12:00 pm - 5:00 pm   Sunday 12:00 pm - 5:00 pm","latitude":"44.303357","longitude":"-78.321468"},{"source":"yellow page","service_name":"Bronze Bliss Tanning Inc","category":"tanning","phone":"705-324-9365","address":"370 Kent St W, Lindsay, ON K9V 6G8","postalcode":"K9V 6G8","website":"http://www.bronzebliss.ca","working_hour":"","latitude":"44.3507539","longitude":"-78.7568745"},{"source":"yellow page","service_name":"Sun City Tanning Studio","category":"tanning","phone":"7054540250","address":"6670 Hwy 35, Coboconk, ON K0M 1K0","postalcode":"K0M 1K0","website":" ","working_hour":"","latitude":"44.6591842","longitude":"-78.7980077"},{"source":"yellow page","service_name":"Mirage Tanning Center","category":"tanning","phone":"613-742-7888","address":"C8-2200 Montreal Road, Gloucester, ON K1J 6M5","postalcode":"K1J 6M5","website":" ","working_hour":"","latitude":"45.450052","longitude":"-75.587318"},{"source":"yellow page","service_name":"Caribbean Exposure","category":"tanning","phone":"6137472820","address":"1980 Ogilvie Rd, Gloucester, ON K1J 9L3","postalcode":"K1J 9L3","website":" ","working_hour":"","latitude":"45.434174","longitude":"-75.611513"},{"source":"yellow page","service_name":"Instant Attraction Spray Tanning","category":"tanning","phone":"613-421-4664","address":"204 St. Patrick St, Ottawa, ON K1N 5K3","postalcode":"K1N 5K3","website":" ","working_hour":"","latitude":"45.43031","longitude":"-75.694114"},{"source":"yellow page","service_name":"Mirage Tanning Centre","category":"tanning","phone":"6137420806","address":"2200 Montreal Road, Gloucester, ON K1J 6M5","postalcode":"K1J 6M5","website":" ","working_hour":"","latitude":"45.450262","longitude":"-75.587074"},{"source":"yellow page","service_name":"ITAN Studios (Elgin) Inc","category":"tanning","phone":"613-798-8249","address":"190 MacLaren St, Ottawa, ON K2P 0L6","postalcode":"K2P 0L6","website":" ","working_hour":"","latitude":"45.417072","longitude":"-75.690066"},{"source":"yellow page","service_name":"Studio Natanielle & Bronzage Sunset Beach Inc","category":"tanning","phone":"819-669-3075","address":"922, boul Maloney E, Gatineau, QC J8P 1H5","postalcode":"J8P 1H5","website":" ","working_hour":"","latitude":"45.490409","longitude":"-75.594898"},{"source":"yellow page","service_name":"Acapulco Beach Tanning Studio","category":"tanning","phone":"613-741-8826","address":"385 McArthur Ave, Vanier, ON K1L 6N5","postalcode":"K1L 6N5","website":" ","working_hour":"","latitude":"45.432019","longitude":"-75.650356"},{"source":"yellow page","service_name":"Bronzage Ultime","category":"tanning","phone":"819-663-2555","address":"425, boul La Vérendrye E, Gatineau, QC J8R 2W8","postalcode":"J8R 2W8","website":" ","working_hour":"","latitude":"45.501057","longitude":"-75.640732"},{"source":"yellow page","service_name":"Salon de Bronzage Flamingo","category":"tanning","phone":"819-643-3030","address":"160, boul Saint-René O, Gatineau, QC J8P 2V4","postalcode":"J8P 2V4","website":" ","working_hour":"","latitude":"45.4921116","longitude":"-75.6528993"},{"source":"yellow page","service_name":"iTAN Studios","category":"tanning","phone":"613-562-1437","address":"133 Besserer St, Ottawa, ON K1N 6A7","postalcode":"K1N 6A7","website":" ","working_hour":"","latitude":"45.42654","longitude":"-75.688927"},{"source":"yellow page","service_name":"Tans To Go Mobile Tanning Service","category":"tanning","phone":"9022293512","address":"NS","postalcode":"","website":" ","working_hour":"","latitude":"45.420421","longitude":"-75.692432"},{"source":"yellow page","service_name":"Bronzage Ultime","category":"tanning","phone":"819-770-2220","address":"424, rue Saint-Mathieu, Gatineau, QC J8P 2X9","postalcode":"J8P 2X9","website":" ","working_hour":"","latitude":"45.4893643","longitude":"-75.6671058"},{"source":"yellow page","service_name":"Bronzage2go","category":"tanning","phone":"613-600-8157","address":"99 Cousineau, Gatineau, ON J8T 3R9","postalcode":"J8T 3R9","website":" ","working_hour":"","latitude":"45.464341","longitude":"-75.701966"},{"source":"yellow page","service_name":"Aqua Beach Tanning And Spa","category":"tanning","phone":"6137454747","address":"1437 Ogilvie Rd, Gloucester, ON K1J 7P3","postalcode":"K1J 7P3","website":" ","working_hour":"","latitude":"45.431625","longitude":"-75.61813"},{"source":"yellow page","service_name":"Il Paradiso Spa & Tanning","category":"tanning","phone":"613-249-8383","address":"2277 Riverside Dr, Ottawa, ON K1H 7X6","postalcode":"K1H 7X6","website":"http://precisionstyling.ca","working_hour":"","latitude":"45.3867005","longitude":"-75.6799921"},{"source":"yellow page","service_name":"Midnight Sun","category":"tanning","phone":"6137270646","address":"780 Baseline Rd, Ottawa, ON K2C 3V8","postalcode":"K2C 3V8","website":" ","working_hour":"","latitude":"45.371059","longitude":"-75.717386"},{"source":"yellow page","service_name":"Caribbean Exposure","category":"tanning","phone":"613-228-2826","address":"1642 Merivale Rd, Nepean, ON K2G 4A1","postalcode":"K2G 4A1","website":"http://www.caribbeanexposure.ca","working_hour":"","latitude":"45.345851","longitude":"-75.730563"},{"source":"yellow page","service_name":"Bronzage Ultime","category":"tanning","phone":"819-243-3535","address":"225 Boulevard de la Gappe, Ottawa-Gatineau Metro Area, QC J8T 7Y3","postalcode":"J8T 7Y3","website":" ","working_hour":"","latitude":"45.475964","longitude":"-75.706695"},{"source":"yellow page","service_name":"Salon De Bronzage Le Tropical","category":"tanning","phone":"819-776-6484","address":"697, boul Saint-Joseph, Gatineau, QC J8Y 4B4","postalcode":"J8Y 4B4","website":" ","working_hour":"","latitude":"45.4548816","longitude":"-75.7409595"},{"source":"yellow page","service_name":"La Villa du Soleil","category":"tanning","phone":"819-568-1551","address":"355, boul Gréber, Gatineau, QC J8T 6H8","postalcode":"J8T 6H8","website":" ","working_hour":"","latitude":"45.479226","longitude":"-75.701112"},{"source":"yellow page","service_name":"Bronzage Malibu Spa","category":"tanning","phone":"8196843883","address":"181 rue Principale, Gatineau, QC J9H 6A6","postalcode":"J9H 6A6","website":" ","working_hour":"","latitude":"45.395514","longitude":"-75.835468"},{"source":"yellow page","service_name":"Santa Fe Sun Tanning","category":"tanning","phone":"613-270-0632","address":"14-500 Eagleson Rd, Kanata, ON K2M 1H4","postalcode":"K2M 1H4","website":" ","working_hour":"","latitude":"45.290771","longitude":"-75.869565"},{"source":"yellow page","service_name":"Malibu Spa","category":"tanning","phone":"8196826252","address":"181 rue Principale, Gatineau, QC J9H 6A6","postalcode":"J9H 6A6","website":"http://www.malibuinc.ca","working_hour":"","latitude":"45.395514","longitude":"-75.835468"},{"source":"yellow page","service_name":"Paradise Spa & Tanning","category":"tanning","phone":"613-820-8887","address":"105-1902 Robertson Rd, Nepean, ON K2H 5B8","postalcode":"K2H 5B8","website":"http://www.paradisespaandtanning.com","working_hour":"","latitude":"45.3064922","longitude":"-75.8707041"},{"source":"yellow page","service_name":"Studio Top Bronzage","category":"tanning","phone":"819-684-1221","address":"99, rue Principale, Gatineau, QC J9H 3L9","postalcode":"J9H 3L9","website":"http://www.facebook.com/#!/pages/STUDIO-TOP-BRONZAGE-TANNING-/132635270091481","working_hour":"","latitude":"45.394838","longitude":"-75.845846"},{"source":"yellow page","service_name":"ITAN Studio","category":"tanning","phone":"613-831-4257","address":"474 Hazeldean Rd, Kanata, ON K2L 4E5","postalcode":"K2L 4E5","website":" ","working_hour":"","latitude":"45.297753","longitude":"-75.888866"},{"source":"yellow page","service_name":"IL Paradiso Spa & Tanning","category":"tanning","phone":"613-829-9393","address":"2525 Carling Ave, Ottawa, ON K2B 7Z2","postalcode":"K2B 7Z2","website":"http://www.ilparadiso.ca","working_hour":"Monday 9:00 am - 6:00 pm   Tuesday 9:00 am - 7:00 pm   Wednesday 9:00 am - 9:00 pm   Thursday 9:00 am - 9:00 pm   Friday 9:00 am - 9:00 pm   Saturday 9:00 am - 6:00 pm   Sunday 11:00 am - 5:00 pm","latitude":"45.363963","longitude":"-75.785079"},{"source":"yellow page","service_name":"Monaco Beauté","category":"tanning","phone":"450-744-1840","address":"6-695, ch Avila, Piedmont, QC J0R 1R3","postalcode":"J0R 1R3","website":" ","working_hour":"","latitude":"45.8889848","longitude":"-74.1447244"},{"source":"yellow page","service_name":"Salon De Bronzage Kheperatan","category":"tanning","phone":"450-424-2715","address":"2015, ch Sainte-Angélique, Saint-Lazare, QC J7T 2Y5","postalcode":"J7T 2Y5","website":" ","working_hour":"","latitude":"45.4005409","longitude":"-74.143735"},{"source":"yellow page","service_name":"Line Beaudoin Coiffure et Bronzage","category":"tanning","phone":"450-240-5678","address":"200, rue Principale, Saint-Sauveur, QC J0R 1R0","postalcode":"J0R 1R0","website":" ","working_hour":"Monday 9:00 am - 7:00 pm   Tuesday 9:00 am - 7:00 pm   Wednesday 9:00 am - 7:00 pm   Thursday 9:00 am - 7:00 pm   Friday 9:00 am - 7:00 pm","latitude":"45.8956181","longitude":"-74.1565393"},{"source":"yellow page","service_name":"Bronzage Action Soleil","category":"tanning","phone":"450-456-9650","address":"590, 201 Rte, St-Clet, QC J0P 1S0","postalcode":"J0P 1S0","website":" ","working_hour":"","latitude":"45.337906","longitude":"-74.245956"},{"source":"yellow page","service_name":"Bronzage Oceania","category":"tanning","phone":"4504915752","address":"3763 ch d'Oka d', Saint-Joseph-du-Lac, QC J0N 1M0","postalcode":"J0N 1M0","website":" ","working_hour":"","latitude":"45.536336","longitude":"-74.003202"},{"source":"yellow page","service_name":"Bronzage Midi Soleil","category":"tanning","phone":"450-455-1239","address":"110B rue Joseph Carrier, Vaudreuil-Dorion, QC J7V 5V5","postalcode":"J7V 5V5","website":"http://www.bronzagemidisoleil.com","working_hour":"","latitude":"45.4117271","longitude":"-74.0399278"},{"source":"yellow page","service_name":"L'Escale Santé Beauté","category":"tanning","phone":"450-744-0130","address":"895, boul des Laurentides RR 112, Piedmont, QC J0R 1K0","postalcode":"J0R 1K0","website":" ","working_hour":"Monday 9:00 am - 7:00 pm   Tuesday 9:00 am - 7:00 pm   Wednesday 9:00 am - 7:00 pm   Thursday 9:00 am - 7:00 pm   Friday 9:00 am - 7:00 pm   Saturday 10:00 am - 7:00 pm","latitude":"45.9124809","longitude":"-74.1470537"},{"source":"yellow page","service_name":"Bronzage Magie Soleil","category":"tanning","phone":"450-438-5210","address":"2140, boul du Curé-Labelle, Saint-Jérôme, QC J7Y 1T2","postalcode":"J7Y 1T2","website":" ","working_hour":"","latitude":"45.8015759","longitude":"-74.0112714"},{"source":"yellow page","service_name":"Bronzage International 2005","category":"tanning","phone":"450-438-3433","address":"500 Blvd des Laurentides, St Jérôme, QC J7Z 4M2","postalcode":"J7Z 4M2","website":" ","working_hour":"","latitude":"45.762645","longitude":"-73.992999"},{"source":"yellow page","service_name":"Art-Esthétique Inc","category":"tanning","phone":"4509904454","address":"1129 boul du Grand-Héron, Saint-Jérôme, QC J5L 1G2","postalcode":"J5L 1G2","website":"http://www.art-esthetique.ca","working_hour":"Tuesday 9:00 am - 8:30 pm   Wednesday 9:00 am - 8:30 pm   Thursday 9:00 am - 8:30 pm   Friday 9:00 am - 8:30 pm   Saturday 9:00 am - 5:00 pm","latitude":"45.7523296","longitude":"-74.0244097"},{"source":"yellow page","service_name":"Le Caveau Ensoleillé","category":"tanning","phone":"450-763-1592","address":"21, rue Principale, Coteau-du-Lac, QC J0P 1B0","postalcode":"J0P 1B0","website":" ","working_hour":"","latitude":"45.294261","longitude":"-74.176819"},{"source":"yellow page","service_name":"Centre esthétique et bronzage Denise St-Aubin","category":"tanning","phone":"4502276557","address":"59B av de la promenade RR 6, Saint-Sauveur, QC J0R 1R6","postalcode":"J0R 1R6","website":" ","working_hour":"","latitude":"45.896879","longitude":"-74.148096"},{"source":"yellow page","service_name":"Salon De Bronzage Cactus","category":"tanning","phone":"450-475-7555","address":"15519, rue de Saint-Augustin, Mirabel, QC J7N 1X5","postalcode":"J7N 1X5","website":" ","working_hour":"Appointment Only","latitude":"45.6266265","longitude":"-73.9734902"},{"source":"yellow page","service_name":"Air Brush Bronzage Sunsationnelle","category":"tanning","phone":"514-953-5266","address":"14, rue McMartin RR 1, Hudson, QC J0P 1H0","postalcode":"J0P 1H0","website":" ","working_hour":"Appointment Only","latitude":"45.448984","longitude":"-74.129594"},{"source":"yellow page","service_name":"Plaisirs Vacances","category":"tanning","phone":"450-565-9797","address":"895, boul des Laurentides, Piedmont, QC J0R 1K0","postalcode":"J0R 1K0","website":"http://www.plaisirsvacances.com","working_hour":"","latitude":"45.9124809","longitude":"-74.1470537"},{"source":"yellow page","service_name":"Ruttan Linda","category":"tanning","phone":"905-372-2100","address":"4036 Hwy 45, Baltimore, ON K0K 1C0","postalcode":"K0K 1C0","website":" ","working_hour":"","latitude":"44.060557","longitude":"-78.119573"},{"source":"yellow page","service_name":"Canada Blue Tanning Co","category":"tanning","phone":"9053720026","address":"96 Alice St, Cobourg, ON K9A 2E4","postalcode":"K9A 2E4","website":" ","working_hour":"","latitude":"43.965341","longitude":"-78.171871"},{"source":"yellow page","service_name":"Scissors Edge Alderville","category":"tanning","phone":"9053522211","address":"Hwy 45, Roseneath, ON K0K 2X0","postalcode":"K0K 2X0","website":"http://scissorsedge.ca","working_hour":"Monday 10:00 am - 7:00 pm   Tuesday 10:00 am - 7:00 pm   Wednesday 10:00 am - 7:00 pm   Thursday 10:00 am - 7:00 pm   Friday 10:00 am - 7:00 pm   Saturday 10:00 am - 6:00 pm","latitude":"44.194799","longitude":"-78.13168"},{"source":"yellow page","service_name":"Tan On The Run","category":"tanning","phone":"416-938-9300","address":"Port Hope, Toronto, ON L1A 0A4","postalcode":"L1A 0A4","website":" ","working_hour":"","latitude":"43.948094","longitude":"-78.315163"},{"source":"yellow page","service_name":"Palm Beach Mega Tan","category":"tanning","phone":"905-377-8172","address":"1 Strathy Rd, Cobourg, ON K9A 5J6","postalcode":"K9A 5J6","website":"http://www.palmbeachmegatan.com","working_hour":"","latitude":"43.97216","longitude":"-78.198325"},{"source":"yellow page","service_name":"Oasis Tans & Boutique","category":"tanning","phone":"705-932-8267","address":"24 King St E, Millbrook, ON L0A 1G0","postalcode":"L0A 1G0","website":"http://oasistansandboutique.com","working_hour":"","latitude":"44.1506771","longitude":"-78.4479499"},{"source":"yellow page","service_name":"Tiki Hut Tanning","category":"tanning","phone":"905-982-0062","address":"1869 Scugog St, Scugog, ON L9L 1J1","postalcode":"L9L 1J1","website":" ","working_hour":"Monday 8:00 am - 10:00 pm   Tuesday 8:00 am - 10:00 pm   Wednesday 8:00 am - 10:00 pm   Thursday 8:00 am - 10:00 pm   Friday 8:00 am - 10:00 pm   Saturday 8:00 am - 11:00 pm","latitude":"44.101562","longitude":"-78.939659"},{"source":"yellow page","service_name":"The Palm Beach Franchise Corporation","category":"tanning","phone":"9054342855","address":"202-1500 King Street East, Courtice, ON L1E 2T5","postalcode":"L1E 2T5","website":" ","working_hour":"","latitude":"43.907503","longitude":"-78.803852"},{"source":"yellow page","service_name":"Pure Nv Tan","category":"tanning","phone":"905-722-8125","address":"20907 Dalton Rd, Sutton West, ON L0E 1R0","postalcode":"L0E 1R0","website":" ","working_hour":"Monday 11:00 am - 8:00 pm   Tuesday 11:00 am - 8:00 pm   Wednesday 11:00 am - 8:00 pm   Thursday 11:00 am - 8:00 pm   Friday 11:00 am - 8:00 pm","latitude":"44.309995","longitude":"-79.365244"},{"source":"yellow page","service_name":"Lavish Salon And Spa Brooklyn Limited","category":"tanning","phone":"905-655-6667","address":"5969 Baldwin S, Whitby, ON L1M 2J7","postalcode":"L1M 2J7","website":" ","working_hour":"","latitude":"43.951789","longitude":"-78.962087"},{"source":"yellow page","service_name":"98 Degrees Tanning","category":"tanning","phone":"9059820448","address":"14500 Simcoe St, Port Perry, ON L9L 1V4","postalcode":"L9L 1V4","website":"http://98degreessalon.ca","working_hour":"Monday 9:00 am - 5:00 pm   Tuesday 9:00 am - 5:00 pm   Wednesday 9:00 am - 5:00 pm   Thursday 9:00 am - 5:00 pm   Friday 9:00 am - 5:00 pm   Saturday 9:00 am - 5:00 pm   Sunday 10:00 am - 4:00 pm","latitude":"44.094942","longitude":"-78.943049"},{"source":"yellow page","service_name":"Tan 7","category":"tanning","phone":"9055795109","address":"1100 Simcoe St N, Oshawa, ON L1G 4W6","postalcode":"L1G 4W6","website":" ","working_hour":"","latitude":"43.926837","longitude":"-78.876357"},{"source":"yellow page","service_name":"Palm Beach Mega Tan","category":"tanning","phone":"9054346342","address":"300 Taunton Rd E, Oshawa, ON L1G 7T4","postalcode":"L1G 7T4","website":"http://www.palmbeachmegatan.com","working_hour":"","latitude":"43.9352175","longitude":"-78.8690642"},{"source":"yellow page","service_name":"Cocoa Heaven Holistics Beauty and Tanning","category":"tanning","phone":"905-493-0356","address":"50 Kirkland Pl, Whitby, ON L1P 1X3","postalcode":"L1P 1X3","website":" ","working_hour":"","latitude":"43.904477","longitude":"-78.974976"},{"source":"yellow page","service_name":"Tropical Rayz","category":"tanning","phone":"905-927-9717","address":"9570 McCowan Rd, Gormley, ON L0H 1G0","postalcode":"L0H 1G0","website":"http://www.tropicalrayz.com","working_hour":"Monday 10:00 am - 9:00 pm   Tuesday 10:00 am - 9:00 pm   Wednesday 10:00 am - 9:00 pm   Thursday 10:00 am - 9:00 pm   Friday 10:00 am - 9:00 pm   Saturday 10:00 am - 6:00 pm   Sunday 12:00 pm - 5:00 pm","latitude":"43.932884","longitude":"-79.089721"},{"source":"yellow page","service_name":"South Beach Tanning Studio Ltd","category":"tanning","phone":"9056657176","address":"130 Dundas St W, Whitby, ON L1N 2L9","postalcode":"L1N 2L9","website":" ","working_hour":"","latitude":"43.87963","longitude":"-78.943132"},{"source":"yellow page","service_name":"Fantastic Tan Studio","category":"tanning","phone":"9054321506","address":"400 King St W, Oshawa, ON L1J 2J9","postalcode":"L1J 2J9","website":" ","working_hour":"Monday 8:00 am - 9:00 pm   Tuesday 8:00 am - 9:00 pm   Wednesday 8:00 am - 9:00 pm   Thursday 8:00 am - 9:00 pm   Friday 8:00 am - 9:00 pm   Saturday 10:00 am - 6:30 pm   Sunday 11:00 am - 5:00 pm","latitude":"43.8943121","longitude":"-78.8779565"},{"source":"yellow page","service_name":"Tanning World Inc","category":"tanning","phone":"905-619-9379","address":"65 Kingston Rd E, Ajax, ON L1S 7J4","postalcode":"L1S 7J4","website":"http://www.isleuth.com/wbsearch.htm?q=tanningandnojsredir","working_hour":"Monday 10:00 am - 10:00 pm   Tuesday 10:00 am - 10:00 pm   Wednesday 10:00 am - 10:00 pm   Thursday 10:00 am - 10:00 pm   Friday 10:00 am - 8:00 pm   Saturday 10:00 am - 6:00 pm   Sunday 10:00 am - 5:00 pm","latitude":"43.86212","longitude":"-79.021593"},{"source":"yellow page","service_name":"Even Tan 2","category":"tanning","phone":"905-250-2332","address":"705 Kingston Rd, Pickering, ON L1V 6K3","postalcode":"L1V 6K3","website":" ","working_hour":"Monday 10:00 am - 9:00 pm   Tuesday 10:00 am - 9:00 pm   Wednesday 10:00 am - 9:00 pm   Thursday 10:00 am - 9:00 pm   Friday 10:00 am - 9:00 pm   Saturday 10:30 am - 6:00 pm   Sunday 12:00 pm - 5:00 pm","latitude":"43.81982","longitude":"-79.114225"},{"source":"yellow page","service_name":"Caribbean Colour","category":"tanning","phone":"905-839-8508","address":"2066 Liverpool Rd, Pickering, ON L1X 1E2","postalcode":"L1X 1E2","website":" ","working_hour":"Monday 9:30 am - 9:30 pm   Tuesday 9:30 am - 9:30 pm   Wednesday 9:30 am - 9:30 pm   Thursday 9:30 am - 9:30 pm   Friday 9:30 am - 9:30 pm   Saturday 10:00 am - 6:00 pm   Sunday 11:00 am - 5:00 pm","latitude":"43.8474008","longitude":"-79.095834"},{"source":"yellow page","service_name":"Fabutan Sun Tan Studios","category":"tanning","phone":"905-686-8187","address":"8-603 Church St N, Ajax, ON L1T 0B8","postalcode":"L1T 0B8","website":" ","working_hour":"","latitude":"43.865445","longitude":"-79.06029"},{"source":"yellow page","service_name":"Fabutan Sun Tan Studios","category":"tanning","phone":"905-421-0111","address":"6-1822 Whites Road, Pickering, ON L1V 4M1","postalcode":"L1V 4M1","website":"http://fabutan.com","working_hour":"","latitude":"43.830997","longitude":"-79.12088"},{"source":"yellow page","service_name":"Perfect Spray Tan","category":"tanning","phone":"905-706-2228","address":"","postalcode":"","website":" ","working_hour":"","latitude":"","longitude":""},{"source":"yellow page","service_name":"Priceless Beauty","category":"tanning","phone":"647-455-1400","address":"1415 Fieldlight Blvd, Pickering, ON L1V 2S3","postalcode":"L1V 2S3","website":"http://www.priceless-beauty.com","working_hour":"By Appointment Only   Please Call For Details & Appointments","latitude":"43.84359","longitude":"-79.089533"},{"source":"yellow page","service_name":"Cool Rays Tanning & Spray Tanning","category":"tanning","phone":"905-426-9900","address":"596 Kingston Rd W, Ajax, ON L1T 3A2","postalcode":"L1T 3A2","website":"http://www.coolrays.ca","working_hour":"Monday 10:00 am - 9:00 pm   Tuesday 10:00 am - 9:00 pm   Wednesday 10:00 am - 9:00 pm   Thursday 10:00 am - 9:00 pm   Friday 10:00 am - 9:00 pm   Saturday 10:00 am - 6:00 pm   Sunday 11:00 am - 5:00 pm","latitude":"43.8546084","longitude":"-79.0552478"},{"source":"yellow page","service_name":"Cool Rays Tanning And Spray Tan","category":"tanning","phone":"905-426-9900","address":"596 Kingston Rd W, Ajax, ON L1T 3A2","postalcode":"L1T 3A2","website":" ","working_hour":"","latitude":"43.8546084","longitude":"-79.0552478"},{"source":"yellow page","service_name":"Sol'exotica","category":"tanning","phone":"7057223575","address":"546 Bryne Dr, Barrie, ON L4N 9P6","postalcode":"L4N 9P6","website":" ","working_hour":"","latitude":"44.3282435","longitude":"-79.6884783"},{"source":"yellow page","service_name":"Fabutan Sun Tan Studios","category":"tanning","phone":"705-721-5116","address":"420 Leacock Drive, Barrie, ON L4N 5G5","postalcode":"L4N 5G5","website":" ","working_hour":"","latitude":"44.391435","longitude":"-79.723127"},{"source":"yellow page","service_name":"Pure Nv Tan","category":"tanning","phone":"905-535-8125","address":"24018 Woodbine Ave, Georgina, ON L4P 3E9","postalcode":"L4P 3E9","website":"http://purenvtan.ca","working_hour":"Monday 11:00 am - 8:00 pm   Tuesday 11:00 am - 8:00 pm   Wednesday 11:00 am - 8:00 pm   Thursday 11:00 am - 8:00 pm   Friday 11:00 am - 8:00 pm   Saturday 11:00 am - 5:00 pm   Sunday 12:00 pm - 5:00 pm","latitude":"44.227059","longitude":"-79.447003"},{"source":"yellow page","service_name":"Palm Beach Mega Tan","category":"tanning","phone":"705-792-1979","address":"555 Essa Rd, Barrie, ON L4N 6A9","postalcode":"L4N 6A9","website":"http://www.palmbeachmegatan.com","working_hour":"","latitude":"44.338365","longitude":"-79.7092364"},{"source":"yellow page","service_name":"Cabana Tan","category":"tanning","phone":"905-778-8268","address":"157 Holland St E, Bradford West Gwillimbury, ON L3Z 2B1","postalcode":"L3Z 2B1","website":"http://cabanatanbradford.com","working_hour":"","latitude":"44.1156061","longitude":"-79.5590674"},{"source":"yellow page","service_name":"Extreme Tanning","category":"tanning","phone":"705-739-5151","address":"2-350 Big Bay Point Rd, Barrie, ON L4N 8A8","postalcode":"L4N 8A8","website":"http://www.extremetanning.ca","working_hour":"Monday 8:30 am - 4:30 pm   Tuesday 8:30 am - 4:30 pm   Wednesday 8:30 am - 4:30 pm   Thursday 8:30 am - 4:30 pm   Friday 8:30 am - 4:30 pm","latitude":"44.3543769","longitude":"-79.6598216"},{"source":"yellow page","service_name":"Rosie Cheeks Mobile Spray Tanning & Teeth Whitening","category":"tanning","phone":"7057176732","address":"117 Leggott Ave, Barrie, ON L4N 8W9","postalcode":"L4N 8W9","website":" ","working_hour":"Tuesday 9:00 am - 4:00 pm   Wednesday 9:00 am - 5:00 pm   Thursday 10:00 am - 8:30 pm   Friday 9:00 am - 4:00 pm   Saturday 10:00 am - 2:00 pm   Appointment Only","latitude":"44.3590393","longitude":"-79.6629687"},{"source":"yellow page","service_name":"California Dreams","category":"tanning","phone":"705-325-1555","address":"425 West St N, Orillia, ON L3V 7R2","postalcode":"L3V 7R2","website":"http://californiadreams.salonpages.ca","working_hour":"","latitude":"44.6226992","longitude":"-79.4316518"},{"source":"yellow page","service_name":"Organic Tan Barrie Orillia","category":"tanning","phone":"705-816-4569","address":"23 Alexander Dr, Orillia, ON L3V 5L9","postalcode":"L3V 5L9","website":"http://barrie.organictan.ca/","working_hour":"Appointment Only   Please Call For Details And Appointments","latitude":"44.622902","longitude":"-79.435838"},{"source":"yellow page","service_name":"Beverly Hills Tanning Centre","category":"tanning","phone":"705-722-3575","address":"546 Bryne Dr, Barrie, ON L4N 9P6","postalcode":"L4N 9P6","website":" ","working_hour":"","latitude":"44.3282435","longitude":"-79.6884783"},{"source":"yellow page","service_name":"Bronze Sensations","category":"tanning","phone":"705-719-7700","address":"D 144 Burton Av, Barrie, ON L4N 2R8","postalcode":"L4N 2R8","website":" ","working_hour":"Monday 9:00 am - 9:00 pm   Tuesday 9:00 am - 9:00 pm   Wednesday 9:00 am - 9:00 pm   Thursday 9:00 am - 9:00 pm   Friday 9:00 am - 9:00 pm   Saturday 10:00 am - 6:00 pm   Sunday 10:00 am - 4:00 pm","latitude":"44.371159","longitude":"-79.683094"},{"source":"yellow page","service_name":"Galaxy Nails Tanning","category":"tanning","phone":"7055035807","address":"636 Yonge St, Barrie, ON L4N 4E6","postalcode":"L4N 4E6","website":" ","working_hour":"","latitude":"44.3560153","longitude":"-79.6453383"},{"source":"yellow page","service_name":"Fabutan Sun Tan Studios","category":"tanning","phone":"705-792-5252","address":"477 Grove St East, Barrie, ON L4M 6M3","postalcode":"L4M 6M3","website":" ","working_hour":"","latitude":"44.4053107","longitude":"-79.6560256"},{"source":"yellow page","service_name":"Beach Bodies","category":"tanning","phone":"705-300-7519","address":"438 West St N, Orillia, ON L3V 5E8","postalcode":"L3V 5E8","website":" ","working_hour":"Monday 9:00 am - 8:00 pm   Tuesday 9:00 am - 8:00 pm   Wednesday 9:00 am - 8:00 pm   Thursday 9:00 am - 8:00 pm   Friday 9:00 am - 7:00 pm   Saturday 9:00 am - 3:00 pm   Seasonal Sundays (January To End Of March) - 11am To 3 Pm","latitude":"44.6238055","longitude":"-79.4325285"},{"source":"yellow page","service_name":"Avaia Salon Spa & Tanning Studio","category":"tanning","phone":"7055583514","address":"9 Front St S, Orillia, ON L3V 4S1","postalcode":"L3V 4S1","website":" ","working_hour":"Monday 9:00 am - 5:00 pm   Tuesday 9:00 am - 5:00 pm   Wednesday 9:00 am - 5:00 pm   Thursday 9:00 am - 5:00 pm   Friday 9:00 am - 5:00 pm   Saturday 9:00 am - 4:00 pm   Appointments Available, Not Required","latitude":"44.609975","longitude":"-79.414337"},{"source":"yellow page","service_name":"The Sun Emporium","category":"tanning","phone":"705-733-2227","address":"10-181 Livingstone St E, Barrie, ON L4N 7J7","postalcode":"L4N 7J7","website":" ","working_hour":"","latitude":"44.4184694","longitude":"-79.6952621"},{"source":"yellow page","service_name":"Adam & Eve Tanning Tattooing & Piercing","category":"tanning","phone":"705-436-2826","address":"11-1070 Innisfil Beach Rd, Innisfil, ON L9S 4T9","postalcode":"L9S 4T9","website":"http://www.adamevetanning.com","working_hour":"","latitude":"44.313637","longitude":"-79.55375"},{"source":"yellow page","service_name":"Tanning Place Ltd","category":"tanning","phone":"905-830-9199","address":"17080 Bathurst St, Newmarket, ON L3X 3A5","postalcode":"L3X 3A5","website":" ","working_hour":"","latitude":"44.0393407","longitude":"-79.5018696"},{"source":"yellow page","service_name":"Second Sun Tanning Studios","category":"tanning","phone":"905-853-8861","address":"17480 Yonge St, Newmarket, ON L3Y 8A7","postalcode":"L3Y 8A7","website":" ","working_hour":"","latitude":"44.053795","longitude":"-79.480176"},{"source":"yellow page","service_name":"Synergy Tanning","category":"tanning","phone":"905-713-2100","address":"297 Wellington St E, Aurora, ON L4G 6K9","postalcode":"L4G 6K9","website":" ","working_hour":"","latitude":"44.0035155","longitude":"-79.4498567"},{"source":"yellow page","service_name":"The Sunroom","category":"tanning","phone":"905-939-0700","address":"17250 Hwy 27, Schomberg, ON L0G 1T0","postalcode":"L0G 1T0","website":" ","working_hour":"","latitude":"44.005781","longitude":"-79.6773207"},{"source":"yellow page","service_name":"Planet Sun Tanning Centres","category":"tanning","phone":"905-830-9777","address":"16640 Yonge St, Unit 11, Newmarket, ON L3X 2N8","postalcode":"L3X 2N8","website":" ","working_hour":"Monday 9:00 am - 9:00 pm   Tuesday 9:00 am - 9:00 pm   Wednesday 9:00 am - 9:00 pm   Thursday 9:00 am - 9:00 pm   Friday 9:00 am - 9:00 pm   Saturday 10:00 am - 5:00 pm   Sunday 12:00 pm - 5:00 pm","latitude":"44.034239","longitude":"-79.475648"},{"source":"yellow page","service_name":"Blaze Tanning Studio","category":"tanning","phone":"905-758-0168","address":"ON","postalcode":"","website":" ","working_hour":"","latitude":"","longitude":""},{"source":"yellow page","service_name":"Sol Exotica Tanning And Spa","category":"tanning","phone":"905-713-1077","address":"150 Hollidge Bl, Aurora, ON L4G 8A3","postalcode":"L4G 8A3","website":" ","working_hour":"","latitude":"44.012488","longitude":"-79.447013"},{"source":"yellow page","service_name":"Bronzeado Tanning Salon","category":"tanning","phone":"9055512409","address":"8-450 Holland St W, Bradford, ON L3Z 0G1","postalcode":"L3Z 0G1","website":" ","working_hour":"","latitude":"44.109497","longitude":"-79.5858219"},{"source":"yellow page","service_name":"Planet Sun Tanning Centres","category":"tanning","phone":"905-715-7797","address":"1111 Davis Dr. Unit 22, Newmarket, ON L3Y 8X2","postalcode":"L3Y 8X2","website":"http://www.planetsun.ca","working_hour":"Monday 10:00 am - 9:00 pm   Tuesday 10:00 am - 9:00 pm   Wednesday 10:00 am - 9:00 pm   Thursday 10:00 am - 9:00 pm   Friday 10:00 am - 9:00 pm   Saturday 10:00 am - 5:00 pm   Sunday 12:00 pm - 5:00 pm","latitude":"44.065971","longitude":"-79.431348"},{"source":"yellow page","service_name":"Sturgeon Zach","category":"tanning","phone":"905-252-9448","address":"ON","postalcode":"","website":" ","working_hour":"","latitude":"","longitude":""},{"source":"yellow page","service_name":"Monaco Sun Organic Spray Tan Inc","category":"tanning","phone":"905-761-7174","address":"207 Edgeley Blvd, Concord, ON L4K 4B5","postalcode":"L4K 4B5","website":"http://www.monacosun.ca","working_hour":"Wednesday 10:00 am - 7:00 pm   Thursday 10:00 am - 7:00 pm   Friday 10:00 am - 7:00 pm   Saturday 10:00 am - 3:00 pm   Appointment Only On Tuesday","latitude":"43.797672","longitude":"-79.53298"},{"source":"yellow page","service_name":"Urban Sun Tanning Gallery","category":"tanning","phone":"9058500237","address":"7540 Weston Rd, Woodbridge, ON L4L 9L9","postalcode":"L4L 9L9","website":" ","working_hour":"Monday 9:00 am - 10:00 pm   Tuesday 9:00 am - 10:00 pm   Wednesday 9:00 am - 10:00 pm   Thursday 9:00 am - 10:00 pm   Friday 9:00 am - 9:00 pm   Saturday 9:00 am - 8:00 pm   Sunday 10:00 am - 6:00 pm","latitude":"43.786577","longitude":"-79.546962"},{"source":"yellow page","service_name":"Selfish Beauty Lounge","category":"tanning","phone":"905-850-5899","address":"200 Marycroft, Woodbridge, ON L4L 5X5","postalcode":"L4L 5X5","website":"http://www.selfishbeautylounge.com","working_hour":"Monday 10:00 am - 7:00 pm   Tuesday 10:00 am - 7:00 pm   Wednesday 10:00 am - 7:00 pm   Thursday 10:00 am - 7:00 pm   Friday 10:00 am - 7:00 pm   Saturday 10:00 am - 5:00 pm","latitude":"43.784702","longitude":"-79.566413"},{"source":"yellow page","service_name":"Club De Soleil Tanning Salon","category":"tanning","phone":"416-633-6222","address":"1077 Wilson Ave, North York, ON M3K 1G7","postalcode":"M3K 1G7","website":" ","working_hour":"Monday 11:00 am - 8:00 pm   Tuesday 11:00 am - 8:00 pm   Wednesday 11:00 am - 8:00 pm   Thursday 11:00 am - 8:00 pm   Friday 11:00 am - 8:00 pm   Saturday 11:00 am - 6:00 pm   Sunday 11:00 am - 4:00 pm","latitude":"43.727053","longitude":"-79.480912"},{"source":"yellow page","service_name":"Raydiance Sunlight Centre And Spa","category":"tanning","phone":"905-265-8806","address":"200 Whitmore Rd, Woodbridge, ON L4L 7K4","postalcode":"L4L 7K4","website":" ","working_hour":"Monday 9:30 am - 9:00 pm   Tuesday 9:30 am - 9:00 pm   Wednesday 9:30 am - 9:00 pm   Thursday 9:30 am - 9:00 pm   Friday 9:30 am - 9:00 pm   Saturday 10:00 am - 6:00 pm   Sunday 11:00 am - 5:00 pm","latitude":"43.7861621","longitude":"-79.5557484"},{"source":"yellow page","service_name":"Suntouch Tanning Studio","category":"tanning","phone":"905-709-4114","address":"8707 Dufferin St, Vaughan, ON L4J 0A6","postalcode":"L4J 0A6","website":"http://suntouch.ca","working_hour":"Monday 9:00 am - 9:00 pm   Tuesday 9:00 am - 9:00 pm   Wednesday 9:00 am - 9:00 pm   Thursday 9:00 am - 9:00 pm   Friday 9:00 am - 9:00 pm   Saturday 10:00 am - 6:00 pm   Sunday 10:00 am - 5:00 pm","latitude":"43.828422","longitude":"-79.479668"},{"source":"yellow page","service_name":"Coconut Tanning","category":"tanning","phone":"6473411133","address":"1280 Finch Ave W, North York, ON M3J 3K6","postalcode":"M3J 3K6","website":" ","working_hour":"","latitude":"43.764061","longitude":"-79.488439"},{"source":"yellow page","service_name":"Sunshine Tanning","category":"tanning","phone":"905-762-1119","address":"1118 Centre St, Vaughan, ON","postalcode":"","website":" ","working_hour":"","latitude":"43.808578","longitude":"-79.461102"},{"source":"yellow page","service_name":"Oasis Sun","category":"tanning","phone":"9052640336","address":"7887 Weston Rd, Woodbridge, ON L4L 1A6","postalcode":"L4L 1A6","website":" ","working_hour":"","latitude":"43.792104","longitude":"-79.548077"},{"source":"yellow page","service_name":"Tropical Island Tanning & Toning","category":"tanning","phone":"4162413543","address":"1593 Wilson Ave, North York, ON M3L 1A5","postalcode":"M3L 1A5","website":" ","working_hour":"","latitude":"43.720414","longitude":"-79.51093"},{"source":"yellow page","service_name":"Tanlicious Tan & Laser Clinic","category":"tanning","phone":"416-633-6468","address":"1B-897 Sheppard Ave W, North York, ON M3H 2T4","postalcode":"M3H 2T4","website":"http://tanlicioustan.com","working_hour":"Monday 7:00 am - 10:00 pm   Tuesday 7:00 am - 10:00 pm   Wednesday 7:00 am - 10:00 pm   Thursday 7:00 am - 10:00 pm   Friday 7:00 am - 10:00 pm   Saturday 8:00 am - 10:00 pm   Sunday 9:00 am - 9:00 pm","latitude":"43.75196","longitude":"-79.455317"},{"source":"yellow page","service_name":"Platinum Tanning Studios","category":"tanning","phone":"416-638-1427","address":"423 Wilson Ave, Toronto, ON M3H 1T5","postalcode":"M3H 1T5","website":"http://platinumtanning.ca","working_hour":"Monday 10:00 am - 9:00 pm   Tuesday 10:00 am - 9:00 pm   Wednesday 10:00 am - 9:00 pm   Thursday 10:00 am - 9:00 pm   Friday 10:00 am - 9:00 pm   Saturday 10:00 am - 6:00 pm   Sunday 12:00 pm - 5:00 pm","latitude":"43.7360838","longitude":"-79.4401882"},{"source":"yellow page","service_name":"Renaissance Sun Tanning Studio Inc","category":"tanning","phone":"905-856-1523","address":"8383 Weston Rd, Woodbridge, ON L4L 1A6","postalcode":"L4L 1A6","website":" ","working_hour":"Monday 8:00 am - 5:00 pm   Tuesday 8:00 am - 5:00 pm   Wednesday 8:00 am - 5:00 pm   Thursday 8:00 am - 5:00 pm   Friday 8:00 am - 5:00 pm","latitude":"43.806192","longitude":"-79.551372"},{"source":"yellow page","service_name":"Ozone","category":"tanning","phone":"6474305991","address":"1625 Wilson Ave, North York, ON M3L 1A5","postalcode":"M3L 1A5","website":" ","working_hour":"","latitude":"43.7201324","longitude":"-79.5121184"},{"source":"yellow page","service_name":"Tropical Island Tanning","category":"tanning","phone":"4162413544","address":"1593 Wilson Ave, North York, ON M3L 1A5","postalcode":"M3L 1A5","website":" ","working_hour":"","latitude":"43.720414","longitude":"-79.51093"},{"source":"yellow page","service_name":"Sunvibes Tanning Studio","category":"tanning","phone":"905-264-9544","address":"8633 Weston Rd, Vaughan, ON L4L 1A6","postalcode":"L4L 1A6","website":"http://www.sunvibestanning.com","working_hour":"","latitude":"43.812058","longitude":"-79.552771"},{"source":"yellow page","service_name":"Eternal Tan","category":"tanning","phone":"416-633-1044","address":"899B Sheppard Ave W, North York, ON M3H 2T4","postalcode":"M3H 2T4","website":"http://ww42.eternaltanning.com/?kw=jobs","working_hour":"Monday 8:00 am - 5:00 pm   Tuesday 8:00 am - 5:00 pm   Wednesday 8:00 am - 5:00 pm   Thursday 8:00 am - 5:00 pm   Friday 8:00 am - 5:00 pm   Call For Details: Sunday, Saturday.","latitude":"43.751897","longitude":"-79.455602"},{"source":"yellow page","service_name":"Synergy Tanning Studios Inc","category":"tanning","phone":"416-913-3334","address":"1593 Wilson Ave, North York, ON M3L 1A5","postalcode":"M3L 1A5","website":" ","working_hour":"","latitude":"43.720414","longitude":"-79.51093"},{"source":"yellow page","service_name":"Grid Company Ltd","category":"tanning","phone":"9058508842","address":"60 Vinyl Crt, Woodbridge, ON L4L 4A3","postalcode":"L4L 4A3","website":"http://www.certainteed.com","working_hour":"","latitude":"43.767531","longitude":"-79.57054"},{"source":"yellow page","service_name":"Tan-Trum Tanning Salon","category":"tanning","phone":"705-526-9617","address":"9225 County Road 93, Lafontaine, ON L4R 4K4","postalcode":"L4R 4K4","website":" ","working_hour":"","latitude":"44.732906","longitude":"-79.910377"},{"source":"yellow page","service_name":"Sun Kiss Tanning Studio","category":"tanning","phone":"705-681-0576","address":"685 Muskoka Rd N, Gravenhurst, ON P1P 1N5","postalcode":"P1P 1N5","website":" ","working_hour":"Monday 11:00 am - 6:00 pm   Tuesday 11:00 am - 6:00 pm   Wednesday 11:00 am - 6:00 pm   Thursday 11:00 am - 6:00 pm   Friday 11:00 am - 6:00 pm   Saturday 11:00 am - 3:00 pm   Sunday 11:00 am - 3:00 pm","latitude":"44.9249943","longitude":"-79.376293"},{"source":"yellow page","service_name":"Coastal Rays Tanning","category":"tanning","phone":"705-528-8267","address":"788 Yonge St, Midland, ON L4R 2E6","postalcode":"L4R 2E6","website":"http://www.penetang.com/mobile/coastalrays","working_hour":"","latitude":"44.741603","longitude":"-79.895367"},{"source":"yellow page","service_name":"Bronze Xpress Mobile Spray Tanning","category":"tanning","phone":"7053050112","address":"ON","postalcode":"","website":" ","working_hour":"","latitude":"43.651893","longitude":"-79.381713"},{"source":"yellow page","service_name":"Purity Esthetics And Tanning","category":"tanning","phone":"705-516-1230","address":"162 Mill St, Angus, ON L0M 1B2","postalcode":"L0M 1B2","website":" ","working_hour":"","latitude":"44.326295","longitude":"-79.883294"},{"source":"yellow page","service_name":"Rosie Cheeks Mobile Spray Tanning","category":"tanning","phone":"705-717-6732","address":"BARRIE","postalcode":"","website":" ","working_hour":"","latitude":"","longitude":""},{"source":"yellow page","service_name":"Extreme Tanning","category":"tanning","phone":"705-792-4509","address":"ON","postalcode":"","website":" ","working_hour":"","latitude":"","longitude":""},{"source":"yellow page","service_name":"Tanfastic","category":"tanning","phone":"519-942-8150","address":"121 First St, Orangeville, ON L9W 3J8","postalcode":"L9W 3J8","website":" ","working_hour":"","latitude":"43.930335","longitude":"-80.099342"},{"source":"yellow page","service_name":"Labella Sole Tanning Lounge","category":"tanning","phone":"905-857-5116","address":"12788 Hwy 50, Bolton, ON L7E 4G1","postalcode":"L7E 4G1","website":" ","working_hour":"","latitude":"43.864064","longitude":"-79.7167241"},{"source":"yellow page","service_name":"Head 2 Toe Boutique & Tanning","category":"tanning","phone":"519-787-7083","address":"181 St Andrew St E, Fergus, ON N1M 1P9","postalcode":"N1M 1P9","website":" ","working_hour":"","latitude":"43.70683","longitude":"-80.376785"},{"source":"yellow page","service_name":"Oasis Tanning & Esthetics","category":"tanning","phone":"519-925-9900","address":"526 Main St E, Shelburne, ON L9V 2Z2","postalcode":"L9V 2Z2","website":"http://www.oasis-spa.ca","working_hour":"Monday 10:00 am - 8:00 pm   Tuesday 10:00 am - 8:00 pm   Wednesday 10:00 am - 8:00 pm   Thursday 10:00 am - 8:00 pm   Friday 10:00 am - 8:00 pm   Saturday 10:00 am - 5:00 pm   Sunday 11:00 am - 3:00 pm","latitude":"44.080548","longitude":"-80.195099"},{"source":"yellow page","service_name":"Siesta Sun Spa Inc","category":"tanning","phone":"705-429-7474","address":"30 46th St N, Wasaga Beach, ON L9Z 1Y7","postalcode":"L9Z 1Y7","website":"http://tanningwasagabeach.com","working_hour":"Tuesday 10:00 am - 7:00 pm   Wednesday 10:00 am - 7:00 pm   Thursday 10:00 am - 7:00 pm   Friday 10:00 am - 6:00 pm   Saturday 10:00 am - 2:00 pm","latitude":"44.4767668","longitude":"-80.0785648"},{"source":"yellow page","service_name":"Hot Body Tanning","category":"tanning","phone":"226-383-8383","address":"170 Tower St N, Fergus, ON N1M 2N5","postalcode":"N1M 2N5","website":" ","working_hour":"","latitude":"43.703876","longitude":"-80.380026"},{"source":"yellow page","service_name":"Mountain Fitness","category":"tanning","phone":"705-444-6851","address":"1 First St, Collingwood, ON L9Y 1A1","postalcode":"L9Y 1A1","website":" ","working_hour":"","latitude":"44.502767","longitude":"-80.218165"},{"source":"yellow page","service_name":"Sol Revival Tanning Inc","category":"tanning","phone":"9059518266","address":"55 Healey, Caledon, ON L7E 5A2","postalcode":"L7E 5A2","website":" ","working_hour":"","latitude":"43.8632741","longitude":"-79.7173511"},{"source":"yellow page","service_name":"Classic Tan","category":"tanning","phone":"519-787-3272","address":"735 Tower St S, Fergus, ON N1M 2R2","postalcode":"N1M 2R2","website":" ","working_hour":"Monday 10:00 am - 9:00 pm   Tuesday 10:00 am - 9:00 pm   Wednesday 10:00 am - 9:00 pm   Thursday 10:00 am - 9:00 pm   Friday 10:00 am - 8:00 pm   Saturday 10:00 am - 6:00 pm","latitude":"43.698626","longitude":"-80.371213"},{"source":"yellow page","service_name":"Tan-Tations","category":"tanning","phone":"519-942-4449","address":"502 Riddell Rd, Orangeville, ON L9W 5L1","postalcode":"L9W 5L1","website":" ","working_hour":"Monday 10:00 am - 9:00 pm   Tuesday 10:00 am - 9:00 pm   Wednesday 10:00 am - 9:00 pm   Thursday 10:00 am - 9:00 pm   Friday 10:00 am - 9:00 pm   Saturday 10:00 am - 6:00 pm   Sunday 10:00 am - 4:00 pm","latitude":"43.9093453","longitude":"-80.1384069"},{"source":"yellow page","service_name":"White Tanning Co","category":"tanning","phone":"519-856-4240","address":"5153 Eramosa-Erin Townline, Rockwood, ON N0B 2K0","postalcode":"N0B 2K0","website":" ","working_hour":"Monday 7:00 am - 5:00 pm   Tuesday 7:00 am - 5:00 pm   Wednesday 7:00 am - 5:00 pm   Thursday 7:00 am - 5:00 pm   Friday 7:00 am - 5:00 pm","latitude":"43.653106","longitude":"-80.1201385"},{"source":"yellow page","service_name":"Blue Rock Tanning","category":"tanning","phone":"705-293-4455","address":"3-20 Balsam St, Collingwood, ON L9Y 4H7","postalcode":"L9Y 4H7","website":" ","working_hour":"","latitude":"44.504269","longitude":"-80.235181"},{"source":"yellow page","service_name":"MS.tique Spa, Laser Clinic & Tanning Salon","category":"tanning","phone":"705-445-0089","address":"43 Hurontario St, Collingwood, ON L9Y 2L7","postalcode":"L9Y 2L7","website":" ","working_hour":"Monday 9:30 am - 6:00 pm   Tuesday 9:30 am - 6:00 pm   Wednesday 9:30 am - 6:00 pm   Thursday 9:30 am - 6:00 pm   Friday 9:30 am - 6:00 pm   Saturday 9:30 am - 5:00 pm   Sunday 11:00 am - 3:00 pm   Sundays By Appointment","latitude":"44.501824","longitude":"-80.217212"},{"source":"yellow page","service_name":"Orangeville Sun Beach Tanning","category":"tanning","phone":"519-940-4240","address":"280 Broadway Ave, Orangeville, ON L9W 1L1","postalcode":"L9W 1L1","website":" ","working_hour":"Monday 10:00 am - 9:00 pm   Tuesday 10:00 am - 9:00 pm   Wednesday 10:00 am - 9:00 pm   Thursday 10:00 am - 9:00 pm   Friday 10:00 am - 9:00 pm   Saturday 10:00 am - 6:00 pm   Sunday 11:00 am - 5:00 pm","latitude":"43.917279","longitude":"-80.106409"},{"source":"yellow page","service_name":"Prima Tan Inc","category":"tanning","phone":"905-633-6890","address":"645 Plains Rd E, Burlington, ON L7T 4J5","postalcode":"L7T 4J5","website":"http://www.primatan.com","working_hour":"Monday 10:00 am - 9:00 pm   Tuesday 10:00 am - 9:00 pm   Wednesday 10:00 am - 9:00 pm   Thursday 10:00 am - 9:00 pm   Friday 10:00 am - 9:00 pm   Saturday 10:00 am - 6:00 pm","latitude":"43.322668","longitude":"-79.831463"},{"source":"yellow page","service_name":"Sunvision Swimwear Tanning Centre","category":"tanning","phone":"9056907866","address":"11 B 32 Hamilton N, Waterdown, ON L0R 2H0","postalcode":"L0R 2H0","website":" ","working_hour":"Monday 9:30 am - 8:30 pm   Tuesday 9:30 am - 8:30 pm   Wednesday 9:30 am - 8:30 pm   Thursday 9:30 am - 8:30 pm   Friday 9:30 am - 8:30 pm   Saturday 10:00 am - 5:00 pm","latitude":"43.334716","longitude":"-79.894954"},{"source":"yellow page","service_name":"Banana Joe's Tanning Salon","category":"tanning","phone":"9053408267","address":"417 Guelph Line, Burlington, ON L7R 3L7","postalcode":"L7R 3L7","website":" ","working_hour":"","latitude":"43.3376405","longitude":"-79.7842491"},{"source":"yellow page","service_name":"Millennium ICE Canada","category":"tanning","phone":"8009192796","address":"1179 Northside Rd, Burlington, ON L7M 1H5","postalcode":"L7M 1H5","website":"http://www.millenniumice.ca","working_hour":"Monday 9:00 am - 5:00 pm   Tuesday 9:00 am - 5:00 pm   Wednesday 9:00 am - 5:00 pm   Thursday 9:00 am - 5:00 pm   Friday 9:00 am - 5:00 pm   Saturday 9:00 am - 5:00 pm   Sunday 9:00 am - 5:00 pm","latitude":"43.360368","longitude":"-79.805309"},{"source":"yellow page","service_name":"Beachin' Tan","category":"tanning","phone":"905-689-9999","address":"94 Dundas E B9, Waterdown, ON L0R 2H2","postalcode":"L0R 2H2","website":" ","working_hour":"Monday 10:00 am - 9:00 pm   Tuesday 10:00 am - 9:00 pm   Wednesday 10:00 am - 9:00 pm   Thursday 10:00 am - 9:00 pm   Friday 10:00 am - 9:00 pm   Saturday 10:00 am - 6:00 pm   Sunday 11:00 am - 5:00 pm","latitude":"43.310117","longitude":"-80.076875"},{"source":"yellow page","service_name":"Venus Tanning Resort","category":"tanning","phone":"905-632-1826","address":"10B-1035 Brant St, Burlington, ON L7R 4X6","postalcode":"L7R 4X6","website":"http://www.venustanning.ca","working_hour":"Monday 10:00 am - 9:00 pm   Tuesday 10:00 am - 9:00 pm   Wednesday 10:00 am - 9:00 pm   Thursday 10:00 am - 9:00 pm   Friday 10:00 am - 9:00 pm   Saturday 10:00 am - 6:00 pm   Sunday 11:00 am - 5:00 pm","latitude":"43.33893","longitude":"-79.818349"},{"source":"yellow page","service_name":"Tan Your Hide","category":"tanning","phone":"9053199220","address":"1505 Guelph Line, Burlington, ON L7P 3B6","postalcode":"L7P 3B6","website":" ","working_hour":"Monday 10:00 am - 8:00 pm   Tuesday 10:00 am - 8:00 pm   Wednesday 10:00 am - 8:00 pm   Thursday 10:00 am - 8:00 pm   Friday 10:00 am - 8:00 pm   Saturday 10:00 am - 5:00 pm   Yes","latitude":"43.363733","longitude":"-79.820243"},{"source":"yellow page","service_name":"Sunkist Tan","category":"tanning","phone":"905-631-8004","address":"110-676 Appleby Line, Burlington, ON L7L 5Y1","postalcode":"L7L 5Y1","website":" ","working_hour":"Monday 10:00 am - 9:00 pm   Tuesday 10:00 am - 9:00 pm   Wednesday 10:00 am - 9:00 pm   Thursday 10:00 am - 9:00 pm   Friday 10:00 am - 9:00 pm   Saturday 10:00 am - 5:00 pm   Sunday 10:00 am - 6:00 pm","latitude":"43.3730294","longitude":"-79.7615731"},{"source":"yellow page","service_name":"Extreme Tan","category":"tanning","phone":"905-203-0657","address":"840 Main St E, Milton, ON L9T 0J4","postalcode":"L9T 0J4","website":"http://www.extremetan.ca","working_hour":"","latitude":"43.527112","longitude":"-79.867249"},{"source":"yellow page","service_name":"Sun Haven Tanning","category":"tanning","phone":"905-878-2324","address":"550 Ontario St S, Milton, ON L9T 5E4","postalcode":"L9T 5E4","website":"http://www.sunhaventanning.com","working_hour":"Monday 9:00 am - 9:00 pm   Tuesday 9:00 am - 9:00 pm   Wednesday 9:00 am - 9:00 pm   Thursday 9:00 am - 9:00 pm   Friday 9:00 am - 9:00 pm   Saturday 9:00 am - 6:00 pm   Sunday 10:00 am - 5:00 pm","latitude":"43.507023","longitude":"-79.862236"},{"source":"yellow page","service_name":"Vivid Tanning Studio Inc","category":"tanning","phone":"705-435-5660","address":"86 Young St, Alliston, ON L9R 1P8","postalcode":"L9R 1P8","website":" ","working_hour":"Monday 10:00 am - 9:00 pm   Tuesday 10:00 am - 9:00 pm   Wednesday 10:00 am - 9:00 pm   Thursday 10:00 am - 9:00 pm   Friday 10:00 am - 9:00 pm   Saturday 11:00 am - 4:00 pm   Sunday 10:00 am - 4:00 pm","latitude":"44.1483803","longitude":"-79.8818989"},{"source":"yellow page","service_name":"Bronze Beach","category":"tanning","phone":"905-633-4826","address":"814 Brant St, Burlington, ON L7R 2J5","postalcode":"L7R 2J5","website":"http://bronzebeachstudio.com/","working_hour":"Monday 11:00 am - 8:00 pm   Tuesday 11:00 am - 8:00 pm   Wednesday 11:00 am - 8:00 pm   Thursday 11:00 am - 8:00 pm   Friday 11:00 am - 8:00 pm   Saturday 12:00 pm - 5:00 pm   Sunday 12:00 pm - 3:00 pm   $7 Tan All Day Saturday!","latitude":"43.334288","longitude":"-79.810372"},{"source":"yellow page","service_name":"Sun Haven Tanning","category":"tanning","phone":"905-335-5050","address":"3505 Upper Middle Rd, Burlington, ON L7M 4C6","postalcode":"L7M 4C6","website":"http://www.sunhaventanning.com","working_hour":"Monday 9:00 am - 9:00 pm   Tuesday 9:00 am - 9:00 pm   Wednesday 9:00 am - 9:00 pm   Thursday 9:00 am - 9:00 pm   Friday 9:00 am - 9:00 pm   Saturday 9:00 am - 6:00 pm   Sunday 10:00 am - 5:00 pm","latitude":"43.378196","longitude":"-79.807246"},{"source":"yellow page","service_name":"Sol'exotica Tanning Spa","category":"tanning","phone":"2893371826","address":"645 Plains Rd E, Burlington, ON L7T 4J5","postalcode":"L7T 4J5","website":" ","working_hour":"Monday 9:00 am - 10:00 pm   Tuesday 9:00 am - 10:00 pm   Wednesday 9:00 am - 10:00 pm   Thursday 9:00 am - 10:00 pm   Friday 9:00 am - 10:00 pm   Saturday 9:00 am - 6:00 pm   Sunday 10:00 am - 4:00 pm","latitude":"43.322668","longitude":"-79.831463"},{"source":"yellow page","service_name":"Gerri's Beauty Salon","category":"tanning","phone":"519-323-4795","address":"480 Waterloo St SS 3, Mount Forest, ON N0G 2L3","postalcode":"N0G 2L3","website":" ","working_hour":"Tuesday 9:00 am - 8:00 pm   Wednesday 9:00 am - 8:00 pm   Friday 9:00 am - 6:00 pm   Saturday 9:00 am - 2:00 pm","latitude":"43.976947","longitude":"-80.736851"},{"source":"yellow page","service_name":"Midnight Sun Burlington","category":"tanning","phone":"289-812-2078","address":"3455 Fairview St, Burlington, ON L7N 2R4","postalcode":"L7N 2R4","website":" ","working_hour":"Monday 9:00 am - 10:00 pm   Tuesday 9:00 am - 10:00 pm   Wednesday 9:00 am - 10:00 pm   Thursday 9:00 am - 10:00 pm   Friday 9:00 am - 10:00 pm   Saturday 9:00 am - 6:00 pm   Sunday 10:00 am - 5:00 pm   Open Every Holiday, Except Xmas & New Year's Day","latitude":"43.357381","longitude":"-79.782142"},{"source":"yellow page","service_name":"Island Heat Tanning Centres","category":"tanning","phone":"905-994-7866","address":"ON","postalcode":"","website":"http://www.islandheattanning.com","working_hour":"Monday 7:00 pm - 7:00 am   Tuesday 7:00 pm - 7:00 am   Wednesday 7:00 pm - 7:00 am   Thursday 7:00 pm - 7:00 am   Friday 7:00 pm - 7:00 am","latitude":"","longitude":""},{"source":"yellow page","service_name":"Glo Niagara Tanning Centre","category":"tanning","phone":"905-371-3525","address":"10-4465 Drummond Rd, Niagara Falls, ON L2E 6C5","postalcode":"L2E 6C5","website":"http://www.gloniagaratanning.com/","working_hour":"","latitude":"43.109282","longitude":"-79.098677"},{"source":"yellow page","service_name":"Tan Arama","category":"tanning","phone":"905-371-3332","address":"8214 Lundy's Lane, Niagara Falls, ON L2H 1H1","postalcode":"L2H 1H1","website":" ","working_hour":"Monday 9:00 am - 9:30 pm   Tuesday 9:00 am - 9:30 pm   Wednesday 9:00 am - 9:30 pm   Thursday 9:00 am - 9:30 pm   Friday 9:00 am - 9:30 pm   Saturday 9:00 am - 7:00 pm   Sunday 1:00 pm - 6:00 pm","latitude":"43.088805","longitude":"-79.135507"},{"source":"yellow page","service_name":"Paradise TAN","category":"tanning","phone":"905-387-8266","address":"930 Upper Paradise Rd, Hamilton, ON L9B 2N1","postalcode":"L9B 2N1","website":"http://www.paradisetan.ca","working_hour":"Monday 10:00 am - 9:00 pm   Tuesday 10:00 am - 9:00 pm   Wednesday 10:00 am - 9:00 pm   Thursday 10:00 am - 9:00 pm   Friday 10:00 am - 9:00 pm   Saturday 10:00 am - 5:00 pm   Sunday 10:00 am - 5:00 pm","latitude":"43.2175583","longitude":"-79.9188659"},{"source":"yellow page","service_name":"Me Time Tanning","category":"tanning","phone":"2893622173","address":"130 Hartzel Rd, St Catharines, ON L2P 1N7","postalcode":"L2P 1N7","website":"http://www.metimetanning.com/","working_hour":"Monday 10:00 am - 9:00 pm   Tuesday 10:00 am - 9:00 pm   Wednesday 10:00 am - 9:00 pm   Thursday 10:00 am - 9:00 pm   Friday 10:00 am - 9:00 pm   Saturday 10:00 am - 8:00 pm   Sunday 10:00 am - 8:00 pm","latitude":"43.149658","longitude":"-79.214272"},{"source":"yellow page","service_name":"Siesta Sun","category":"tanning","phone":"905-685-1222","address":"286 Bunting Rd, St Catharines, ON L2M 7S5","postalcode":"L2M 7S5","website":" ","working_hour":"Monday 10:00 am - 9:00 pm   Tuesday 10:00 am - 9:00 pm   Wednesday 10:00 am - 9:00 pm   Thursday 10:00 am - 9:00 pm   Friday 10:00 am - 9:00 pm   Saturday 10:00 am - 5:00 pm   Sunday 12:00 pm - 4:00 pm","latitude":"43.178269","longitude":"-79.210286"},{"source":"yellow page","service_name":"Bermuda Tanning","category":"tanning","phone":"905-937-7877","address":"7-353 Lake St, St Catharines, ON L2N 7G4","postalcode":"L2N 7G4","website":" ","working_hour":"","latitude":"43.1831486","longitude":"-79.2516402"},{"source":"yellow page","service_name":"Real Beauty Studios","category":"tanning","phone":"289-214-7834","address":"455 Mahogany Blvd SE, Calgary, AB T3M 1Z5","postalcode":"T3M 1Z5","website":" ","working_hour":"","latitude":"50.880637","longitude":"-113.952041"},{"source":"yellow page","service_name":"Island Heat Tanning Centres","category":"tanning","phone":"905-714-7989","address":"30 Rice Rd, Welland, ON L3C 5Y6","postalcode":"L3C 5Y6","website":" ","working_hour":"Monday 9:00 am - 9:00 pm   Tuesday 9:00 am - 9:00 pm   Wednesday 9:00 am - 9:00 pm   Thursday 9:00 am - 9:00 pm   Friday 9:00 am - 9:00 pm   Saturday 9:00 am - 9:00 pm   Sunday 11:00 am - 5:00 pm","latitude":"43.005062","longitude":"-79.2701448"},{"source":"yellow page","service_name":"Brenda Nails & Tanning","category":"tanning","phone":"9059372323","address":"353 Lake St, St Catharines, ON L2N 7G4","postalcode":"L2N 7G4","website":" ","working_hour":"","latitude":"43.1831486","longitude":"-79.2516402"},{"source":"yellow page","service_name":"Malibu Beach Tanning","category":"tanning","phone":"905-358-8110","address":"3969 Montrose Rd, Niagara Falls, ON L2H 3A1","postalcode":"L2H 3A1","website":" ","working_hour":"","latitude":"43.11531","longitude":"-79.124689"},{"source":"yellow page","service_name":"Sunset Tan","category":"tanning","phone":"905-937-2126","address":"353 Lake St, St Catharines, ON L2N 7G4","postalcode":"L2N 7G4","website":" ","working_hour":"","latitude":"43.1831486","longitude":"-79.2516402"},{"source":"yellow page","service_name":"Arizona Tan","category":"tanning","phone":"905-688-9778","address":"210 Glendale Ave, St Catharines, ON L2T 3Y6","postalcode":"L2T 3Y6","website":"http://www.ArizonaTan.info","working_hour":"Monday 9:30 am - 10:00 pm   Tuesday 9:30 am - 10:00 pm   Wednesday 9:30 am - 10:00 pm   Thursday 9:30 am - 10:00 pm   Friday 9:30 am - 10:00 pm   Saturday 10:00 am - 7:00 pm   Sunday 10:00 am - 6:00 pm","latitude":"43.132484","longitude":"-79.226082"},{"source":"yellow page","service_name":"G & M Fitness","category":"tanning","phone":"905-834-0550","address":"251 King St, Port Colborne, ON L3K 4G8","postalcode":"L3K 4G8","website":"http://www.gandmfitness.com","working_hour":"Monday 8:00 am - 9:00 pm   Tuesday 8:00 am - 9:00 pm   Wednesday 8:00 am - 9:00 pm   Thursday 8:00 am - 9:00 pm   Friday 8:00 am - 9:00 pm   Saturday 9:00 am - 4:00 pm   Sunday 9:00 am - 4:00 pm","latitude":"42.8867","longitude":"-79.251415"},{"source":"yellow page","service_name":"Bronze Envy","category":"tanning","phone":"905-227-8880","address":"3-45 Ormond St N, Thorold, ON L2V 1Y9","postalcode":"L2V 1Y9","website":"http://www.bronzeenvy.com/","working_hour":"Monday 10:00 am - 10:00 pm   Tuesday 10:00 am - 10:00 pm   Wednesday 10:00 am - 10:00 pm   Thursday 10:00 am - 10:00 pm   Friday 10:00 am - 8:00 pm","latitude":"43.1280642","longitude":"-79.1991852"},{"source":"yellow page","service_name":"West Coast Tan Studio","category":"tanning","phone":"2893625004","address":"350 Scott St, St Catharines, ON L2N 6T4","postalcode":"L2N 6T4","website":"http://westcoasttans.com/","working_hour":"Monday 11:00 am - 7:00 pm   Tuesday 11:00 am - 7:00 pm   Wednesday 11:00 am - 7:00 pm   Thursday 11:00 am - 7:00 pm   Friday 11:00 am - 7:00 pm   Saturday 10:00 am - 6:00 pm","latitude":"43.187667","longitude":"-79.232655"},{"source":"yellow page","service_name":"Tantalize Tanning","category":"tanning","phone":"2892358046","address":"39 Viking Dr, Grimsby, ON L3M 3V2","postalcode":"L3M 3V2","website":" ","working_hour":"","latitude":"43.205201","longitude":"-79.568091"},{"source":"yellow page","service_name":"Surround Sun Tanning Company","category":"tanning","phone":"905-682-9733","address":"14-111 Fourth Ave, St Catharines, ON L2S 3P5","postalcode":"L2S 3P5","website":"http://surroundsuntanning.com","working_hour":"Monday 10:00 am - 9:00 pm   Tuesday 10:00 am - 9:00 pm   Wednesday 10:00 am - 9:00 pm   Thursday 10:00 am - 9:00 pm   Friday 10:00 am - 8:00 pm   Saturday 10:00 am - 6:00 pm   Sunday 10:00 am - 4:00 pm","latitude":"43.155813","longitude":"-79.262509"},{"source":"yellow page","service_name":"Polished Salon & Spa","category":"tanning","phone":"905-354-8266","address":"7279 Lundy's Lane, Niagara Falls, ON L2G 1W4","postalcode":"L2G 1W4","website":" ","working_hour":"","latitude":"43.089206","longitude":"-79.117395"},{"source":"yellow page","service_name":"Palm Beach Mega Tan","category":"tanning","phone":"905-404-8267","address":"1411 Highway 2, Courtice, ON L1E 2J6","postalcode":"L1E 2J6","website":"http://palmbeachmegatan.com","working_hour":"Monday 9:00 am - 9:00 pm   Tuesday 9:00 am - 9:00 pm   Wednesday 9:00 am - 9:00 pm   Thursday 9:00 am - 9:00 pm   Friday 9:00 am - 9:00 pm   Saturday 9:00 am - 6:00 pm   Sunday 10:00 am - 4:00 pm","latitude":"43.906711","longitude":"-78.811402"},{"source":"yellow page","service_name":"Island Paradise Tanning Salon","category":"tanning","phone":"905-404-1897","address":"555 Simcoe St S, Oshawa, ON L1H 8K8","postalcode":"L1H 8K8","website":" ","working_hour":"","latitude":"43.883235","longitude":"-78.857042"},{"source":"yellow page","service_name":"go with the Glow mobile sunless tanning","category":"tanning","phone":"9054291603","address":"ON","postalcode":"","website":" ","working_hour":"","latitude":"43.651893","longitude":"-79.381713"},{"source":"yellow page","service_name":"Organic Tan","category":"tanning","phone":"9054392724","address":"Clarington, ON","postalcode":"","website":" ","working_hour":"","latitude":"43.651893","longitude":"-79.381713"},{"source":"yellow page","service_name":"Glo 2 Go Mobile Spray Tanning","category":"tanning","phone":"9052433003","address":"Oshawa, ON L1K 2J9","postalcode":"L1K 2J9","website":"http://www.glotogotan.ca","working_hour":"Monday 12:00 am - 11:59 pm   Tuesday 12:00 am - 11:59 pm   Wednesday 12:00 am - 11:59 pm   Thursday 12:00 am - 11:59 pm   Friday 12:00 am - 11:59 pm   Saturday 12:00 am - 11:59 pm   Sunday 12:00 am - 11:59 pm","latitude":"","longitude":""},{"source":"yellow page","service_name":"Mobile Spray Tanning","category":"tanning","phone":"9054047869","address":"ON","postalcode":"","website":" ","working_hour":"","latitude":"43.651893","longitude":"-79.381713"},{"source":"yellow page","service_name":"Sugar Coated Skin Mobile Spray Tanning","category":"tanning","phone":"905-429-0712","address":"ON","postalcode":"","website":" ","working_hour":"","latitude":"","longitude":""},{"source":"yellow page","service_name":"Aztec Tanning Studios","category":"tanning","phone":"416-282-6251","address":"91 Rylander Blvd, Scarborough, ON M1B 5M5","postalcode":"M1B 5M5","website":" ","working_hour":"Monday 10:00 am - 9:00 pm   Tuesday 10:00 am - 9:00 pm   Wednesday 10:00 am - 9:00 pm   Thursday 10:00 am - 9:00 pm   Friday 10:00 am - 9:00 pm   Saturday 10:00 am - 6:00 pm   Sunday 11:00 am - 5:00 pm","latitude":"43.797919","longitude":"-79.152666"},{"source":"yellow page","service_name":"Synergy Tanning Studio & Sunless Spa","category":"tanning","phone":"905-642-8550","address":"28 Sandiford Dr, Stouffville, ON L4A 7X5","postalcode":"L4A 7X5","website":"http://www.synergytanning.com","working_hour":"","latitude":"43.965264","longitude":"-79.270563"},{"source":"yellow page","service_name":"Island Heat Tanning Centres","category":"tanning","phone":"905-356-6560","address":"6850 Thorold Stone Rd, Niagara Falls, ON L2J 1B4","postalcode":"L2J 1B4","website":"http://www.islandheattanning.com","working_hour":"Monday 9:00 am - 9:00 pm   Tuesday 9:00 am - 9:00 pm   Wednesday 9:00 am - 9:00 pm   Thursday 9:00 am - 9:00 pm   Friday 9:00 am - 9:00 pm   Saturday 9:00 am - 9:00 pm   Sunday 11:00 am - 5:00 pm","latitude":"43.11505","longitude":"-79.110917"},{"source":"yellow page","service_name":"Beaches Tanning Salon-Vacation Station","category":"tanning","phone":"905-354-8266","address":"7279 Lundy's Lane, Niagara Falls, ON L2G 1W4","postalcode":"L2G 1W4","website":" ","working_hour":"","latitude":"43.089206","longitude":"-79.117395"},{"source":"yellow page","service_name":"Airbrush Tanning by Donna","category":"tanning","phone":"905-329-1783","address":"ON","postalcode":"","website":" ","working_hour":"","latitude":"","longitude":""},{"source":"yellow page","service_name":"Hollywood Sunspot","category":"tanning","phone":"905-664-8266","address":"800 Queenston Rd, Hamilton, ON","postalcode":"","website":"http://www.hollywoodsunspot.com","working_hour":"Monday 10:00 am - 9:00 pm   Tuesday 10:00 am - 9:00 pm   Wednesday 10:00 am - 9:00 pm   Thursday 10:00 am - 9:00 pm   Friday 10:00 am - 9:00 pm   Saturday 10:00 am - 6:00 pm   Sunday 10:00 am - 5:00 pm","latitude":"43.2279227","longitude":"-79.7637245"},{"source":"yellow page","service_name":"Sol'exotica","category":"tanning","phone":"905-662-0992","address":"952 Queenston Rd, Stoney Creek, ON L8G 1B7","postalcode":"L8G 1B7","website":"http://www.solexotica.com","working_hour":"Monday 9:00 am - 9:00 pm   Tuesday 9:00 am - 9:00 pm   Wednesday 9:00 am - 9:00 pm   Thursday 9:00 am - 9:00 pm   Friday 9:00 am - 9:00 pm   Saturday 9:00 am - 6:00 pm   Sunday 10:00 am - 4:00 pm","latitude":"43.225125","longitude":"-79.751604"},{"source":"yellow page","service_name":"Defianze Hair And Tanning Salon","category":"tanning","phone":"905-545-5005","address":"852 Lawrence Rd, Hamilton, ON L8K 2A2","postalcode":"L8K 2A2","website":" ","working_hour":"Monday 10:00 am - 9:00 pm   Tuesday 10:00 am - 9:00 pm   Wednesday 10:00 am - 9:00 pm   Thursday 10:00 am - 9:00 pm   Friday 10:00 am - 8:00 pm   Saturday 10:00 am - 4:00 pm","latitude":"43.229192","longitude":"-79.80379"},{"source":"yellow page","service_name":"Eden Nails & Tanning","category":"tanning","phone":"289-768-6370","address":"276 Parkdale Ave N, Hamilton, ON L8H 5X7","postalcode":"L8H 5X7","website":" ","working_hour":"Monday 10:00 am - 8:00 pm   Tuesday 10:00 am - 8:00 pm   Wednesday 10:00 am - 8:00 pm   Thursday 10:00 am - 8:00 pm   Friday 10:00 am - 8:00 pm   Saturday 10:00 am - 6:00 pm","latitude":"43.244186","longitude":"-79.788617"},{"source":"yellow page","service_name":"Sol'exotica","category":"tanning","phone":"905-560-1995","address":"284 Mud St W, Stoney Creek, ON L8J 3Z6","postalcode":"L8J 3Z6","website":"http://www.solexotica.com","working_hour":"Monday 9:00 am - 9:00 pm   Tuesday 9:00 am - 9:00 pm   Wednesday 9:00 am - 9:00 pm   Thursday 9:00 am - 9:00 pm   Friday 9:00 am - 9:00 pm   Saturday 9:00 am - 6:00 pm   Sunday 10:00 am - 4:00 pm","latitude":"43.196055","longitude":"-79.79449"},{"source":"yellow page","service_name":"Sol'exotica","category":"tanning","phone":"905-529-9991","address":"1440 Main St E, Hamilton, ON L8K 6M3","postalcode":"L8K 6M3","website":" ","working_hour":"","latitude":"43.24007","longitude":"-79.808438"},{"source":"yellow page","service_name":"Sole Europa Tanning Studio","category":"tanning","phone":"905-664-1317","address":"6-521 Hwy 8, Stoney Creek, ON L8G 1G4","postalcode":"L8G 1G4","website":" ","working_hour":"","latitude":"43.215896","longitude":"-79.71397"},{"source":"yellow page","service_name":"Beach Bumz Tanning","category":"tanning","phone":"905-578-7770","address":"625 Greenhill Ave, Hamilton, ON L8K 5W9","postalcode":"L8K 5W9","website":" ","working_hour":"Monday 9:00 am - 5:00 pm   Tuesday 9:00 am - 5:00 pm   Wednesday 9:00 am - 5:00 pm   Thursday 9:00 am - 5:00 pm   Friday 9:00 am - 5:00 pm   Saturday 10:00 am - 4:00 pm","latitude":"43.209629","longitude":"-79.786504"},{"source":"yellow page","service_name":"Fiesta Sun Tanning Salon","category":"tanning","phone":"905-578-4272","address":"292 Grays Rd, Hamilton, ON L8E 1V5","postalcode":"L8E 1V5","website":"http://www.fiestasuntanning.ca","working_hour":"Monday 9:45 am - 8:30 pm   Tuesday 9:45 am - 9:00 pm   Wednesday 8:00 am - 9:00 pm   Thursday 9:45 am - 9:00 pm   Friday 9:45 am - 8:30 pm   Saturday 10:00 am - 5:00 pm   Sunday 11:00 am - 4:00 pm","latitude":"43.2312419","longitude":"-79.7407713"},{"source":"yellow page","service_name":"Sunsplash Tanning Salon","category":"tanning","phone":"905-560-6741","address":"247 Centennial Pky N, Hamilton, ON L8E 2X3","postalcode":"L8E 2X3","website":"http://www.sunquest.goldbook.ca","working_hour":"","latitude":"43.237563","longitude":"-79.760263"},{"source":"yellow page","service_name":"Fabutan Sun Tan Studios","category":"tanning","phone":"9055731444","address":"40 Centennial Pky N, Hamilton, ON L8E 1H6","postalcode":"L8E 1H6","website":" ","working_hour":"","latitude":"43.229325","longitude":"-79.763658"},{"source":"yellow page","service_name":"Glow Tanning & Boutique","category":"tanning","phone":"905-692-2244","address":"14-3200 Highway 56, Binbrook, ON L0R 1C0","postalcode":"L0R 1C0","website":" ","working_hour":"Monday 10:00 am - 8:00 pm   Tuesday 10:00 am - 8:00 pm   Wednesday 10:00 am - 8:00 pm   Thursday 10:00 am - 8:00 pm   Friday 10:00 am - 8:00 pm   Saturday 9:00 am - 4:00 pm   Sunday 10:00 am - 3:00 pm","latitude":"43.1153125","longitude":"-79.8068623"},{"source":"yellow page","service_name":"Platinum Suntanning Salon","category":"tanning","phone":"905-538-8150","address":"4-625 Greenhill Ave, Hamilton, ON L8K 5W9","postalcode":"L8K 5W9","website":"http://platinumsuntanning.ca","working_hour":"","latitude":"43.209629","longitude":"-79.786504"},{"source":"yellow page","service_name":"Even Tan","category":"tanning","phone":"416-754-2332","address":"7 Progress Ave, Scarborough, ON M1P 5A3","postalcode":"M1P 5A3","website":" ","working_hour":"Monday 10:00 am - 9:00 pm   Tuesday 10:00 am - 9:00 pm   Wednesday 10:00 am - 9:00 pm   Thursday 10:00 am - 9:00 pm   Friday 10:00 am - 9:00 pm   Saturday 10:30 am - 7:00 pm   Sunday 12:00 pm - 6:00 pm","latitude":"43.769547","longitude":"-79.281636"},{"source":"yellow page","service_name":"Urbansun","category":"tanning","phone":"416-491-4538","address":"2555 Victoria Park Ave, Scarborough, ON M1T 1A3","postalcode":"M1T 1A3","website":"http://www.clubtan.com","working_hour":"Monday 9:00 am - 9:00 pm   Tuesday 9:00 am - 9:00 pm   Wednesday 9:00 am - 9:00 pm   Thursday 9:00 am - 9:00 pm   Friday 9:00 am - 9:00 pm   Saturday 9:30 am - 6:00 pm   Sunday 10:00 am - 5:00 pm","latitude":"43.772825","longitude":"-79.321829"},{"source":"yellow page","service_name":"Ultimate Tan 7","category":"tanning","phone":"905-201-7776","address":"206-5990 16th Ave, Markham, ON L3P 7R2","postalcode":"L3P 7R2","website":"http://www.ultimatetan7.com","working_hour":"Monday 9:30 am - 9:30 pm   Tuesday 9:30 am - 9:30 pm   Wednesday 9:30 am - 9:30 pm   Thursday 9:30 am - 9:30 pm   Friday 9:30 am - 9:30 pm   Saturday 11:00 am - 7:00 pm   Sunday 11:00 am - 6:00 pm","latitude":"43.891477","longitude":"-79.265553"},{"source":"yellow page","service_name":"Sol'exotica","category":"tanning","phone":"905-886-7256","address":"9200 Bathurst St, Thornhill, ON L4J 8W1","postalcode":"L4J 8W1","website":" ","working_hour":"Monday 9:30 am - 9:30 pm   Tuesday 9:30 am - 9:30 pm   Wednesday 9:30 am - 9:30 pm   Thursday 9:30 am - 9:30 pm   Friday 9:30 am - 9:00 pm   Saturday 10:00 am - 6:00 pm   Sunday 11:00 am - 5:00 pm","latitude":"43.846891","longitude":"-79.458568"},{"source":"yellow page","service_name":"Metamorphosis","category":"tanning","phone":"4162221740","address":"210-1110 Sheppard Ave E, North York, ON M2K 2W2","postalcode":"M2K 2W2","website":"http://www.metamorphosisclinic.com","working_hour":"Monday 9:00 am - 6:00 pm   Tuesday 9:00 am - 6:00 pm   Wednesday 9:00 am - 6:00 pm   Thursday 9:00 am - 6:00 pm   Friday 9:00 am - 6:00 pm","latitude":"43.771094","longitude":"-79.3683053"},{"source":"yellow page","service_name":"Cabana Tanning Salon","category":"tanning","phone":"416-441-2669","address":"2231 Victoria Park Ave, Scarborough, ON M1R 1V8","postalcode":"M1R 1V8","website":" ","working_hour":"Monday 10:00 am - 9:00 pm   Tuesday 10:00 am - 9:00 pm   Wednesday 10:00 am - 9:00 pm   Thursday 10:00 am - 9:00 pm   Friday 10:00 am - 9:00 pm   Saturday 10:00 am - 6:00 pm   Sunday 10:00 am - 5:00 pm","latitude":"43.761779","longitude":"-79.316989"},{"source":"yellow page","service_name":"Tanning World","category":"tanning","phone":"416-439-4533","address":"647A McCowan Rd, Scarborough, ON M1J 1K2","postalcode":"M1J 1K2","website":" ","working_hour":"Monday 10:00 am - 7:00 pm   Tuesday 10:00 am - 7:00 pm   Wednesday 10:00 am - 7:00 pm   Thursday 10:00 am - 7:00 pm   Friday 10:00 am - 6:00 pm   Saturday 10:00 am - 3:00 pm","latitude":"43.753782","longitude":"-79.244806"},{"source":"yellow page","service_name":"Renaissance Tanning Studio","category":"tanning","phone":"289-304-8673","address":"9730 Dufferin St, Maple, ON L6A 4L6","postalcode":"L6A 4L6","website":" ","working_hour":"","latitude":"43.8534538","longitude":"-79.4856275"},{"source":"yellow page","service_name":"Oasis Tanning Spa","category":"tanning","phone":"416-447-1786","address":"1335 Lawrence Ave E, North York, ON M3A 1C6","postalcode":"M3A 1C6","website":" ","working_hour":"Monday 12:00 pm - 9:00 pm   Tuesday 10:00 am - 9:00 pm   Wednesday 10:00 am - 9:00 pm   Thursday 10:00 am - 9:00 pm   Friday 10:00 am - 9:00 pm   Saturday 10:00 am - 6:00 pm   Sunday 12:00 pm - 5:00 pm","latitude":"43.741046","longitude":"-79.320564"},{"source":"yellow page","service_name":"Synergy Tanning Studio","category":"tanning","phone":"416-916-7663","address":"4632 Yonge St, North York, ON M2N 5M1","postalcode":"M2N 5M1","website":"http://www.synergytanning.com","working_hour":"Monday 10:00 am - 9:00 pm   Tuesday 10:00 am - 9:00 pm   Wednesday 10:00 am - 9:00 pm   Thursday 10:00 am - 9:00 pm   Friday 10:00 am - 9:00 pm   Saturday 10:00 am - 6:00 pm   Sunday 12:00 pm - 5:00 pm","latitude":"43.7576922","longitude":"-79.4100723"},{"source":"yellow page","service_name":"Radiance Tanning","category":"tanning","phone":"416-440-1411","address":"3303 Yonge St, Toronto, ON M4N 2L8","postalcode":"M4N 2L8","website":" ","working_hour":"Monday 10:00 am - 9:00 pm   Tuesday 10:00 am - 9:00 pm   Wednesday 10:00 am - 9:00 pm   Thursday 10:00 am - 9:00 pm   Friday 10:00 am - 9:00 pm   Saturday 10:00 am - 9:00 pm","latitude":"43.730175","longitude":"-79.403534"},{"source":"yellow page","service_name":"California Waves","category":"tanning","phone":"905-707-0406","address":"9218 Yonge St, Richmond Hill, ON L4C 7A2","postalcode":"L4C 7A2","website":" ","working_hour":"Monday 9:30 am - 9:30 pm   Tuesday 9:30 am - 9:30 pm   Wednesday 9:30 am - 9:30 pm   Thursday 9:30 am - 9:30 pm   Friday 9:30 am - 9:30 pm   Saturday 10:00 am - 8:00 pm   Sunday 11:00 am - 5:00 pm","latitude":"43.852211","longitude":"-79.432903"},{"source":"yellow page","service_name":"Synergy Tanning Stud","category":"tanning","phone":"905-417-5207","address":"1801 Rutherford Rd, Concord, ON L4K 5R7","postalcode":"L4K 5R7","website":"http://www.synergytanning.com","working_hour":"","latitude":"43.840603","longitude":"-79.492897"},{"source":"yellow page","service_name":"Summer Sun","category":"tanning","phone":"905-737-8222","address":"10815 Bathurst St, Richmond Hill, ON L4C 9Y2","postalcode":"L4C 9Y2","website":" ","working_hour":"","latitude":"43.8848483","longitude":"-79.4675373"},{"source":"yellow page","service_name":"Tan 7","category":"tanning","phone":"905-884-7277","address":"10737 Yonge St, Richmond Hill, ON L4C 9M9","postalcode":"L4C 9M9","website":" ","working_hour":"Monday 10:30 am - 9:00 pm   Tuesday 10:30 am - 9:00 pm   Wednesday 10:30 am - 9:00 pm   Thursday 10:30 am - 9:00 pm   Friday 10:30 am - 9:00 pm   Saturday 10:30 am - 6:00 pm   Sunday 11:00 am - 5:00 pm","latitude":"43.890122","longitude":"-79.44155"},{"source":"yellow page","service_name":"Glow Tanning Spa","category":"tanning","phone":"416-750-8666","address":"2155 Lawrence Ave E, Scarborough, ON M1R 5G9","postalcode":"M1R 5G9","website":"http://www.goldenglow.ca","working_hour":"Monday 10:00 am - 8:00 pm   Tuesday 10:00 am - 8:00 pm   Wednesday 10:00 am - 8:00 pm   Thursday 10:00 am - 9:00 pm   Friday 10:00 am - 9:00 pm   Saturday 10:00 am - 6:00 pm   Sunday 10:00 am - 3:00 pm","latitude":"43.747307","longitude":"-79.285532"},{"source":"yellow page","service_name":"Luminous Hair Salon and Tanning","category":"tanning","phone":"905-737-9376","address":"10142 Yonge St, Richmond Hill, ON L4C 1T6","postalcode":"L4C 1T6","website":"http://www.luminoushairsalon.com","working_hour":"","latitude":"43.874763","longitude":"-79.437998"},{"source":"yellow page","service_name":"Essential Nails & Tanning","category":"tanning","phone":"4162294607","address":"2901 Bayview Ave, North York, ON M2K 1E6","postalcode":"M2K 1E6","website":"http://essentialnailstanning.com","working_hour":"Monday 10:00 am - 9:00 pm   Tuesday 10:00 am - 9:00 pm   Wednesday 10:00 am - 9:00 pm   Thursday 10:00 am - 9:00 pm   Friday 10:00 am - 9:00 pm   Saturday 9:30 am - 6:00 pm   Sunday 12:00 pm - 5:00 pm","latitude":"43.768555","longitude":"-79.386649"},{"source":"yellow page","service_name":"Sunspa Scene","category":"tanning","phone":"416-787-5330","address":"1925 Avenue Rd, North York, ON M5M 4A2","postalcode":"M5M 4A2","website":" ","working_hour":"","latitude":"43.733691","longitude":"-79.419622"},{"source":"yellow page","service_name":"Spa On The Avenue","category":"tanning","phone":"416-256-7727","address":"1925 Avenue Rd, North York, ON M5M 4A2","postalcode":"M5M 4A2","website":" ","working_hour":"","latitude":"43.733691","longitude":"-79.419622"},{"source":"yellow page","service_name":"Sol'exotica","category":"tanning","phone":"9058326832","address":"9671 Jane St, Maple, ON L6A 3X5","postalcode":"L6A 3X5","website":" ","working_hour":"Monday 9:00 am - 10:00 pm   Tuesday 9:00 am - 10:00 pm   Wednesday 9:00 am - 10:00 pm   Thursday 9:00 am - 10:00 pm   Friday 9:00 am - 9:00 pm   Saturday 9:00 am - 8:00 pm   Sunday 10:00 am - 6:00 pm","latitude":"43.843864","longitude":"-79.53545"},{"source":"yellow page","service_name":"Desert Tan Tanning Salon","category":"tanning","phone":"905-303-1178","address":"2354 Major Mackenzie Dr, Woodbridge, ON L6A 1W2","postalcode":"L6A 1W2","website":" ","working_hour":"Monday 9:00 am - 8:30 pm   Tuesday 9:00 am - 8:30 pm   Wednesday 9:00 am - 8:30 pm   Thursday 9:00 am - 8:30 pm   Friday 9:00 am - 8:30 pm   Saturday 9:00 am - 6:00 pm   Sunday 11:00 am - 5:00 pm","latitude":"43.854109","longitude":"-79.515964"},{"source":"yellow page","service_name":"Labella Sole Tanning","category":"tanning","phone":"905-738-1200","address":"27-3175 Rutherford Rd, Concord, ON L4K 5Y6","postalcode":"L4K 5Y6","website":" ","working_hour":"Monday 10:00 am - 10:00 pm   Tuesday 10:00 am - 10:00 pm   Wednesday 10:00 am - 10:00 pm   Thursday 10:00 am - 10:00 pm   Friday 10:00 am - 10:00 pm   Saturday 11:00 am - 7:00 pm   Sunday 11:00 am - 5:00 pm","latitude":"43.82965","longitude":"-79.537209"},{"source":"yellow page","service_name":"Sol'exotica Tanning Spa","category":"tanning","phone":"905-669-3826","address":"3255 Rutherford Rd, Concord, ON L4K 5Y5","postalcode":"L4K 5Y5","website":" ","working_hour":"","latitude":"43.82888","longitude":"-79.541033"},{"source":"yellow page","service_name":"Mr Sunsational Tans","category":"tanning","phone":"905-303-9707","address":"9200 Weston Rd, Woodbridge, ON L4H 2P8","postalcode":"L4H 2P8","website":"http://sunsationaltans.net","working_hour":"Monday 11:00 am - 8:00 pm   Tuesday 11:00 am - 8:00 pm   Wednesday 11:00 am - 8:00 pm   Thursday 10:00 am - 8:00 pm   Friday 10:00 am - 8:00 pm   Saturday 11:00 am - 4:00 pm   Sunday 10:00 am - 5:00 pm","latitude":"43.827585","longitude":"-79.556644"},{"source":"yellow page","service_name":"Hipnotic Sun Tanning","category":"tanning","phone":"905-850-8119","address":"9121 Weston Rd, Vaughan, ON L4L 1A6","postalcode":"L4L 1A6","website":" ","working_hour":"Monday 10:00 am - 9:00 pm   Tuesday 10:00 am - 9:00 pm   Wednesday 10:00 am - 9:00 pm   Thursday 10:00 am - 9:00 pm   Friday 10:00 am - 9:00 pm   Saturday 11:00 am - 7:00 pm   Sunday 11:00 am - 5:00 pm","latitude":"43.82501","longitude":"-79.555887"},{"source":"yellow page","service_name":"La Bella Sole Tanning Lounge","category":"tanning","phone":"647-427-8833","address":"27-3175 Rutherford Rd, Concord, ON L4K 5Y6","postalcode":"L4K 5Y6","website":"http://labellasoletanninglounge.com","working_hour":"","latitude":"43.82965","longitude":"-79.537209"},{"source":"yellow page","service_name":"The Tanning Loft","category":"tanning","phone":"905-265-7826","address":"5875 Highway 7, Woodbridge, ON L4L 1T9","postalcode":"L4L 1T9","website":"http://tanningloft.ca","working_hour":"Monday 10:00 am - 9:00 pm   Tuesday 10:00 am - 9:00 pm   Wednesday 10:00 am - 9:00 pm   Thursday 10:00 am - 9:00 pm   Friday 10:00 am - 9:00 pm   Saturday 10:00 am - 7:00 pm   Sunday 11:00 am - 6:00 pm","latitude":"43.7741731","longitude":"-79.616899"},{"source":"yellow page","service_name":"Tanning Loft","category":"tanning","phone":"289-845-1189","address":"14-5875 Hwy 7, Woodbridge, ON L4L 1T9","postalcode":"L4L 1T9","website":" ","working_hour":"","latitude":"43.7741731","longitude":"-79.616899"},{"source":"yellow page","service_name":"Tanning Lounge","category":"tanning","phone":"9055520254","address":"5100 Rutherford Rd, Woodbridge, ON L4H 2J2","postalcode":"L4H 2J2","website":" ","working_hour":"","latitude":"43.816613","longitude":"-79.601945"},{"source":"yellow page","service_name":"Sandals Tanning Salon","category":"tanning","phone":"905-495-0826","address":"380 BovairdE, Brampton, ON L6Z 2S7","postalcode":"L6Z 2S7","website":" ","working_hour":"Monday 10:00 am - 9:00 pm   Tuesday 10:00 am - 9:00 pm   Wednesday 10:00 am - 9:00 pm   Thursday 10:00 am - 9:00 pm   Friday 10:00 am - 9:00 pm   Saturday 10:00 am - 5:00 pm   Sunday 10:00 am - 5:00 pm","latitude":"43.71412","longitude":"-79.778593"},{"source":"yellow page","service_name":"Beauty Supply The Salon Spa","category":"tanning","phone":"905-595-5599","address":"365 Main St N, Brampton, ON L6X 1N6","postalcode":"L6X 1N6","website":" ","working_hour":"","latitude":"43.69427","longitude":"-79.771206"},{"source":"yellow page","service_name":"Sol'exotica","category":"tanning","phone":"9058749874","address":"16A-14 Lisa St, Brampton, ON L6T 4W2","postalcode":"L6T 4W2","website":" ","working_hour":"","latitude":"43.712313","longitude":"-79.72706"},{"source":"yellow page","service_name":"Sun Beach Tanning Main St Inc","category":"tanning","phone":"905-450-1002","address":"332 Main St N, Brampton, ON L6V 1P8","postalcode":"L6V 1P8","website":" ","working_hour":"Monday 12:00 pm - 9:00 pm   Tuesday 12:00 pm - 9:00 pm   Wednesday 12:00 pm - 9:00 pm   Thursday 12:00 pm - 9:00 pm   Friday 12:00 pm - 9:00 pm   Saturday 12:00 pm - 5:00 pm   Sunday 12:00 am - 4:00 pm","latitude":"43.693256","longitude":"-79.769841"},{"source":"yellow page","service_name":"Cabana Del Sol","category":"tanning","phone":"905-796-3331","address":"7700 Hurontario St, Brampton, ON L6Y 4M3","postalcode":"L6Y 4M3","website":"http://www.cabanadelsol.ca/","working_hour":"Monday 9:30 am - 9:00 pm   Tuesday 9:30 am - 9:00 pm   Wednesday 9:30 am - 9:00 pm   Thursday 9:30 am - 9:00 pm   Friday 9:30 am - 9:00 pm   Saturday 10:00 am - 6:00 pm   Sunday 11:00 am - 5:00 pm","latitude":"43.658907","longitude":"-79.723846"},{"source":"yellow page","service_name":"Fabutan Sun Tan Studios","category":"tanning","phone":"9058971114","address":"980 Burnhamthorpe Rd E, Mississauga, ON L4Y 2X6","postalcode":"L4Y 2X6","website":" ","working_hour":"","latitude":"43.6148216","longitude":"-79.6109493"},{"source":"yellow page","service_name":"Fabutan Sun Tan Studio","category":"tanning","phone":"905-232-4874","address":"10C-925 Rathburn Rd E, Mississauga, ON L4W 4C3","postalcode":"L4W 4C3","website":" ","working_hour":"","latitude":"43.615661","longitude":"-79.616743"},{"source":"yellow page","service_name":"Fabutan Sun Tan Studios","category":"tanning","phone":"4162348418","address":"10A Burnhamthorpe Road, Etobicoke, ON M9A 5C9","postalcode":"M9A 5C9","website":"http://www.fabutan.com/","working_hour":"","latitude":"43.649007","longitude":"-79.5293496"},{"source":"yellow page","service_name":"Eurotan","category":"tanning","phone":"905-629-2009","address":"3615 Dixie Rd, Mississauga, ON L4Y 4H4","postalcode":"L4Y 4H4","website":"http://www.eurotanstudios.com","working_hour":"Monday 10:00 am - 9:00 pm   Tuesday 10:00 am - 9:00 pm   Wednesday 10:00 am - 9:00 pm   Thursday 10:00 am - 9:00 pm   Friday 10:00 am - 9:00 pm   Saturday 10:00 am - 6:00 pm   Sunday 12:00 pm - 5:00 pm","latitude":"43.620636","longitude":"-79.599961"},{"source":"yellow page","service_name":"The Shop Beauty Bar & Boutique","category":"tanning","phone":"416-494-1886","address":"2393 St Clair Ave W, Toronto, ON M6N 1K9","postalcode":"M6N 1K9","website":" ","working_hour":"Thursday 11:00 am - 8:00 pm   Friday 11:00 am - 8:00 pm   Saturday 11:00 am - 8:00 pm   Sunday 11:00 am - 8:00 pm   Monday-Wednesday Are By Appointment ONLY!!!","latitude":"43.669472","longitude":"-79.481353"},{"source":"yellow page","service_name":"Tanning Is The Lifestyle","category":"tanning","phone":"416-255-7772","address":"1197 The Queensway, Etobicoke, ON M8Z 1R7","postalcode":"M8Z 1R7","website":" ","working_hour":"Monday 10:00 am - 10:00 pm   Tuesday 10:00 am - 10:00 pm   Wednesday 10:00 am - 10:00 pm   Thursday 10:00 am - 10:00 pm   Friday 10:00 am - 10:00 pm   Saturday 10:00 am - 7:00 pm   Sunday 10:00 am - 6:00 pm","latitude":"43.621854","longitude":"-79.522673"},