{"table":[{"source":"yellow page","service_name":"Chrome Coiffure","category":"beauty salon","phone":"8194102744","address":"730 boul du Mont-Royal, Gatineau, QC J8V 2S3","postalcode":"J8V 2S3","website":"#","working_hour":"Monday 9:00 am - 5:00 pm   Tuesday 9:00 am - 5:00 pm   Wednesday 9:00 am - 5:00 pm   Thursday 9:00 am - 8:00 pm   Friday 9:00 am - 8:00 pm   Saturday 9:00 am - 4:00 pm","latitude":"45.4964493","longitude":"-75.6957428"},{"source":"yellow page","service_name":"Salon Du Sportif Coiffures Pour Hommes","category":"beauty salon","phone":"4508591174","address":"127 Alexandre, Valleyfield, QC","postalcode":"","website":"https://www.facebook.com/pages/Salon-du-Sportif-coiffure-pour-homme/20784880258","working_hour":"Monday 10:30 am - 5:30 pm   Tuesday 9:00 am - 5:30 pm   Wednesday 9:00 am - 5:30 pm   Thursday 9:00 am - 9:00 pm   Friday 9:00 am - 9:00 pm   Saturday 9:00 am - 4:30 pm","latitude":"45.264366","longitude":"-74.135399"},{"source":"yellow page","service_name":"Chez Jennifer","category":"beauty salon","phone":"8197760995","address":"198B rue Eddy, Gatineau, QC J8X 2X3","postalcode":"J8X 2X3","website":" ","working_hour":"Tuesday 10:30 am - 6:00 pm   Wednesday 10:30 am - 6:00 pm   Thursday 10:30 am - 6:00 pm   Friday 10:30 am - 6:00 pm   Saturday 10:30 am - 6:00 pm","latitude":"45.4318336","longitude":"-75.7203956"},{"source":"yellow page","service_name":"Studio M","category":"beauty salon","phone":"4508593463","address":"212 rue Alphonse-Desjardins, Salaberry-de-Valleyfield, QC J6S 2N7","postalcode":"J6S 2N7","website":" ","working_hour":"Tuesday 9:00 am - 5:00 pm   Wednesday 9:00 am - 5:00 pm   Thursday 8:00 am - 7:00 pm   Friday 8:00 am - 7:00 pm   Saturday 9:00 am - 2:00 pm","latitude":"45.2598979","longitude":"-74.1217173"},{"source":"yellow page","service_name":"Cosmopolite","category":"beauty salon","phone":"8197772676","address":"9 rue Therien, Gatineau, QC J8Y 1H7","postalcode":"J8Y 1H7","website":"#","working_hour":"Tuesday 9:30 am - 6:00 pm   Wednesday 9:30 am - 6:00 pm   Thursday 9:30 am - 9:00 pm   Friday 9:30 am - 6:00 pm   Saturday 8:30 am - 2:00 pm","latitude":"45.454398","longitude":"-75.752304"},{"source":"yellow page","service_name":"Coiffure Et Passion","category":"beauty salon","phone":"4503700880","address":"111 rue Victoria, Salaberry-de-Valleyfield, QC J6T 1A2","postalcode":"J6T 1A2","website":" ","working_hour":"Tuesday 9:00 am - 5:00 pm   Wednesday 9:00 am - 5:00 pm   Thursday 9:00 am - 5:00 pm   Friday 9:00 am - 5:00 pm   Saturday 9:00 am - 5:00 pm","latitude":"45.25715","longitude":"-74.12321"},{"source":"yellow page","service_name":"Centre De Beauté 360","category":"beauty salon","phone":"819-307-5172","address":"360, boul Maloney E, Gatineau, QC J8P 1E4","postalcode":"J8P 1E4","website":"#","working_hour":"","latitude":"45.484523","longitude":"-75.642147"},{"source":"yellow page","service_name":"Institut Colette Miller Enr","category":"beauty salon","phone":"5146341185","address":"1455 rue Notre-Dame, Lachine, QC H8S 2E2","postalcode":"H8S 2E2","website":"https://www.facebook.com/institutcolettemiller/?rf=993227337380428","working_hour":"Tuesday 10:00 am - 8:00 pm   Wednesday 10:00 am - 8:00 pm   Thursday 10:00 am - 8:00 pm   Friday 10:00 am - 8:00 pm   Saturday 9:00 am - 4:00 pm","latitude":"45.4349076","longitude":"-73.6769734"},{"source":"yellow page","service_name":"Domaine De La Beauté Pierrette Duval","category":"beauty salon","phone":"8194143654","address":"1356 rue Saint-Louis, Gatineau, QC J8T 2M9","postalcode":"J8T 2M9","website":"http://www.ledomainepierretteduval.com","working_hour":"","latitude":"45.4609007","longitude":"-75.7075875"},{"source":"yellow page","service_name":"Recherché Concept Coiffure Spa","category":"beauty salon","phone":"8194101646","address":"376 boul Saint-Joseph, Gatineau, QC J8Y 3Y7","postalcode":"J8Y 3Y7","website":"#","working_hour":"Tuesday 9:00 am - 6:00 pm   Wednesday 9:00 am - 6:00 pm   Thursday 9:00 am - 9:00 pm   Friday 9:00 am - 9:00 pm   Saturday 9:00 am - 3:00 pm","latitude":"45.4428016","longitude":"-75.7327292"},{"source":"yellow page","service_name":"Les Belles Senegalaises","category":"beauty salon","phone":"8197780220","address":"283 boul Saint-Joseph, Gatineau, QC J8Y 3Y2","postalcode":"J8Y 3Y2","website":"#","working_hour":"Monday 10:00 am - 7:00 pm   Tuesday 10:00 am - 7:00 pm   Wednesday 10:00 am - 7:00 pm   Thursday 10:00 am - 7:00 pm   Friday 10:00 am - 7:00 pm   Saturday 10:00 am - 7:00 pm","latitude":"45.4387295","longitude":"-75.7329316"},{"source":"yellow page","service_name":"Studio De Coiffure Elégance","category":"beauty salon","phone":"8193030889","address":"455 boul Riel, Gatineau, QC J8Z 2J8","postalcode":"J8Z 2J8","website":"http://www.studioelegance.ca/","working_hour":"Tuesday 9:00 am - 6:00 pm   Wednesday 9:00 am - 6:00 pm   Thursday 9:00 am - 7:00 pm   Friday 9:00 am - 6:00 pm   Saturday 9:00 am - 3:00 pm","latitude":"45.465387","longitude":"-75.771792"},{"source":"yellow page","service_name":"Coiffure Le Verseau","category":"beauty salon","phone":"8194143445","address":"396 boul Alexandre-Taché, Gatineau, QC J9A 1M5","postalcode":"J9A 1M5","website":"#","working_hour":"Tuesday 9:00 am - 5:00 pm   Wednesday 9:00 am - 5:00 pm   Thursday 9:00 am - 8:00 pm   Friday 9:00 am - 8:00 pm   Saturday 9:00 am - 2:00 pm","latitude":"45.4215118","longitude":"-75.7466897"},{"source":"yellow page","service_name":"Salon L'Essentiel","category":"beauty salon","phone":"4508590496","address":"2110 rue Principale RR 1, Saint-Zotique, QC J0P 1Z0","postalcode":"J0P 1Z0","website":"#","working_hour":"Wednesday 9:00 am - 3:00 pm   Thursday 9:00 am - 8:00 pm   Friday 9:00 am - 8:00 pm   Saturday 8:00 am - 2:00 pm","latitude":"45.232184","longitude":"-74.278117"},{"source":"yellow page","service_name":"Salon Arthur","category":"beauty salon","phone":"8194143666","address":"50 rue Victoria, Gatineau, QC J8X 3X1","postalcode":"J8X 3X1","website":"#","working_hour":"Monday 9:00 am - 5:50 pm   Tuesday 9:00 am - 5:50 pm   Wednesday 9:00 am - 5:50 pm   Thursday 9:00 am - 6:00 pm   Friday 9:00 am - 6:00 pm","latitude":"45.428654","longitude":"-75.712832"},{"source":"yellow page","service_name":"Salon Mélanie Viau","category":"beauty salon","phone":"4503718966","address":"538 rue des Pionniers, Salaberry-de-Valleyfield, QC J6S 3P7","postalcode":"J6S 3P7","website":"http://www.facebook.com/melanie.viau.121","working_hour":"Tuesday 9:00 am - 4:00 pm   Wednesday 9:00 am - 5:00 pm   Thursday 9:00 am - 7:00 pm   Friday 9:00 am - 7:00 pm   Saturday 8:30 am - 2:00 pm","latitude":"45.271224","longitude":"-74.136908"},{"source":"yellow page","service_name":"Coiffure des Promenades Elle et Lui","category":"beauty salon","phone":"8194120507","address":"1100 boul Maloney O, Gatineau, QC J8T 6G3","postalcode":"J8T 6G3","website":"http://www.coiffureelleetlui.com","working_hour":"Monday 9:00 am - 6:00 pm   Tuesday 9:00 am - 6:00 pm   Wednesday 9:00 am - 6:00 pm   Thursday 9:00 am - 9:00 pm   Friday 9:00 am - 9:00 pm   Saturday 9:00 am - 5:00 pm","latitude":"45.47617","longitude":"-75.696802"},{"source":"yellow page","service_name":"Au Premier Coiffure Spa","category":"beauty salon","phone":"4388960693","address":"5487 av de Monkland, Montréal, QC H4A 1C6","postalcode":"H4A 1C6","website":"#","working_hour":"Monday 9:00 am - 5:00 pm   Tuesday 8:00 am - 6:00 pm   Wednesday 8:00 am - 6:00 pm   Thursday 8:00 am - 8:00 pm   Friday 8:00 am - 8:00 pm   Saturday 8:00 am - 5:00 pm   Sunday 10:00 am - 5:00 pm","latitude":"45.4770433","longitude":"-73.6215246"},{"source":"yellow page","service_name":"Chez Lilyane","category":"beauty salon","phone":"8192052010","address":"193 ch de la Savane, Gatineau, QC J8T 1R2","postalcode":"J8T 1R2","website":"http://www.yannick.net/installation-rallonge-cheveux-Gatineau-Outaouais/","working_hour":"Monday 9:00 am - 5:00 pm   Tuesday 9:00 am - 5:00 pm   Wednesday 9:00 am - 5:00 pm   Thursday 9:00 am - 5:00 pm   Friday 9:00 am - 5:00 pm","latitude":"45.47506","longitude":"-75.682902"},{"source":"yellow page","service_name":"Coiffure Aux Pignons Verts","category":"beauty salon","phone":"450-859-0509","address":"100-55, rue Champlain, Salaberry-de-Valleyfield, QC J6T 1W3","postalcode":"J6T 1W3","website":" ","working_hour":"Tuesday 9:00 am - 5:00 pm   Wednesday 9:00 am - 5:00 pm   Thursday 8:00 am - 7:00 pm   Friday 8:00 am - 7:00 pm   Saturday 8:00 am - 5:00 pm","latitude":"45.255778","longitude":"-74.127549"},{"source":"yellow page","service_name":"Hair Tech 2000","category":"beauty salon","phone":"3437000201","address":"701 Eagleson Rd, Kanata, ON K2M 2G1","postalcode":"K2M 2G1","website":"#","working_hour":"Monday 9:00 am - 6:00 pm   Tuesday 9:00 am - 6:00 pm   Wednesday 9:00 am - 6:00 pm   Thursday 9:00 am - 8:00 pm   Friday 9:00 am - 8:00 pm   Saturday 9:00 am - 3:00 pm","latitude":"45.287292","longitude":"-75.867478"},{"source":"yellow page","service_name":"Morrison's Unisex Hair Design & Esthetics","category":"beauty salon","phone":"6132322665","address":"246 Elgin St, Ottawa, ON K2P 1L9","postalcode":"K2P 1L9","website":" ","working_hour":"Monday 9:30 am - 6:00 pm   Tuesday 9:30 am - 6:00 pm   Wednesday 9:30 am - 6:00 pm   Thursday 9:30 am - 6:00 pm   Friday 9:30 am - 6:00 pm   Saturday 9:30 am - 6:00 pm   Sunday 11:00 am - 4:00 pm","latitude":"45.4182688","longitude":"-75.6907329"},{"source":"yellow page","service_name":"Luika's Hair Design","category":"beauty salon","phone":"6137381420","address":"3-25 Tapiola Cres, Ottawa, ON K1T 2J7","postalcode":"K1T 2J7","website":"#","working_hour":"Monday 9:00 am - 6:00 pm   Tuesday 9:00 am - 6:00 pm   Wednesday 9:00 am - 7:30 pm   Thursday 9:00 am - 8:00 pm   Friday 9:00 am - 8:00 pm   Saturday 8:00 am - 4:00 pm","latitude":"45.363886","longitude":"-75.647422"},{"source":"yellow page","service_name":"Blush Beauty Boutique","category":"beauty salon","phone":"613-617-6632","address":"184 Laval Street, Ottawa, ON K1L 7Z4","postalcode":"K1L 7Z4","website":"#","working_hour":"Monday 10:00 am - 5:00 pm   Tuesday 10:00 am - 5:00 pm   Wednesday 10:00 am - 5:00 pm   Thursday 10:00 am - 7:00 pm   Friday 10:00 am - 7:00 pm   Saturday 10:00 am - 4:00 pm   Sunday 10:00 am - 4:00 pm","latitude":"45.441461","longitude":"-75.670466"},{"source":"yellow page","service_name":"BossArts Beauty In Balance","category":"beauty salon","phone":"3437002978","address":"161 Laurier Ave W, Ottawa, ON K1P 5J2","postalcode":"K1P 5J2","website":"http://www.bossarts.com","working_hour":"Monday 9:00 am - 5:00 pm   Tuesday 9:00 am - 8:00 pm   Wednesday 9:00 am - 8:00 pm   Thursday 9:00 am - 8:00 pm   Friday 9:00 am - 8:00 pm   Saturday 9:00 am - 4:00 pm","latitude":"45.420483","longitude":"-75.694369"},{"source":"yellow page","service_name":"Merio's Hair Designs","category":"beauty salon","phone":"6137373872","address":"2527 2527 Bank, Gloucester, ON K1T 1M8","postalcode":"K1T 1M8","website":"#","working_hour":"Monday 9:00 am - 6:00 pm   Tuesday 9:00 am - 6:00 pm   Wednesday 9:00 am - 6:00 pm   Thursday 9:00 am - 9:00 pm   Friday 9:00 am - 9:00 pm   Saturday 8:00 am - 4:00 pm","latitude":"45.354169","longitude":"-75.64185"},{"source":"yellow page","service_name":"Salon130","category":"beauty salon","phone":"3437000441","address":"130 Slater St, Ottawa, ON K1P 6E2","postalcode":"K1P 6E2","website":"#","working_hour":"Monday 9:00 am - 9:00 pm   Tuesday 9:00 am - 9:00 pm   Wednesday 9:00 am - 9:00 pm   Thursday 9:00 am - 9:00 pm   Friday 9:00 am - 9:00 pm   Saturday 9:00 am - 9:00 pm   Sunday 12:00 pm - 6:00 pm","latitude":"45.420744","longitude":"-75.69655"},{"source":"yellow page","service_name":"Jado Barber Shop","category":"beauty salon","phone":"6135692257","address":"244 Bank St, Ottawa, ON K2P 1X4","postalcode":"K2P 1X4","website":"#","working_hour":"Monday 10:00 am - 7:00 pm   Tuesday 10:00 am - 7:00 pm   Wednesday 10:00 am - 7:00 pm   Thursday 10:00 am - 7:00 pm   Friday 10:00 am - 7:00 pm   Saturday 10:00 am - 7:00 pm","latitude":"45.4164237","longitude":"-75.6972851"},{"source":"yellow page","service_name":"Mama Cee Beauty Salon & Supplies","category":"beauty salon","phone":"6137416100","address":"1020 St. Laurent Blvd, Ottawa, ON K1K 4S2","postalcode":"K1K 4S2","website":"http://www.mamacee.com","working_hour":"","latitude":"45.427719","longitude":"-75.639373"},{"source":"yellow page","service_name":"Euro-Spa Hair & Esthetics","category":"beauty salon","phone":"6137417247","address":"285 Palace St, Vanier, ON K1L 7V5","postalcode":"K1L 7V5","website":"http://www.eurospaottawa.ca","working_hour":"Tuesday 10:00 am - 6:00 pm   Wednesday 10:00 am - 6:00 pm   Thursday 10:00 am - 8:00 pm   Friday 10:00 am - 8:00 pm   Saturday 9:00 am - 4:00 pm","latitude":"45.43353","longitude":"-75.66701"},{"source":"yellow page","service_name":"New York New York Hair Salon","category":"beauty salon","phone":"6135210178","address":"7-3625 Rivergate Way, Ottawa, ON K1V 2A4","postalcode":"K1V 2A4","website":"http://www.nynyhairsalon.com","working_hour":"","latitude":"45.345612","longitude":"-75.692868"},{"source":"yellow page","service_name":"SAAB Salon Spa","category":"beauty salon","phone":"6139097488","address":"376 Bank St, Ottawa, ON K2P 1Y4","postalcode":"K2P 1Y4","website":"http://www.saabsalonspa.com","working_hour":"","latitude":"45.4137332","longitude":"-75.6949748"},{"source":"yellow page","service_name":"La Bella Vita","category":"beauty salon","phone":"613-417-1252","address":"285 Montreal St, Kingston, ON K7K 3G9","postalcode":"K7K 3G9","website":"https://www.facebook.com/285montrealstreet.ca/","working_hour":"Tuesday 10:00 am - 5:00 pm   Wednesday 10:00 am - 5:00 pm   Thursday 10:00 am - 7:00 pm   Friday 10:00 am - 7:00 pm   Saturday 10:00 am - 4:00 pm   Sunday 10:00 am - 4:00 pm","latitude":"44.239632","longitude":"-76.486128"},{"source":"yellow page","service_name":"Fab Hair","category":"beauty salon","phone":"6135492194","address":"390 King St E, Kingston, ON K7K 2Y2","postalcode":"K7K 2Y2","website":"#","working_hour":"Monday 9:00 am - 5:00 pm   Tuesday 9:00 am - 5:00 pm   Wednesday 9:00 am - 5:00 pm   Thursday 9:00 am - 5:00 pm   Friday 9:00 am - 5:00 pm","latitude":"44.232067","longitude":"-76.480697"},{"source":"yellow page","service_name":"Advanced Therapeutic Skin Care Centre DivModernElectrolysis Inc","category":"beauty salon","phone":"6139000339","address":"308 Wellington St, Kingston, ON K7K 7A8","postalcode":"K7K 7A8","website":"http://www.advancedtherapeuticskincarecentre.com","working_hour":"Tuesday 11:30 am - 4:30 pm   Wednesday 9:00 am - 6:00 pm   Thursday 10:00 am - 6:00 pm   Friday 9:00 am - 7:00 pm   Saturday 10:00 am - 3:00 pm","latitude":"44.2352825","longitude":"-76.4815061"},{"source":"yellow page","service_name":"Maison Paul Coiffure","category":"beauty salon","phone":"6135425180","address":"520 Princess St, Kingston, ON K7L 1C5","postalcode":"K7L 1C5","website":"http://www.maisonpaulcoiffure.com","working_hour":"Monday 9:00 am - 5:00 pm   Tuesday 8:00 am - 6:00 pm   Wednesday 8:00 am - 6:00 pm   Thursday 8:00 am - 7:30 pm   Friday 8:00 am - 7:30 pm   Saturday 8:00 am - 4:30 pm","latitude":"44.235006","longitude":"-76.496944"},{"source":"yellow page","service_name":"Bayshore Hairstylists and Spa","category":"beauty salon","phone":"3437003724","address":"100 Bayshore Dr, Ottawa, ON K2B 8C1","postalcode":"K2B 8C1","website":"#","working_hour":"Monday 9:00 am - 9:00 pm   Tuesday 9:00 am - 9:00 pm   Wednesday 9:00 am - 9:00 pm   Thursday 9:00 am - 9:00 pm   Friday 9:00 am - 9:00 pm   Saturday 9:00 am - 9:00 pm   Sunday 10:00 am - 6:00 pm","latitude":"45.348855","longitude":"-75.804625"},{"source":"yellow page","service_name":"Avanta Salon & Spa","category":"beauty salon","phone":"6134171262","address":"1300 Bath Rd, Kingston, ON K7M 4X4","postalcode":"K7M 4X4","website":"http://www.avantaspa.com/","working_hour":"","latitude":"44.237872","longitude":"-76.546052"},{"source":"yellow page","service_name":"Vivaldi's Hair Design","category":"beauty salon","phone":"6137375557","address":"4000 Bridle Path Dr, Gloucester, ON K1T 2C4","postalcode":"K1T 2C4","website":"#","working_hour":"Monday 9:00 am - 5:00 pm   Tuesday 9:00 am - 5:00 pm   Wednesday 9:00 am - 5:00 pm   Thursday 9:00 am - 7:00 pm   Friday 9:00 am - 7:00 pm   Saturday 9:00 am - 5:00 pm","latitude":"45.348404","longitude":"-75.645425"},{"source":"yellow page","service_name":"Westboro Spa & Hair Studio","category":"beauty salon","phone":"6137223456","address":"455 Churchill Ave N, Ottawa, ON K1Z 5E1","postalcode":"K1Z 5E1","website":"#","working_hour":"Tuesday 9:00 am - 9:00 pm   Wednesday 9:00 am - 9:00 pm   Thursday 9:00 am - 9:00 pm   Friday 9:00 am - 9:00 pm   Saturday 8:00 am - 5:00 pm   Sunday 10:00 am - 5:00 pm","latitude":"45.39009","longitude":"-75.752556"},{"source":"yellow page","service_name":"Supreme Hair Design & Esthetics","category":"beauty salon","phone":"3437001099","address":"2269 Riverside Dr, Ottawa, ON K1H 8K2","postalcode":"K1H 8K2","website":" ","working_hour":"Monday 9:00 am - 9:00 pm   Tuesday 9:00 am - 9:00 pm   Wednesday 9:00 am - 9:00 pm   Thursday 9:00 am - 9:00 pm   Friday 9:00 am - 9:00 pm   Saturday 9:00 am - 6:00 pm   Sunday 11:00 am - 5:00 pm","latitude":"45.3867478","longitude":"-75.6797883"},{"source":"yellow page","service_name":"La Coiffure","category":"beauty salon","phone":"613-342-4012","address":"4 Central Ave E, Brockville, ON K6V 1W4","postalcode":"K6V 1W4","website":" ","working_hour":"","latitude":"44.601638","longitude":"-75.6900514"},{"source":"yellow page","service_name":"Bellagio Hair Studio","category":"beauty salon","phone":"6133897395","address":"459 Princess St, Kingston, ON K7L 1C3","postalcode":"K7L 1C3","website":"http://www.facebook.com/BellagioHairStudiokingston/","working_hour":"Tuesday 10:00 am - 8:00 pm   Wednesday 10:00 am - 8:00 pm   Thursday 10:00 am - 8:00 pm   Friday 9:00 am - 6:00 pm   Saturday 9:00 am - 5:00 pm","latitude":"44.234055","longitude":"-76.49461"},{"source":"yellow page","service_name":"Luce Hair Studio- Down Town","category":"beauty salon","phone":"6139000357","address":"170 Princess St, Kingston, ON K7L 1B1","postalcode":"K7L 1B1","website":"http://www.lucehairstudio.com","working_hour":"Monday 10:00 am - 6:00 pm   Tuesday 9:00 am - 6:00 pm   Wednesday 9:00 am - 6:00 pm   Thursday 9:00 am - 9:00 pm   Friday 9:00 am - 9:00 pm   Saturday 9:00 am - 5:00 pm","latitude":"44.231946","longitude":"-76.48491"},{"source":"yellow page","service_name":"Trichology Stylists","category":"beauty salon","phone":"6133260909","address":"23A Wilson St W, Perth, ON K7H 2M8","postalcode":"K7H 2M8","website":"http://www.trichologystylistsperth.com/","working_hour":"Tuesday 9:00 am - 5:00 pm   Wednesday 9:00 am - 5:00 pm   Thursday 9:00 am - 5:00 pm   Friday 9:00 am - 5:00 pm   Saturday 9:00 am - 5:00 pm   Thursday & Friday Until 8pm By Appointment","latitude":"44.901242","longitude":"-76.253543"},{"source":"yellow page","service_name":"Bettye Maves Hairstyling","category":"beauty salon","phone":"6135850269","address":"295 Morris St, Pembroke, ON K8A 2L4","postalcode":"K8A 2L4","website":" ","working_hour":"","latitude":"45.8167963","longitude":"-77.1053032"},{"source":"yellow page","service_name":"Studio 5","category":"beauty salon","phone":"613-735-1291","address":"800 Pembroke St E, Pembroke, ON K8A 3M2","postalcode":"K8A 3M2","website":" ","working_hour":"Monday 9:00 am - 5:00 pm   Tuesday 9:00 am - 5:00 pm   Wednesday 9:00 am - 5:00 pm   Thursday 9:00 am - 5:00 pm   Friday 9:00 am - 5:00 pm","latitude":"45.8256932","longitude":"-77.0906863"},{"source":"yellow page","service_name":"Artistic Hair Gallery","category":"beauty salon","phone":"6133423798","address":"47 Broad St, Brockville, ON K6V 4T9","postalcode":"K6V 4T9","website":" ","working_hour":"Monday 9:00 am - 5:00 pm   Tuesday 1:00 pm - 8:00 pm   Wednesday 9:00 am - 5:00 pm   Thursday 9:00 am - 8:00 pm   Friday 9:00 am - 5:00 pm   Saturday 9:00 am - 2:00 pm","latitude":"44.5890267","longitude":"-75.6836534"},{"source":"yellow page","service_name":"Lorna's Cut'N Curl","category":"beauty salon","phone":"6132674618","address":"77 Foster St, Perth, ON K7H 1R9","postalcode":"K7H 1R9","website":" ","working_hour":"Monday 9:00 am - 5:00 pm   Tuesday 9:00 am - 5:30 pm   Wednesday 9:00 am - 5:30 pm   Thursday 9:00 am - 7:00 pm   Friday 9:00 am - 5:30 pm   Saturday 8:00 am - 1:00 pm","latitude":"44.900564","longitude":"-76.252375"},{"source":"yellow page","service_name":"Clock Tower Beauty Salon","category":"beauty salon","phone":"6133848116","address":"827 Norwest Rd, Kingston, ON K7P 2N4","postalcode":"K7P 2N4","website":" ","working_hour":"Tuesday 9:00 am - 6:00 pm   Wednesday 9:00 am - 6:00 pm   Thursday 9:00 am - 6:00 pm   Friday 9:00 am - 6:00 pm   Saturday 9:00 am - 6:00 pm","latitude":"44.257357","longitude":"-76.574966"},{"source":"yellow page","service_name":"Bancroft Creative Hairstyling","category":"beauty salon","phone":"613-332-5585","address":"67 Cleak, Bancroft, ON K0L 1C0","postalcode":"K0L 1C0","website":" ","working_hour":"Monday 9:00 am - 7:00 pm   Tuesday 9:00 am - 7:00 pm   Wednesday 9:00 am - 7:00 pm   Thursday 9:00 am - 7:00 pm   Friday 9:00 am - 7:00 pm","latitude":"45.0625161","longitude":"-77.8550921"},{"source":"yellow page","service_name":"Solo Mio Eco Salon","category":"beauty salon","phone":"7052233399","address":"1-1163 Cassells St, North Bay, ON P1B 4B4","postalcode":"P1B 4B4","website":"http://www.solomio.ca/","working_hour":"Tuesday 9:00 am - 5:00 pm   Wednesday 9:00 am - 5:00 pm   Thursday 9:00 am - 8:00 pm   Friday 9:00 am - 5:00 pm   Saturday 9:00 am - 3:00 pm","latitude":"46.317746","longitude":"-79.45607"},{"source":"yellow page","service_name":"Hair-I-Go","category":"beauty salon","phone":"6135497286","address":"141 McMichael St, Kingston, ON K7M 1N1","postalcode":"K7M 1N1","website":"http://haircarekingston.com","working_hour":"Tuesday 9:00 am - 4:00 pm   Wednesday 9:00 am - 4:00 pm   Thursday 9:00 am - 4:00 pm   Friday 9:00 am - 4:00 pm   Saturday 9:00 am - 12:00 pm","latitude":"44.252481","longitude":"-76.525532"},{"source":"yellow page","service_name":"Absolute Hair & Esthetics","category":"beauty salon","phone":"7054986516","address":"A 1371 Fisher, North Bay, ON P1B 2H2","postalcode":"P1B 2H2","website":" ","working_hour":"Monday 10:00 am - 7:00 pm   Tuesday 10:00 am - 7:00 pm   Wednesday 10:00 am - 7:00 pm   Thursday 10:00 am - 7:00 pm   Friday 10:00 am - 7:00 pm   Saturday 10:00 am - 6:00 pm","latitude":"46.312071","longitude":"-79.446807"},{"source":"yellow page","service_name":"Hair Affair Unisex","category":"beauty salon","phone":"705-476-6955","address":"284 Main St E, North Bay, ON P1B 1B1","postalcode":"P1B 1B1","website":" ","working_hour":"","latitude":"46.307921","longitude":"-79.461879"},{"source":"yellow page","service_name":"SALON 31","category":"beauty salon","phone":"7058872700","address":"31 Colborne, Fenelon Falls, ON K0M 1N0","postalcode":"K0M 1N0","website":"http://www.salon31.ca","working_hour":"","latitude":"44.301218","longitude":"-78.5575881"},{"source":"yellow page","service_name":"Hair Facts Salon","category":"beauty salon","phone":"613-382-2280","address":"495 King St E, Gananoque, ON K7G 1G9","postalcode":"K7G 1G9","website":" ","working_hour":"Monday 9:00 am - 5:00 pm   Tuesday 1:00 pm - 9:00 pm   Wednesday 9:00 am - 5:00 pm   Thursday 1:00 pm - 9:00 pm   Friday 9:00 am - 5:00 pm","latitude":"44.334445","longitude":"-76.154898"},{"source":"yellow page","service_name":"Luce Hair Studio-East","category":"beauty salon","phone":"6135314697","address":"235 Gore Rd, Kingston, ON K7L 5H6","postalcode":"K7L 5H6","website":"#","working_hour":"Monday 10:00 am - 7:00 pm   Tuesday 10:00 am - 7:00 pm   Wednesday 10:00 am - 7:00 pm   Thursday 10:00 am - 7:00 pm   Friday 10:00 am - 7:00 pm   Saturday 10:00 am - 6:00 pm","latitude":"44.259541","longitude":"-76.45601"},{"source":"yellow page","service_name":"Signature Styles By Tia","category":"beauty salon","phone":"613-432-2801","address":"206 Raglan St S, Renfrew, ON K7V 1R1","postalcode":"K7V 1R1","website":" ","working_hour":"Monday 9:00 am - 7:00 pm   Tuesday 9:00 am - 7:00 pm   Wednesday 9:00 am - 7:00 pm   Thursday 9:00 am - 7:00 pm   Friday 9:00 am - 7:00 pm","latitude":"45.4717759","longitude":"-76.6839256"},{"source":"yellow page","service_name":"Luce Hair Studio","category":"beauty salon","phone":"6135077070","address":"87 Union St W, Kingston, ON K7L 2N9","postalcode":"K7L 2N9","website":"http://www.lucehairstudio.com/","working_hour":"Tuesday 10:00 am - 6:00 pm   Wednesday 10:00 am - 6:00 pm   Thursday 10:00 am - 6:00 pm   Friday 10:00 am - 6:00 pm   Saturday 9:00 am - 5:00 pm","latitude":"44.22789","longitude":"-76.494997"},{"source":"yellow page","service_name":"Parmino's Hairstyling & Tanning","category":"beauty salon","phone":"7054726644","address":"300 Lakeshore Dr, North Bay, ON P1A 3V2","postalcode":"P1A 3V2","website":"http://www.parminoshairstyling.com","working_hour":"Monday 9:00 am - 6:00 pm   Tuesday 9:00 am - 9:00 pm   Wednesday 9:00 am - 9:00 pm   Thursday 9:00 am - 9:00 pm   Friday 9:00 am - 9:00 pm   Saturday 9:00 am - 5:00 pm","latitude":"46.282941","longitude":"-79.44907"},{"source":"yellow page","service_name":"Hair Designers","category":"beauty salon","phone":"7054728069","address":"211 Main St E, North Bay, ON P1B 1B2","postalcode":"P1B 1B2","website":"http://hairdesigners.ca","working_hour":"Tuesday 8:15 am - 5:30 pm   Wednesday 8:15 am - 5:30 pm   Thursday 8:15 am - 7:30 pm   Friday 8:15 am - 5:30 pm   Saturday 7:45 am - 3:30 pm","latitude":"46.308689","longitude":"-79.462554"},{"source":"yellow page","service_name":"Chris' Hair World","category":"beauty salon","phone":"705-324-4991","address":"29 Russell St W, Lindsay, ON K9V 2W5","postalcode":"K9V 2W5","website":" ","working_hour":"Monday 10:00 am - 7:00 pm   Tuesday 10:00 am - 7:00 pm   Wednesday 10:00 am - 7:00 pm   Thursday 10:00 am - 7:00 pm   Friday 10:00 am - 7:00 pm","latitude":"44.3536291","longitude":"-78.7367173"},{"source":"yellow page","service_name":"Vida Salon","category":"beauty salon","phone":"7054761444","address":"103 Worthington St W, North Bay, ON P1B 3B3","postalcode":"P1B 3B3","website":"http://www.vidasalon.ca/","working_hour":"Monday 10:00 am - 7:00 pm   Tuesday 10:00 am - 7:00 pm   Wednesday 10:00 am - 7:00 pm   Thursday 10:00 am - 7:00 pm   Friday 10:00 am - 7:00 pm   Saturday 10:00 am - 6:00 pm","latitude":"46.311468","longitude":"-79.461944"},{"source":"yellow page","service_name":"Ranney's Hair Styling & Hair Replacement","category":"beauty salon","phone":"7054723741","address":"356 Algonquin Ave, North Bay, ON P1B 4W3","postalcode":"P1B 4W3","website":" ","working_hour":"Monday 10:00 am - 7:00 pm   Tuesday 10:00 am - 7:00 pm   Wednesday 10:00 am - 7:00 pm   Thursday 10:00 am - 7:00 pm   Friday 10:00 am - 7:00 pm   Saturday 10:00 am - 6:00 pm","latitude":"46.315249","longitude":"-79.466121"},{"source":"yellow page","service_name":"New Skin Image (The)","category":"beauty salon","phone":"7058402121","address":"879 Cassells St, North Bay, ON P1B 4A5","postalcode":"P1B 4A5","website":"http://www.newskinimage.com","working_hour":"","latitude":"46.316111","longitude":"-79.460269"},{"source":"yellow page","service_name":"Tanamania","category":"beauty salon","phone":"705-482-1388","address":"1867 O'Brien St, North Bay, ON P1B 5Y7","postalcode":"P1B 5Y7","website":"#","working_hour":"Monday 8:00 am - 9:00 pm   Tuesday 8:00 am - 9:00 pm   Wednesday 8:00 am - 9:00 pm   Thursday 8:00 am - 9:00 pm   Friday 8:00 am - 9:00 pm   Saturday 10:00 am - 4:00 pm   Sunday 10:00 am - 4:00 pm   SUNDAY CLOSED DURING SUMMER MONTHS","latitude":"46.33603","longitude":"-79.455571"},{"source":"yellow page","service_name":"Career School of Hairstyling","category":"beauty salon","phone":"9055763558","address":"92 Bond St W, Oshawa, ON L1G 1A5","postalcode":"L1G 1A5","website":"#","working_hour":"Monday 8:00 am - 3:30 pm   Tuesday 8:00 am - 3:30 pm   Wednesday 8:00 am - 3:30 pm   Thursday 8:00 am - 3:30 pm   Friday 8:00 am - 3:30 pm   Evening And Weekend Appointments Available Occasionally","latitude":"43.897616","longitude":"-78.867694"},{"source":"yellow page","service_name":"Styles By Susie Q","category":"beauty salon","phone":"7053280763","address":"2 John St, Lindsay, ON K9V 1J2","postalcode":"K9V 1J2","website":" ","working_hour":"Wednesday 9:00 am - 5:00 pm   Thursday 9:00 am - 5:00 pm   Friday 9:00 am - 5:00 pm   Evening Appointments Available. Walk Ins Only Till 5 Pm Please On Business Day   Emergency Appointments Available","latitude":"44.3594509","longitude":"-78.7337129"},{"source":"yellow page","service_name":"Chez NancyRose Unisex Hairstyling Salon","category":"beauty salon","phone":"7054952210","address":"1120 O'Brien St, North Bay, ON P1B 5X6","postalcode":"P1B 5X6","website":"#","working_hour":"Tuesday 9:00 am - 5:30 pm   Wednesday 9:00 am - 5:30 pm   Thursday 9:00 am - 5:30 pm   Friday 9:00 am - 8:00 pm   Saturday 9:00 am - 5:00 pm   Appointments Preferred","latitude":"46.327685","longitude":"-79.457341"},{"source":"yellow page","service_name":"The Emporium Hair Studio","category":"beauty salon","phone":"705-745-4247","address":"647 George St N, Peterborough, ON K9H 3S7","postalcode":"K9H 3S7","website":"http://theemporiumhairstudio.com/","working_hour":"","latitude":"44.313568","longitude":"-78.320575"},{"source":"yellow page","service_name":"Heads Of Hair For Men & Women","category":"beauty salon","phone":"7054003527","address":"95 Hunter St E, Peterborough, ON K9H 1G4","postalcode":"K9H 1G4","website":" ","working_hour":"","latitude":"44.30646","longitude":"-78.309612"},{"source":"yellow page","service_name":"Jazz Hair Studio","category":"beauty salon","phone":"6133924670","address":"19 Front St, Trenton, ON K8V 4N3","postalcode":"K8V 4N3","website":"https://www.facebook.com/JazzRedken/","working_hour":"Monday 10:00 am - 8:00 pm   Tuesday 10:00 am - 8:00 pm   Wednesday 10:00 am - 8:00 pm   Thursday 10:00 am - 8:00 pm   Friday 10:00 am - 8:00 pm   Saturday 9:00 am - 4:00 pm","latitude":"44.1021871","longitude":"-77.5757942"},{"source":"yellow page","service_name":"VanGogh Designed Hair & Spa","category":"beauty salon","phone":"7058767752","address":"59 McDonnel St, Peterborough, ON K9H 2V5","postalcode":"K9H 2V5","website":"http://www.vghair.com","working_hour":"Appointment only   Please Call for Details","latitude":"44.309766","longitude":"-78.31659"},{"source":"yellow page","service_name":"The Hairport","category":"beauty salon","phone":"9058855818","address":"127 Peter St, Port Hope, ON L1A 1C5","postalcode":"L1A 1C5","website":"https://www.facebook.com/thehairpos?ref=stream","working_hour":"Monday 10:00 am - 7:00 pm   Tuesday 10:00 am - 7:00 pm   Wednesday 10:00 am - 7:00 pm   Thursday 10:00 am - 7:00 pm   Friday 10:00 am - 7:00 pm   Saturday 10:00 am - 6:00 pm","latitude":"43.9501824","longitude":"-78.282437"},{"source":"yellow page","service_name":"Studio 2 Hairstyling","category":"beauty salon","phone":"613-392-7169","address":"499 Dundas St W, Trenton, ON K8V 6C4","postalcode":"K8V 6C4","website":"http://www.studio2hairstyling.ca","working_hour":"","latitude":"44.0947646","longitude":"-77.5971734"},{"source":"yellow page","service_name":"Hairitage Spa & Hair Studio","category":"beauty salon","phone":"705-876-7309","address":"338 Rubidge St, Peterborough, ON K9H 4C7","postalcode":"K9H 4C7","website":" ","working_hour":"","latitude":"44.30366","longitude":"-78.326647"},{"source":"yellow page","service_name":"Quattro Hair Designs","category":"beauty salon","phone":"6139683022","address":"Bayview Mall, Belleville, ON K8N 1G2","postalcode":"K8N 1G2","website":"http://www.quattrohairdesign.com","working_hour":"Monday 9:00 am - 5:30 pm   Tuesday 9:00 am - 5:30 pm   Wednesday 9:00 am - 5:30 pm   Thursday 9:00 am - 5:30 pm   Friday 9:00 am - 5:30 pm   Saturday 9:00 am - 5:00 pm","latitude":"44.163549","longitude":"-77.364776"},{"source":"yellow page","service_name":"Glenda's Place Hair Salon","category":"beauty salon","phone":"7057420770","address":"1840 Lansdowne St W, Peterborough, ON K9K 1R5","postalcode":"K9K 1R5","website":" ","working_hour":"Monday 9:00 am - 5:00 pm   Tuesday 9:00 am - 8:00 pm   Wednesday 9:00 am - 8:00 pm   Thursday 9:00 am - 8:00 pm   Friday 9:00 am - 8:00 pm   Saturday 9:00 am - 2:00 pm   Please Call for Details","latitude":"44.2747165","longitude":"-78.3754467"},{"source":"yellow page","service_name":"Katrina Hair Studio","category":"beauty salon","phone":"705-748-9449","address":"1 Kawartha Heights Blvd, Peterborough, ON K9J 1N4","postalcode":"K9J 1N4","website":" ","working_hour":"Tuesday 9:00 am - 8:00 pm   Wednesday 9:00 am - 4:00 pm   Thursday 9:00 am - 8:00 pm   Friday 9:00 am - 4:00 pm","latitude":"44.2772948","longitude":"-78.3650136"},{"source":"yellow page","service_name":"Euphoria Spa","category":"beauty salon","phone":"7057414772","address":"290 Water St, Peterborough, ON K9J 3C7","postalcode":"K9J 3C7","website":"#","working_hour":"Monday 9:00 am - 5:00 pm   Tuesday 9:00 am - 8:00 pm   Wednesday 9:00 am - 8:00 pm   Thursday 9:00 am - 8:00 pm   Friday 9:00 am - 8:00 pm   Saturday 9:00 am - 5:00 pm   Sunday 11:00 am - 4:00 pm","latitude":"44.302477","longitude":"-78.318916"},{"source":"yellow page","service_name":"Locks Salon & Spa","category":"beauty salon","phone":"7053041177","address":"682 George St N, Peterborough, ON K9H 3S9","postalcode":"K9H 3S9","website":"http://www.lockssalonspa.com","working_hour":"Monday 9:00 am - 7:00 pm   Tuesday 9:00 am - 7:00 pm   Wednesday 9:00 am - 7:00 pm   Thursday 9:00 am - 7:00 pm   Friday 9:00 am - 7:00 pm   Saturday 8:30 am - 2:30 pm   Posted Hours May Be Altered During Holiday Periods And At Other Times","latitude":"44.314675","longitude":"-78.320646"},{"source":"yellow page","service_name":"Revive Hair Lounge","category":"beauty salon","phone":"7057414162","address":"73 Hunter St E, Peterborough, ON K9H 1G4","postalcode":"K9H 1G4","website":"#","working_hour":"Wednesday 10:00 am - 6:00 pm   Thursday 12:00 am - 8:00 pm   Friday 12:00 am - 8:00 pm   Saturday 10:00 am - 6:00 pm   Sunday 11:00 am - 5:00 pm","latitude":"44.306279","longitude":"-78.310399"},{"source":"yellow page","service_name":"Joseph Anthony's Hair & Esthetics","category":"beauty salon","phone":"6139661994","address":"10 Dundas St W, Belleville, ON K8P 1A1","postalcode":"K8P 1A1","website":"#","working_hour":"Monday 9:00 am - 5:00 pm   Tuesday 9:00 am - 5:00 pm   Wednesday 9:00 am - 6:00 pm   Thursday 9:00 am - 7:00 pm   Friday 9:00 am - 5:00 pm   Saturday 8:30 am - 3:00 pm","latitude":"44.1601798","longitude":"-77.3859768"},{"source":"yellow page","service_name":"Salon You & Day Spa","category":"beauty salon","phone":"6137076051","address":"390 North Front St, Belleville, ON K8P 3E1","postalcode":"K8P 3E1","website":"#","working_hour":"Monday 9:00 am - 9:00 pm   Tuesday 9:00 am - 9:00 pm   Wednesday 9:00 am - 9:00 pm   Thursday 9:00 am - 9:00 pm   Friday 9:00 am - 9:00 pm   Saturday 8:30 am - 6:00 pm   Sunday 11:00 am - 5:00 pm","latitude":"44.188332","longitude":"-77.3964436"},{"source":"yellow page","service_name":"Affinity Hair & Beauty","category":"beauty salon","phone":"7057400365","address":"3-880 Armour Rd, Peterborough, ON K9H 2A6","postalcode":"K9H 2A6","website":"#","working_hour":"Monday 10:00 am - 5:00 pm   Tuesday 10:00 am - 5:00 pm   Wednesday 10:00 am - 5:00 pm   Thursday 10:00 am - 5:00 pm   Friday 10:00 am - 5:00 pm   Saturday 9:00 am - 3:00 pm","latitude":"44.323343","longitude":"-78.309697"},{"source":"yellow page","service_name":"Vivid Salon","category":"beauty salon","phone":"7053272221","address":"280 Laclie St, Orillia, ON L3V 4N7","postalcode":"L3V 4N7","website":"#","working_hour":"Tuesday 9:30 am - 5:00 pm   Wednesday 9:30 am - 5:00 pm   Thursday 9:30 am - 7:00 pm   Friday 9:30 am - 6:00 pm   Saturday 9:00 am - 2:00 pm   Later Appointments available upon request","latitude":"44.618716","longitude":"-79.420385"},{"source":"yellow page","service_name":"Rosa's Haircare","category":"beauty salon","phone":"705-329-1061","address":"127 HAWTHORNE PLACE, ORILLIA, ON L3V 6H2","postalcode":"L3V 6H2","website":" ","working_hour":"","latitude":"44.6083672","longitude":"-79.4726167"},{"source":"yellow page","service_name":"Ottavio's Hair Design","category":"beauty salon","phone":"705-329-2020","address":"150 Mississaga St E, Orillia, ON L3V 1V7","postalcode":"L3V 1V7","website":" ","working_hour":"Monday 10:00 am - 7:00 pm   Tuesday 10:00 am - 7:00 pm   Wednesday 10:00 am - 7:00 pm   Thursday 10:00 am - 7:00 pm   Friday 10:00 am - 7:00 pm   Saturday 10:00 am - 6:00 pm","latitude":"44.609831","longitude":"-79.416013"},{"source":"yellow page","service_name":"Peaches & Cream Salon Spa","category":"beauty salon","phone":"7053273224","address":"474 West St N, Orillia, ON L3V 5E8","postalcode":"L3V 5E8","website":"#","working_hour":"Tuesday 9:00 am - 5:00 pm   Wednesday 9:00 am - 5:30 pm   Thursday 9:00 am - 5:30 pm   Friday 9:00 am - 5:30 pm   Saturday 9:00 am - 2:00 pm","latitude":"44.6251313","longitude":"-79.4336269"},{"source":"yellow page","service_name":"Jazz Hair Studio","category":"beauty salon","phone":"6139664670","address":"25 Great St James St, Belleville, ON K8N 3J3","postalcode":"K8N 3J3","website":"https://www.facebook.com/JazzRedken/","working_hour":"Monday 10:00 am - 8:00 pm   Tuesday 10:00 am - 8:00 pm   Wednesday 10:00 am - 8:00 pm   Thursday 10:00 am - 8:00 pm   Friday 10:00 am - 8:00 pm   Saturday 9:00 am - 5:00 pm","latitude":"44.1701073","longitude":"-77.3832958"},{"source":"yellow page","service_name":"Giovanni & Perri","category":"beauty salon","phone":"705-558-3500","address":"31 West St S, Orillia, ON L3V 5G2","postalcode":"L3V 5G2","website":"http://www.giovanniandperri.com","working_hour":"","latitude":"44.6076122","longitude":"-79.4191375"},{"source":"yellow page","service_name":"Avaia Salon Spa & Tanning Studio","category":"beauty salon","phone":"7055583514","address":"9 Front St S, Orillia, ON L3V 4S1","postalcode":"L3V 4S1","website":"#","working_hour":"Monday 9:00 am - 5:00 pm   Tuesday 9:00 am - 5:00 pm   Wednesday 9:00 am - 5:00 pm   Thursday 9:00 am - 5:00 pm   Friday 9:00 am - 5:00 pm   Saturday 9:00 am - 4:00 pm   Appointments Available, Not Required","latitude":"44.609975","longitude":"-79.414337"},{"source":"yellow page","service_name":"Hair By Giovanni","category":"beauty salon","phone":"9052405440","address":"1330 Ritson Rd N, Oshawa, ON L1G 6Z6","postalcode":"L1G 6Z6","website":" ","working_hour":"Monday 10:00 am - 6:00 pm   Tuesday 10:00 am - 6:00 pm   Wednesday 10:00 am - 6:00 pm   Thursday 10:00 am - 6:00 pm   Friday 10:00 am - 6:00 pm   Saturday 10:00 am - 6:00 pm   Emergency appointments available","latitude":"43.934446","longitude":"-78.868886"},{"source":"yellow page","service_name":"Trinity Salon","category":"beauty salon","phone":"9052407333","address":"7-501 Coldstream Dr, Oshawa, ON L1K 3B3","postalcode":"L1K 3B3","website":"#","working_hour":"Monday 10:00 am - 8:00 pm   Tuesday 10:00 am - 8:00 pm   Wednesday 10:00 am - 8:00 pm   Thursday 10:00 am - 9:00 pm   Friday 10:00 am - 9:00 pm   Saturday 10:00 am - 5:00 pm   Sunday 12:00 pm - 4:00 pm   Walk-Ins Welcome   No Appointment Required","latitude":"43.944407","longitude":"-78.87233"},{"source":"yellow page","service_name":"The John Weiss Hair Design","category":"beauty salon","phone":"2892741062","address":"198 King St E, Oshawa, ON L1H 1C4","postalcode":"L1H 1C4","website":"#","working_hour":"Tuesday 7:00 am - 5:00 pm   Wednesday 7:00 am - 5:00 pm   Thursday 7:00 am - 7:00 pm   Friday 7:00 am - 5:00 pm   Saturday 7:00 am - 5:00 pm   Appointment Only","latitude":"43.899263","longitude":"-78.856376"},{"source":"yellow page","service_name":"Aquilibrium Salon & Spa","category":"beauty salon","phone":"2892745825","address":"4-1383 Wilson Rd N, Oshawa, ON L1K 2Z5","postalcode":"L1K 2Z5","website":"#","working_hour":"Tuesday 9:30 am - 7:00 pm   Wednesday 9:30 am - 8:00 pm   Thursday 9:30 am - 9:00 pm   Friday 9:30 am - 9:00 pm   Saturday 9:00 am - 5:00 pm","latitude":"43.9376326","longitude":"-78.8593395"},{"source":"yellow page","service_name":"Joseph's Hair Styling","category":"beauty salon","phone":"2893121190","address":"419 King St W, Oshawa, ON L1J 2K5","postalcode":"L1J 2K5","website":"http://www.josephshairstyling.com","working_hour":"Monday 9:00 am - 8:30 pm   Tuesday 9:00 am - 8:30 pm   Wednesday 9:00 am - 8:30 pm   Thursday 9:00 am - 8:30 pm   Friday 9:00 am - 8:30 pm   Saturday 9:00 am - 5:30 pm   Sunday 11:00 am - 5:30 pm","latitude":"43.8940463","longitude":"-78.8790655"},{"source":"yellow page","service_name":"Nella Town & Country Salon","category":"beauty salon","phone":"7053253175","address":"397 Mississaga St W, Orillia, ON L3V 3C4","postalcode":"L3V 3C4","website":"#","working_hour":"Tuesday 8:00 am - 5:00 pm   Wednesday 8:00 am - 5:00 pm   Thursday 8:00 am - 5:00 pm   Friday 8:00 am - 5:00 pm   Saturday 8:00 am - 2:00 pm","latitude":"44.600253","longitude":"-79.439509"},{"source":"yellow page","service_name":"Serenity Hair Design & Spa","category":"beauty salon","phone":"613-748-7642","address":"1661 Montreal Rd, Gloucester, ON K1J 9B7","postalcode":"K1J 9B7","website":"http://serenityhairdesign.ca","working_hour":"","latitude":"45.446387","longitude":"-75.613598"},{"source":"yellow page","service_name":"Hair Affordables","category":"beauty salon","phone":"6137458804","address":"876 Montreal Rd, Ottawa, ON K1K 4L3","postalcode":"K1K 4L3","website":" ","working_hour":"","latitude":"45.446305","longitude":"-75.630514"},{"source":"yellow page","service_name":"Salon Unique","category":"beauty salon","phone":"613-695-8444","address":"2200 Montreal Rd, Gloucester, ON K1J 6M5","postalcode":"K1J 6M5","website":" ","working_hour":"","latitude":"45.450262","longitude":"-75.587074"},{"source":"yellow page","service_name":"The Bliss","category":"beauty salon","phone":"613-741-5411","address":"1-877 Shefford Rd, Gloucester, ON K1J 8H9","postalcode":"K1J 8H9","website":" ","working_hour":"Monday 10:00 am - 7:00 pm   Tuesday 10:00 am - 7:00 pm   Wednesday 10:00 am - 7:00 pm   Thursday 10:00 am - 7:00 pm   Friday 10:00 am - 7:00 pm   Saturday 10:00 am - 6:00 pm","latitude":"45.453732","longitude":"-75.590153"},{"source":"yellow page","service_name":"Toan Sang Inc","category":"beauty salon","phone":"6139166363","address":"5-1459 Ogilvie Rd, Ottawa, ON K1J 8K6","postalcode":"K1J 8K6","website":" ","working_hour":"","latitude":"45.431955","longitude":"-75.617298"},{"source":"yellow page","service_name":"First Choice Haircutters","category":"beauty salon","phone":"6137443382","address":"2187 Ogilvie Rd, Gloucester, ON K1J 8Y6","postalcode":"K1J 8Y6","website":"#","working_hour":"","latitude":"45.4426651","longitude":"-75.5973485"},{"source":"yellow page","service_name":"Romeo Hair Design Inc","category":"beauty salon","phone":"613-745-1010","address":"1948 Montreal Rd, Gloucester, ON K1J 6N2","postalcode":"K1J 6N2","website":"http://ottawabeautysalondirectory.com","working_hour":"","latitude":"45.4459945","longitude":"-75.5970797"},{"source":"yellow page","service_name":"Oasis Unisex Hair Studio","category":"beauty salon","phone":"6137458945","address":"876 Montreal Rd, Ottawa, ON K1K 4L3","postalcode":"K1K 4L3","website":"#","working_hour":"Tuesday 9:00 am - 9:00 pm   Wednesday 9:00 am - 9:00 pm   Thursday 9:00 am - 9:00 pm   Friday 9:00 am - 9:00 pm   Saturday 9:00 am - 6:00 pm   Emergency appointments available","latitude":"45.446305","longitude":"-75.630514"},{"source":"yellow page","service_name":"Salon Toujours Inc","category":"beauty salon","phone":"613-749-3940","address":"1661 Montreal Rd, Gloucester, ON K1J 9B7","postalcode":"K1J 9B7","website":" ","working_hour":"Monday 11:00 am - 7:00 pm   Tuesday 11:00 am - 7:00 pm   Wednesday 11:00 am - 7:00 pm   Thursday 11:00 am - 7:00 pm   Friday 11:00 am - 7:00 pm","latitude":"45.446387","longitude":"-75.613598"},{"source":"yellow page","service_name":"The Total Look","category":"beauty salon","phone":"613-744-7944","address":"101-1675 Cyrville Rd, Gloucester, ON K1B 3L7","postalcode":"K1B 3L7","website":" ","working_hour":"Monday 10:00 am - 7:00 pm   Tuesday 10:00 am - 7:00 pm   Wednesday 10:00 am - 7:00 pm   Thursday 10:00 am - 7:00 pm   Friday 10:00 am - 7:00 pm   Saturday 10:00 am - 6:00 pm","latitude":"45.4175132","longitude":"-75.6072605"},{"source":"yellow page","service_name":"Romeo Coiffure Hair Design Inc","category":"beauty salon","phone":"6137451010","address":"1948 Montreal Rd, Gloucester, ON K1J 6N2","postalcode":"K1J 6N2","website":"http://ottawabeautysalondirectory.com","working_hour":"","latitude":"45.4459945","longitude":"-75.5970797"},{"source":"yellow page","service_name":"Creation Gaetan Unisex","category":"beauty salon","phone":"613-740-0700","address":"2126 Montreal Rd, Gloucester, ON K1J 6M7","postalcode":"K1J 6M7","website":" ","working_hour":"","latitude":"45.4485968","longitude":"-75.5911672"},{"source":"yellow page","service_name":"Minu Siddique","category":"beauty salon","phone":"613-302-9356","address":"1661 Montreal Rd, Gloucester, ON K1J 9B7","postalcode":"K1J 9B7","website":" ","working_hour":"","latitude":"45.446387","longitude":"-75.613598"},{"source":"yellow page","service_name":"Hair Kraft Salon","category":"beauty salon","phone":"613-422-8801","address":"641 Bathgate Dr, Ottawa, ON K1K 3Y3","postalcode":"K1K 3Y3","website":" ","working_hour":"","latitude":"45.446487","longitude":"-75.625193"},{"source":"yellow page","service_name":"First Choice Hair Salon","category":"beauty salon","phone":"613-744-7725","address":"2187 Ogilvie Rd, Gloucester, ON K1J 8Y7","postalcode":"K1J 8Y7","website":"http://www.firstchoice.com/customer/salondetail/default.asp?salonid=51108","working_hour":"Monday 9:00 am - 8:00 pm   Tuesday 9:00 am - 8:00 pm   Wednesday 9:00 am - 8:00 pm   Thursday 9:00 am - 8:00 pm   Friday 9:00 am - 8:00 pm   Saturday 9:00 am - 5:00 pm   Sunday 11:00 am - 4:00 pm","latitude":"45.4426651","longitude":"-75.5973485"},{"source":"yellow page","service_name":"Snippers, Maitre Coiffeur","category":"beauty salon","phone":"613-241-5927","address":"302 Cumberland St, Ottawa, ON K1N 7H9","postalcode":"K1N 7H9","website":"http://www.snippersottawa.com","working_hour":"Tuesday 9:00 am - 6:00 pm   Wednesday 9:00 am - 6:00 pm   Thursday 9:00 am - 6:00 pm   Friday 9:00 am - 6:00 pm   Saturday 9:00 am - 5:00 pm","latitude":"45.431032","longitude":"-75.689975"},{"source":"yellow page","service_name":"Gissoo Studio","category":"beauty salon","phone":"613-744-7457","address":"2061 Meadowbrook Rd, Gloucester, ON K1B 4W7","postalcode":"K1B 4W7","website":" ","working_hour":"Monday 10:00 am - 7:00 pm   Tuesday 10:00 am - 7:00 pm   Wednesday 10:00 am - 7:00 pm   Thursday 10:00 am - 7:00 pm   Friday 10:00 am - 7:00 pm   Saturday 10:00 am - 6:00 pm","latitude":"45.4269512","longitude":"-75.6012321"},{"source":"yellow page","service_name":"Studio Jade","category":"beauty salon","phone":"6138308899","address":"110 Bearbrook Rd, Gloucester, ON K1B 5R2","postalcode":"K1B 5R2","website":"http://www.studiojade.ca/","working_hour":"Monday 10:00 am - 7:00 pm   Tuesday 10:00 am - 7:00 pm   Wednesday 10:00 am - 7:00 pm   Thursday 10:00 am - 7:00 pm   Friday 10:00 am - 7:00 pm   Saturday 10:00 am - 6:00 pm","latitude":"45.432145","longitude":"-75.564778"},{"source":"yellow page","service_name":"Hair Alive Beauty Salon","category":"beauty salon","phone":"613-824-1172","address":"205 Glen Park Dr, Gloucester, ON K1B 5B8","postalcode":"K1B 5B8","website":" ","working_hour":"","latitude":"45.430959","longitude":"-75.564158"},{"source":"yellow page","service_name":"Cloud Nine","category":"beauty salon","phone":"6137480165","address":"2087 Montreal Rd, Gloucester, ON K1J 6M6","postalcode":"K1J 6M6","website":"http://www.cloudproduction.ca","working_hour":"","latitude":"45.44789","longitude":"-75.593074"},{"source":"yellow page","service_name":"My Beauty Salon","category":"beauty salon","phone":"613-824-9558","address":"96 Glen Park Dr, Gloucester, ON K1B 3Z2","postalcode":"K1B 3Z2","website":" ","working_hour":"","latitude":"45.4287564","longitude":"-75.5657723"},{"source":"yellow page","service_name":"Scissors Hair Studio","category":"beauty salon","phone":"6138365882","address":"2A-6081 Hazeldean Rd, Stittsville, ON K2S 1B9","postalcode":"K2S 1B9","website":"#","working_hour":"Monday 12:00 am - 11:59 pm   Tuesday 12:00 am - 11:59 pm   Wednesday 12:00 am - 11:59 pm   Thursday 12:00 am - 11:59 pm   Friday 12:00 am - 11:59 pm   Saturday 12:00 am - 11:59 pm   Sunday 12:00 am - 11:59 pm   Appointment Only","latitude":"45.271759","longitude":"-75.931454"},{"source":"yellow page","service_name":"Anka's Esthetics","category":"beauty salon","phone":"613-220-2980","address":"308 Preston St, Ottawa, ON K1R 7R6","postalcode":"K1R 7R6","website":"#","working_hour":"Tuesday 9:00 am - 6:00 pm   Wednesday 9:00 am - 6:00 pm   Thursday 9:00 am - 6:00 pm   Friday 9:00 am - 6:00 pm   Saturday 9:00 am - 6:00 pm   Walk In Are Welcome","latitude":"45.4032014","longitude":"-75.7110795"},{"source":"yellow page","service_name":"Le Salon","category":"beauty salon","phone":"6135620921","address":"1067 Bank St, Ottawa, ON K1S 3W9","postalcode":"K1S 3W9","website":"#","working_hour":"Tuesday 9:00 am - 8:00 pm   Wednesday 9:00 am - 8:00 pm   Thursday 9:00 am - 8:00 pm   Friday 9:00 am - 8:00 pm   Saturday 9:00 am - 8:00 pm","latitude":"45.394762","longitude":"-75.6836707"},{"source":"yellow page","service_name":"Rabaa Hair Studio","category":"beauty salon","phone":"6132657742","address":"3-888 Meadowlands Dr, Ottawa, ON K2C 3R2","postalcode":"K2C 3R2","website":"#","working_hour":"Monday 9:30 am - 6:00 pm   Tuesday 9:30 am - 6:00 pm   Wednesday 9:30 am - 8:00 pm   Thursday 9:30 am - 8:00 pm   Friday 9:30 am - 8:00 pm   Saturday 9:30 am - 5:00 pm","latitude":"45.367847","longitude":"-75.70243"},{"source":"yellow page","service_name":"Kanata Hair Care Services","category":"beauty salon","phone":"6135928107","address":"45-499 Terry Fox Dr, Kanata, ON K2T 1H7","postalcode":"K2T 1H7","website":"#","working_hour":"Monday 9:00 am - 5:00 pm   Tuesday 9:00 am - 5:00 pm   Wednesday 9:00 am - 5:00 pm   Thursday 9:00 am - 5:00 pm   Friday 9:00 am - 5:00 pm","latitude":"45.309867","longitude":"-75.91932"},{"source":"yellow page","service_name":"Stittsville Hair Design Salon & Spa","category":"beauty salon","phone":"613-831-8222","address":"1535 Stittsville Main St, Stittsville, ON K2S 1P1","postalcode":"K2S 1P1","website":"http://www.stittsvillehairdesign.ca","working_hour":"","latitude":"45.257481","longitude":"-75.919803"},{"source":"yellow page","service_name":"New Edinburgh Hairstyling & Spa","category":"beauty salon","phone":"6137492116","address":"131 Crichton St, Ottawa, ON K1M 1V8","postalcode":"K1M 1V8","website":"#","working_hour":"Tuesday 9:00 am - 7:00 pm   Wednesday 9:00 am - 7:00 pm   Thursday 9:00 am - 7:00 pm   Friday 9:00 am - 7:00 pm   Saturday 9:00 am - 4:00 pm   Hair services offered evenings by appointment","latitude":"45.4405981","longitude":"-75.6862565"},{"source":"yellow page","service_name":"Gilio's Unisex Hair Styling","category":"beauty salon","phone":"6132242240","address":"55 Glenridge Rd, Nepean, ON K2G 2Z6","postalcode":"K2G 2Z6","website":"#","working_hour":"Tuesday 9:00 am - 6:00 pm   Wednesday 9:00 am - 6:00 pm   Thursday 9:00 am - 7:00 pm   Friday 9:00 am - 7:00 pm   Saturday 8:00 am - 4:00 pm   Appointment only","latitude":"45.343871","longitude":"-75.73371"},{"source":"yellow page","service_name":"Scissors Hair Studio","category":"beauty salon","phone":"6132414807","address":"101 Murray St, Ottawa, ON K1N 5M5","postalcode":"K1N 5M5","website":"#","working_hour":"Monday 12:00 am - 11:59 pm   Tuesday 12:00 am - 11:59 pm   Wednesday 12:00 am - 11:59 pm   Thursday 12:00 am - 11:59 pm   Friday 12:00 am - 11:59 pm   Saturday 12:00 am - 11:59 pm   Sunday 12:00 am - 11:59 pm   Appointment Only","latitude":"45.4298978","longitude":"-75.6931223"},{"source":"yellow page","service_name":"Teaze Hair Studio Inc","category":"beauty salon","phone":"3437000913","address":"152 MacLaren St, Ottawa, ON K2P 0K9","postalcode":"K2P 0K9","website":"#","working_hour":"Tuesday 10:00 am - 5:00 pm   Wednesday 9:30 am - 5:00 pm   Thursday 9:30 am - 7:00 pm   Friday 9:30 am - 7:00 pm   Saturday 9:00 am - 4:00 pm   Walkins Welcome","latitude":"45.4174851","longitude":"-75.6890277"},{"source":"yellow page","service_name":"It's A Wrap Studio And Spa","category":"beauty salon","phone":"6132711008","address":"450 Kanata Ave, Kanata, ON K2T 1K5","postalcode":"K2T 1K5","website":"#","working_hour":"Monday 9:00 am - 6:00 pm   Tuesday 9:00 am - 6:00 pm   Wednesday 9:00 am - 7:00 pm   Thursday 9:00 am - 7:00 pm   Friday 9:00 am - 7:00 pm   Saturday 9:00 am - 4:00 pm","latitude":"45.3122697","longitude":"-75.9068988"},{"source":"yellow page","service_name":"Les Mains D'or Hair & Esthetics","category":"beauty salon","phone":"6138304224","address":"1675 10th Line Rd, Ottawa, ON K1E 3P6","postalcode":"K1E 3P6","website":"#","working_hour":"Monday 9:30 am - 7:00 pm   Tuesday 9:30 am - 7:00 pm   Wednesday 9:30 am - 8:00 pm   Thursday 9:30 am - 8:00 pm   Friday 9:30 am - 6:00 pm   Saturday 9:00 am - 3:00 pm","latitude":"45.468809","longitude":"-75.492399"},{"source":"yellow page","service_name":"Hair Studio 204","category":"beauty salon","phone":"6132332102","address":"171 Bank St, Ottawa, ON K2P 1W5","postalcode":"K2P 1W5","website":" ","working_hour":"Monday 9:00 am - 5:00 pm   Tuesday 9:00 am - 5:00 pm   Wednesday 9:00 am - 5:00 pm   Thursday 9:00 am - 5:00 pm   Friday 9:00 am - 5:00 pm   Saturday 9:00 am - 4:00 pm","latitude":"45.418234","longitude":"-75.698808"},{"source":"yellow page","service_name":"Salon Vogue","category":"beauty salon","phone":"6136323542","address":"542 Main St E, Hawkesbury, ON K6A 1A9","postalcode":"K6A 1A9","website":"http://salonvogue.vitrinecanada.com/","working_hour":"Monday 10:00 am - 7:00 pm   Tuesday 10:00 am - 7:00 pm   Wednesday 10:00 am - 7:00 pm   Thursday 10:00 am - 7:00 pm   Friday 10:00 am - 7:00 pm   Saturday 10:00 am - 6:00 pm   Tuesday to Saturday   With or without appointment","latitude":"45.6103439","longitude":"-74.6023229"},{"source":"yellow page","service_name":"Dutch Touch Hairstyling","category":"beauty salon","phone":"6135433111","address":"75 Plaza, Morrisburg, ON K0C 1X0","postalcode":"K0C 1X0","website":" ","working_hour":"Monday 10:00 am - 5:00 pm   Tuesday 10:00 am - 5:00 pm   Thursday 9:00 am - 6:00 pm   Friday 9:00 am - 8:00 pm   Saturday 9:00 am - 2:00 pm","latitude":"44.8935564","longitude":"-75.1921329"},{"source":"yellow page","service_name":"Esthétique Électrolyse l'Excellence","category":"beauty salon","phone":"613-675-0448","address":"1053 B Rue King, L'Orignal, K0B 1K0","postalcode":"K0B 1K0","website":" ","working_hour":"Monday 8:00 am - 8:00 pm   Tuesday 8:00 am - 8:00 pm   Wednesday 8:00 am - 8:00 pm   Thursday 8:00 am - 8:00 pm   Friday 8:00 am - 8:00 pm   Appointment Only","latitude":"45.590043","longitude":"-74.801821"},{"source":"yellow page","service_name":"Coiffure Plus","category":"beauty salon","phone":"450-562-0156","address":"538, av d'Argenteuil, Lachute, QC J8H 3Y3","postalcode":"J8H 3Y3","website":" ","working_hour":"Monday 8:00 am - 4:00 pm   Tuesday 8:00 am - 4:00 pm   Wednesday 8:00 am - 4:00 pm   Thursday 8:00 am - 4:00 pm   Friday 8:00 am - 4:00 pm","latitude":"45.6332137","longitude":"-74.3496905"},{"source":"yellow page","service_name":"Au Jardin De La Beauté","category":"beauty salon","phone":"450-562-5321","address":"375, boul de l'Aeroparc, Lachute, QC J8H 3V9","postalcode":"J8H 3V9","website":" ","working_hour":"Monday 9:00 am - 6:00 pm   Tuesday 9:00 am - 6:00 pm   Wednesday 9:00 am - 6:00 pm   Thursday 9:00 am - 6:00 pm   Friday 9:00 am - 6:00 pm   Saturday 9:00 am - 12:00 pm   Appointment Only","latitude":"45.644484","longitude":"-74.361185"},{"source":"yellow page","service_name":"Coiffure Anick Morin","category":"beauty salon","phone":"450-409-3334","address":"18, av de la Providence, Lachute, QC J8H 3K9","postalcode":"J8H 3K9","website":" ","working_hour":"","latitude":"45.656446","longitude":"-74.342432"},{"source":"yellow page","service_name":"Salon Coiffure Vizuel","category":"beauty salon","phone":"613-636-0445","address":"995 Ghislain St, Hawkesbury, ON K6A 3B3","postalcode":"K6A 3B3","website":" ","working_hour":"Monday 10:00 am - 7:00 pm   Tuesday 10:00 am - 7:00 pm   Wednesday 10:00 am - 7:00 pm   Thursday 10:00 am - 7:00 pm   Friday 10:00 am - 7:00 pm   Saturday 10:00 am - 6:00 pm","latitude":"45.599447","longitude":"-74.610996"},{"source":"yellow page","service_name":"Boutik Nicole","category":"beauty salon","phone":"4505624249","address":"539 rue Principale, Lachute, QC J8H 1Y6","postalcode":"J8H 1Y6","website":"#","working_hour":"Monday 9:30 am - 5:00 pm   Tuesday 9:30 am - 5:00 pm   Wednesday 9:30 am - 5:00 pm   Thursday 9:30 am - 8:00 pm   Friday 9:30 am - 8:00 pm   Saturday 10:00 am - 3:00 pm","latitude":"45.657193","longitude":"-74.333447"},{"source":"yellow page","service_name":"Salon Multi Coupe & Spa","category":"beauty salon","phone":"613-632-0506","address":"623 Main St E, Hawkesbury, ON K6A 1B3","postalcode":"K6A 1B3","website":" ","working_hour":"","latitude":"45.6103611","longitude":"-74.6008022"},{"source":"yellow page","service_name":"Salon de Coiffure Mec & Nana","category":"beauty salon","phone":"450-562-0662","address":"402, rue Principale, Lachute, QC J8H 1Y2","postalcode":"J8H 1Y2","website":" ","working_hour":"Monday 9:00 am - 7:00 pm   Tuesday 9:00 am - 7:00 pm   Wednesday 9:00 am - 7:00 pm   Thursday 9:00 am - 7:00 pm   Friday 9:00 am - 7:00 pm","latitude":"45.6560049","longitude":"-74.3390807"},{"source":"yellow page","service_name":"Salon Studio Clip","category":"beauty salon","phone":"613-632-8934","address":"400 Spence Ave, Hawkesbury, ON K6A 2Y3","postalcode":"K6A 2Y3","website":" ","working_hour":"Monday 10:00 am - 7:00 pm   Tuesday 10:00 am - 7:00 pm   Wednesday 10:00 am - 7:00 pm   Thursday 10:00 am - 7:00 pm   Friday 10:00 am - 7:00 pm   Saturday 10:00 am - 6:00 pm","latitude":"45.5986269","longitude":"-74.6115408"},{"source":"yellow page","service_name":"Salon Flash Coiffure","category":"beauty salon","phone":"6136324559","address":"1404 Main St E, Hawkesbury, ON K6A 1C6","postalcode":"K6A 1C6","website":" ","working_hour":"Monday 9:00 am - 7:00 pm   Tuesday 9:00 am - 7:00 pm   Wednesday 9:00 am - 7:00 pm   Thursday 9:00 am - 7:00 pm   Friday 9:00 am - 7:00 pm","latitude":"45.607762","longitude":"-74.586425"},{"source":"yellow page","service_name":"First Choice Haircutters","category":"beauty salon","phone":"6136323457","address":"454 County Road 17, Hawkesbury, ON K6A 2R2","postalcode":"K6A 2R2","website":" ","working_hour":"","latitude":"45.589905","longitude":"-74.592104"},{"source":"yellow page","service_name":"Coiffure Rachel Enr","category":"beauty salon","phone":"4505621425","address":"90 rue Urbain, Lachute, QC J8H 4H8","postalcode":"J8H 4H8","website":" ","working_hour":"Tuesday 9:00 am - 5:00 pm   Wednesday 9:00 am - 5:00 pm   Thursday 9:00 am - 5:00 pm   Friday 9:00 am - 5:00 pm   Saturday 9:00 am - 5:00 pm   Appointment Only","latitude":"45.665274","longitude":"-74.355678"},{"source":"yellow page","service_name":"Salon Aquarius","category":"beauty salon","phone":"6136324511","address":"220 Champlain St, Hawkesbury, ON K6A 2C1","postalcode":"K6A 2C1","website":"http://salonaquarius.com/","working_hour":"Monday 10:00 am - 7:00 pm   Tuesday 10:00 am - 7:00 pm   Wednesday 10:00 am - 7:00 pm   Thursday 10:00 am - 7:00 pm   Friday 10:00 am - 7:00 pm   Saturday 10:00 am - 6:00 pm","latitude":"45.609179","longitude":"-74.591107"},{"source":"yellow page","service_name":"Salon Azur","category":"beauty salon","phone":"613-632-7315","address":"611 Albert St, Hawkesbury, ON K6A 3C4","postalcode":"K6A 3C4","website":" ","working_hour":"Monday 10:00 am - 7:00 pm   Tuesday 10:00 am - 7:00 pm   Wednesday 10:00 am - 7:00 pm   Thursday 10:00 am - 7:00 pm   Friday 10:00 am - 7:00 pm   Saturday 10:00 am - 6:00 pm","latitude":"45.60108","longitude":"-74.605749"},{"source":"yellow page","service_name":"Studio Eclipse","category":"beauty salon","phone":"6136320077","address":"493 Main St E, Hawkesbury, ON K6A 1B3","postalcode":"K6A 1B3","website":" ","working_hour":"","latitude":"45.61042","longitude":"-74.6030574"},{"source":"yellow page","service_name":"Studio Inter-Coupe","category":"beauty salon","phone":"613-632-8888","address":"615 Theriault St, Hawkesbury, ON K6A 1Z5","postalcode":"K6A 1Z5","website":" ","working_hour":"Monday 10:00 am - 7:00 pm   Tuesday 10:00 am - 7:00 pm   Wednesday 10:00 am - 7:00 pm   Thursday 10:00 am - 7:00 pm   Friday 10:00 am - 7:00 pm   Saturday 10:00 am - 6:00 pm","latitude":"45.6051773","longitude":"-74.5995737"},{"source":"yellow page","service_name":"Salon Estelle","category":"beauty salon","phone":"613-632-4213","address":"252 William St, Hawkesbury, ON K6A 1X1","postalcode":"K6A 1X1","website":" ","working_hour":"Monday 9:00 am - 5:30 pm   Tuesday 9:00 am - 5:30 pm   Wednesday 9:00 am - 5:30 pm   Thursday 9:00 am - 5:30 pm   Friday 9:00 am - 5:30 pm","latitude":"45.6096047","longitude":"-74.6053437"},{"source":"yellow page","service_name":"Salon France Labrèche","category":"beauty salon","phone":"613-632-3723","address":"671 Main St E, Hawkesbury, ON K6A 1B3","postalcode":"K6A 1B3","website":" ","working_hour":"Monday 10:00 am - 7:00 pm   Tuesday 10:00 am - 7:00 pm   Wednesday 10:00 am - 7:00 pm   Thursday 10:00 am - 7:00 pm   Friday 10:00 am - 7:00 pm   Saturday 10:00 am - 6:00 pm","latitude":"45.6104209","longitude":"-74.5999707"},{"source":"yellow page","service_name":"Salon Création Sylvie","category":"beauty salon","phone":"613-632-7222","address":"200 Cameron St, Hawkesbury, ON K6A 2X8","postalcode":"K6A 2X8","website":" ","working_hour":"Monday 10:00 am - 7:00 pm   Tuesday 10:00 am - 7:00 pm   Wednesday 10:00 am - 7:00 pm   Thursday 10:00 am - 7:00 pm   Friday 10:00 am - 7:00 pm   Saturday 10:00 am - 6:00 pm","latitude":"45.609684","longitude":"-74.592368"},{"source":"yellow page","service_name":"NAV Spa","category":"beauty salon","phone":"613-936-5433","address":"1950 Montreal, Cornwall, ON K6H 6L2","postalcode":"K6H 6L2","website":"http://navcentre.ca","working_hour":"","latitude":"45.026828","longitude":"-74.680125"},{"source":"yellow page","service_name":"Capri Beauty Salon","category":"beauty salon","phone":"6139335182","address":"100 Second St W, Cornwall, ON K6J 1G5","postalcode":"K6J 1G5","website":" ","working_hour":"Tuesday 9:00 am - 5:00 pm   Wednesday 9:00 am - 5:00 pm   Thursday 8:30 am - 9:00 pm   Friday 8:00 am - 9:00 pm   Saturday 8:30 am - 5:00 pm   Evening Appointments Available","latitude":"45.017492","longitude":"-74.731328"},{"source":"yellow page","service_name":"First Choice Haircutters","category":"beauty salon","phone":"6139387026","address":"1400 Vincent Massey Dr, Cornwall, ON K6J 5N4","postalcode":"K6J 5N4","website":"#","working_hour":"","latitude":"45.029372","longitude":"-74.754679"},{"source":"yellow page","service_name":"First Choice Haircutters Ltd","category":"beauty salon","phone":"6139361746","address":"31 9Th St E, Cornwall, ON K6J 5N4","postalcode":"K6J 5N4","website":"#","working_hour":"","latitude":"45.028907","longitude":"-74.733829"},{"source":"yellow page","service_name":"Mirage Hair Studio","category":"beauty salon","phone":"6139325744","address":"225 Augustus St, Cornwall, ON K6J 3W2","postalcode":"K6J 3W2","website":" ","working_hour":"Monday 10:00 am - 7:00 pm   Tuesday 10:00 am - 7:00 pm   Wednesday 10:00 am - 7:00 pm   Thursday 10:00 am - 7:00 pm   Friday 10:00 am - 7:00 pm   Saturday 10:00 am - 6:00 pm","latitude":"45.018649","longitude":"-74.731189"},{"source":"yellow page","service_name":"Sears Hair Studio","category":"beauty salon","phone":"6133457194","address":"2399 Parkedale Ave, Brockville, ON K6V 3G9","postalcode":"K6V 3G9","website":"http://www.sears.ca","working_hour":"","latitude":"44.604637","longitude":"-75.699254"},{"source":"yellow page","service_name":"Shear Flair Family Hairstyling Inc","category":"beauty salon","phone":"6139361355","address":"50- 812 Pitt, Cornwall, ON","postalcode":"","website":"#","working_hour":"Tuesday 8:00 am - 2:00 pm   Wednesday 8:00 am - 6:00 pm   Thursday 8:00 am - 8:00 pm   Friday 8:00 am - 7:00 pm   Saturday 8:00 am - 2:00 pm","latitude":"","longitude":""},{"source":"yellow page","service_name":"He & She Hair Styling","category":"beauty salon","phone":"6139327718","address":"960 Brookdale Ave, Cornwall, ON K6J 4P5","postalcode":"K6J 4P5","website":" ","working_hour":"Monday 9:00 am - 8:00 pm   Tuesday 8:30 am - 8:00 pm   Wednesday 8:30 am - 8:00 pm   Thursday 8:30 am - 8:00 pm   Friday 8:30 am - 8:00 pm   Saturday 8:30 am - 4:00 pm","latitude":"45.025066","longitude":"-74.749655"},{"source":"yellow page","service_name":"Dad's Barbershop","category":"beauty salon","phone":"613-345-7301","address":"4502 Debruge Rd, Elizabethtown, ON K6T 1A2","postalcode":"K6T 1A2","website":"#","working_hour":"Monday 8:00 am - 4:30 pm   Tuesday 8:00 am - 8:00 pm   Wednesday 8:00 am - 4:30 pm   Thursday 8:00 am - 4:30 pm   Friday 8:00 am - 12:00 pm","latitude":"44.621883","longitude":"-75.766775"},{"source":"yellow page","service_name":"Salon pour Toi","category":"beauty salon","phone":"6135243725","address":"4023 County Road 3, St-Isidore, ON K0C 2B0","postalcode":"K0C 2B0","website":" ","working_hour":"Tuesday 9:00 am - 7:00 pm   Thursday 9:00 am - 7:00 pm   Friday 9:00 am - 4:00 pm   Saturday 8:00 am - 12:00 pm","latitude":"45.3856957","longitude":"-74.9160217"},{"source":"yellow page","service_name":"Pat's Country Salon","category":"beauty salon","phone":"613-342-4543","address":"4078 Hwy 29, Brockville, ON K6V 5T4","postalcode":"K6V 5T4","website":" ","working_hour":"Monday 10:00 am - 7:00 pm   Tuesday 10:00 am - 7:00 pm   Wednesday 10:00 am - 7:00 pm   Thursday 10:00 am - 7:00 pm   Friday 10:00 am - 7:00 pm   Saturday 10:00 am - 6:00 pm","latitude":"44.6241775","longitude":"-75.7743921"},{"source":"yellow page","service_name":"Salon On Second","category":"beauty salon","phone":"613-932-0777","address":"909 Second St W, Cornwall, ON K6J 1H8","postalcode":"K6J 1H8","website":" ","working_hour":"","latitude":"45.013771","longitude":"-74.752155"},{"source":"yellow page","service_name":"SmartStyle","category":"beauty salon","phone":"613-933-1049","address":"Wal-Mart, Cornwall, ON K6J 0B3","postalcode":"K6J 0B3","website":" ","working_hour":"","latitude":"45.026704","longitude":"-74.742696"},{"source":"yellow page","service_name":"Chop Hair Design","category":"beauty salon","phone":"6139382467","address":"506 Second St W, Cornwall, ON K6J 1H4","postalcode":"K6J 1H4","website":" ","working_hour":"Monday 10:00 am - 7:00 pm   Tuesday 10:00 am - 7:00 pm   Wednesday 10:00 am - 7:00 pm   Thursday 10:00 am - 7:00 pm   Friday 10:00 am - 7:00 pm   Saturday 10:00 am - 6:00 pm","latitude":"45.015546","longitude":"-74.739746"},{"source":"yellow page","service_name":"Face To Face Esthetics","category":"beauty salon","phone":"6139329067","address":"1014 Queen St, Cornwall, ON K6J 1P4","postalcode":"K6J 1P4","website":"http://www.facetofaceesthetics.ca","working_hour":"Tuesday 9:00 am - 6:00 pm   Wednesday 9:00 am - 9:00 pm   Thursday 9:00 am - 9:00 pm   Friday 9:00 am - 6:00 pm   Saturday 9:00 am - 4:00 pm","latitude":"45.016433","longitude":"-74.757459"},{"source":"yellow page","service_name":"Kreative Kuts","category":"beauty salon","phone":"613-935-5533","address":"B 425 Fourth St W, Cornwall, ON K6J 2S7","postalcode":"K6J 2S7","website":" ","working_hour":"","latitude":"45.018859","longitude":"-74.73919"},{"source":"yellow page","service_name":"Park Avenue Salon","category":"beauty salon","phone":"613-345-4983","address":"332 Park St, Brockville, ON K6V 2J2","postalcode":"K6V 2J2","website":"http://www.parkavenuesalon.ca/","working_hour":"Tuesday 9:00 am - 5:00 pm   Wednesday 9:00 am - 5:00 pm   Thursday 9:00 am - 5:00 pm   Friday 9:00 am - 5:00 pm   Saturday 8:30 am - 12:00 pm","latitude":"44.602499","longitude":"-75.691031"},{"source":"yellow page","service_name":"Studio 9 Salon & Day Spa","category":"beauty salon","phone":"6133456999","address":"2399 Parkedale Ave, Brockville, ON K6V 3G9","postalcode":"K6V 3G9","website":"#","working_hour":"Monday 9:30 am - 7:00 pm   Tuesday 9:30 am - 7:00 pm   Wednesday 9:30 am - 7:00 pm   Thursday 9:30 am - 9:00 pm   Friday 9:30 am - 9:00 pm   Saturday 9:30 am - 6:00 pm   Sunday 12:00 pm - 5:00 pm","latitude":"44.604637","longitude":"-75.699254"},{"source":"yellow page","service_name":"Tammy's Hair Studio","category":"beauty salon","phone":"613-936-2164","address":"Lwr 1200 Second W, Cornwall, ON K6J 1J3","postalcode":"K6J 1J3","website":" ","working_hour":"Monday 10:00 am - 7:00 pm   Tuesday 10:00 am - 7:00 pm   Wednesday 10:00 am - 7:00 pm   Thursday 10:00 am - 7:00 pm   Friday 10:00 am - 7:00 pm   Saturday 10:00 am - 6:00 pm","latitude":"45.011476","longitude":"-74.760664"},{"source":"yellow page","service_name":"A Cut Above","category":"beauty salon","phone":"6139334774","address":"1300 Notre Dame St, Cornwall, ON K6J 4Y8","postalcode":"K6J 4Y8","website":"#","working_hour":"Monday 9:00 am - 7:00 pm   Tuesday 9:00 am - 6:00 pm   Wednesday 9:00 am - 8:00 pm   Thursday 9:00 am - 8:00 pm   Friday 9:00 am - 7:00 pm   Saturday 9:00 am - 1:00 pm   Sunday: By Appointment Only","latitude":"45.031274","longitude":"-74.74814"},{"source":"yellow page","service_name":"Flair FX Hair Studio","category":"beauty salon","phone":"613-345-3524","address":"221 King St W, Brockville, ON K6V 3R7","postalcode":"K6V 3R7","website":"http://flairfx.com","working_hour":"Tuesday 9:00 am - 5:00 pm   Wednesday 9:00 am - 5:00 pm   Thursday 9:00 am - 7:00 pm   Friday 9:00 am - 5:00 pm   Saturday 9:00 am - 1:00 pm","latitude":"44.5871921","longitude":"-75.6887503"},{"source":"yellow page","service_name":"First Choice Haircutters","category":"beauty salon","phone":"6133422500","address":"329 Stewart Blvd, Brockville, ON K6V 4W8","postalcode":"K6V 4W8","website":"http://www.firstchoice.com","working_hour":"","latitude":"44.6006579","longitude":"-75.70451"},{"source":"yellow page","service_name":"Bebe's Hair Salon","category":"beauty salon","phone":"6134981801","address":"60 Pearl St E, Brockville, ON K6V 1P7","postalcode":"K6V 1P7","website":" ","working_hour":"Monday 10:00 am - 7:00 pm   Tuesday 10:00 am - 7:00 pm   Wednesday 10:00 am - 7:00 pm   Thursday 10:00 am - 7:00 pm   Friday 10:00 am - 7:00 pm   Saturday 10:00 am - 6:00 pm","latitude":"44.594669","longitude":"-75.683587"},{"source":"yellow page","service_name":"Majestic Advanced Electrolysis & Clinical","category":"beauty salon","phone":"6133450318","address":"253 Park St, Brockville, ON K6V 2H8","postalcode":"K6V 2H8","website":"http://majesticstylinglounge.com/","working_hour":"Tuesday 9:00 am - 6:00 pm   Thursday 9:00 am - 6:00 pm   Friday 9:00 am - 6:00 pm   Appointment By Request","latitude":"44.599698","longitude":"-75.68874"},{"source":"yellow page","service_name":"Elegance College","category":"beauty salon","phone":"6139333223","address":"17357 Cornwall Centre Rd, Cornwall, ON K6K 1K6","postalcode":"K6K 1K6","website":"http://www.elegance.on.ca/","working_hour":"Monday 9:00 am - 5:00 pm   Tuesday 9:00 am - 5:00 pm   Wednesday 9:00 am - 5:00 pm   Thursday 9:00 am - 5:00 pm   Friday 9:00 am - 5:00 pm","latitude":"45.0574182","longitude":"-74.7776974"},{"source":"yellow page","service_name":"The Kutting Room","category":"beauty salon","phone":"613-933-7977","address":"349 Belmont St, Cornwall, ON K6H 4Z7","postalcode":"K6H 4Z7","website":" ","working_hour":"","latitude":"45.0226339","longitude":"-74.7062666"},{"source":"yellow page","service_name":"Town & Country Beauty Salon","category":"beauty salon","phone":"613-342-0348","address":"28 Perth St, Brockville, ON K6V 5C2","postalcode":"K6V 5C2","website":" ","working_hour":"","latitude":"44.587959","longitude":"-75.689954"},{"source":"yellow page","service_name":"Innovative Styles","category":"beauty salon","phone":"613-933-2340","address":"815 York St, Cornwall, ON K6J 4A7","postalcode":"K6J 4A7","website":"http://innovativestyles.salonpages.ca/","working_hour":"","latitude":"45.026598","longitude":"-74.738157"},{"source":"yellow page","service_name":"Kami Hair Design","category":"beauty salon","phone":"6133450968","address":"1275 Kensington Pky, Brockville, ON K6V 6C3","postalcode":"K6V 6C3","website":" ","working_hour":"Monday 9:00 am - 5:00 pm   Tuesday 9:00 am - 6:00 pm   Wednesday 9:00 am - 6:00 pm   Thursday 9:00 am - 6:00 pm   Friday 9:00 am - 6:00 pm   Saturday 8:30 am - 2:00 pm   Appointment Only   Walk In's Welcome","latitude":"44.607641","longitude":"-75.713465"},{"source":"yellow page","service_name":"De Dekker J&R","category":"beauty salon","phone":"613-498-3185","address":"155 Dana St, Brockville, ON K6V 6X1","postalcode":"K6V 6X1","website":" ","working_hour":"","latitude":"44.612263","longitude":"-75.715162"},{"source":"yellow page","service_name":"Studio Phase II","category":"beauty salon","phone":"6132092263","address":"604 Montreal Rd, Cornwall, ON K6H 1C2","postalcode":"K6H 1C2","website":"#","working_hour":"Tuesday 9:00 am - 7:00 pm   Wednesday 9:00 am - 7:00 pm   Thursday 9:00 am - 8:00 pm   Friday 9:00 am - 8:00 pm   Saturday 9:00 am - 2:00 pm   Hours May Vary Depending On The Season   Later Appointments Upon Request","latitude":"45.01843","longitude":"-74.70769"},{"source":"yellow page","service_name":"Hair Concepts","category":"beauty salon","phone":"6133423833","address":"253 Park St, Brockville, ON K6V 2H8","postalcode":"K6V 2H8","website":" ","working_hour":"Tuesday 7:30 am - 6:00 pm   Wednesday 7:30 am - 6:00 pm   Thursday 7:30 am - 7:00 pm   Friday 7:30 am - 7:00 pm   Saturday 7:30 am - 12:00 pm   Open Tuesday through Saturday","latitude":"44.599698","longitude":"-75.68874"},{"source":"yellow page","service_name":"Wendy's Totally Hair","category":"beauty salon","phone":"613-932-9545","address":"1529 Aubin Ave, Cornwall, ON K6J 4S4","postalcode":"K6J 4S4","website":" ","working_hour":"","latitude":"45.037658","longitude":"-74.74431"},{"source":"yellow page","service_name":"Cuts N' More","category":"beauty salon","phone":"613-936-0664","address":"1140E Brookdale Ave, Cornwall, ON K6J 4P4","postalcode":"K6J 4P4","website":" ","working_hour":"","latitude":"45.026351","longitude":"-74.751692"},{"source":"yellow page","service_name":"Shear Flair Family Hair Styling Inc","category":"beauty salon","phone":"6139320417","address":"1121 Kirkman Crt, Cornwall, ON K6H 7M7","postalcode":"K6H 7M7","website":" ","working_hour":"","latitude":"45.0192647","longitude":"-74.6985279"},{"source":"yellow page","service_name":"Total Image Family Hair Care Aesthetics & Tanning","category":"beauty salon","phone":"613-342-2442","address":"7-7712 Kent Blvd, Brockville, ON K6V 7H6","postalcode":"K6V 7H6","website":" ","working_hour":"","latitude":"44.5996205","longitude":"-75.7065822"},{"source":"yellow page","service_name":"Dynamic Hair Studio","category":"beauty salon","phone":"613-938-9732","address":"385 Eleventh St E, Cornwall, ON K6H 2Y8","postalcode":"K6H 2Y8","website":" ","working_hour":"","latitude":"45.033768","longitude":"-74.728756"},{"source":"yellow page","service_name":"Reflections Hair Studio","category":"beauty salon","phone":"613-938-3329","address":"1348 Lancaster Cres, Cornwall, ON K6H 6P6","postalcode":"K6H 6P6","website":" ","working_hour":"Monday 9:00 am - 6:00 pm   Tuesday 9:00 am - 6:00 pm   Wednesday 9:00 am - 6:00 pm   Thursday 9:00 am - 6:00 pm   Friday 9:00 am - 6:00 pm","latitude":"45.031055","longitude":"-74.708956"},{"source":"yellow page","service_name":"Sapphire Hair Studio","category":"beauty salon","phone":"6139324512","address":"5765 138 Hwy, Cornwall, ON K6K 1K5","postalcode":"K6K 1K5","website":" ","working_hour":"Monday 9:00 am - 7:00 pm   Tuesday 9:00 am - 7:00 pm   Wednesday 9:00 am - 7:00 pm   Thursday 9:00 am - 7:00 pm   Friday 9:00 am - 7:00 pm   Saturday 9:00 am - 7:00 pm","latitude":"45.0612358","longitude":"-74.7700509"},{"source":"yellow page","service_name":"A Better You","category":"beauty salon","phone":"613-937-0508","address":"1515 Pitt St, Cornwall, ON K6J 3T9","postalcode":"K6J 3T9","website":" ","working_hour":"","latitude":"45.037794","longitude":"-74.743335"},{"source":"yellow page","service_name":"Karen's Hair Creations","category":"beauty salon","phone":"613-938-3258","address":"1117 Marleau Ave, Cornwall, ON K6H 5Y4","postalcode":"K6H 5Y4","website":" ","working_hour":"Monday 10:00 am - 7:00 pm   Tuesday 10:00 am - 7:00 pm   Wednesday 10:00 am - 7:00 pm   Thursday 10:00 am - 7:00 pm   Friday 10:00 am - 7:00 pm   Saturday 10:00 am - 6:00 pm","latitude":"45.034111","longitude":"-74.715729"},{"source":"yellow page","service_name":"Salon Seven","category":"beauty salon","phone":"6139353777","address":"333 Seventh St W, Cornwall, ON K6J 2Y6","postalcode":"K6J 2Y6","website":"http://www.caromelssalonseven.com","working_hour":"Tuesday 9:00 am - 7:00 pm   Wednesday 9:00 am - 5:00 pm   Thursday 9:00 am - 5:00 pm   Friday 9:00 am - 5:00 pm   Saturday 9:00 am - 2:00 pm","latitude":"45.0235902","longitude":"-74.740292"},{"source":"yellow page","service_name":"Fox & Jayne 415","category":"beauty salon","phone":"6139355558","address":"415 Montreal Rd, Cornwall, ON K6H 1B8","postalcode":"K6H 1B8","website":"#","working_hour":"Tuesday 11:00 am - 5:00 pm   Wednesday 9:30 am - 4:00 pm   Thursday 9:30 am - 6:00 pm   Friday 9:30 am - 5:00 pm   Saturday 9:00 am - 2:00 pm   Emergency Appointments Available","latitude":"45.018458","longitude":"-74.708835"},{"source":"yellow page","service_name":"Classic Hair Salon","category":"beauty salon","phone":"6139384875","address":"933 Marlborough St N, Cornwall, ON K6H 4B7","postalcode":"K6H 4B7","website":" ","working_hour":"","latitude":"45.032949","longitude":"-74.724841"},{"source":"yellow page","service_name":"First Choice Haircutters","category":"beauty salon","phone":"6133424395","address":"3-1958 Parkedale Ave, Brockville, ON K6V 7N4","postalcode":"K6V 7N4","website":"#","working_hour":"","latitude":"44.613627","longitude":"-75.686591"},{"source":"yellow page","service_name":"Studio Helene","category":"beauty salon","phone":"6135348471","address":"13 Cherry Ave, Long Sault, ON K0C 1P0","postalcode":"K0C 1P0","website":"http://www.studiohelene.com","working_hour":"","latitude":"45.055204","longitude":"-74.791247"},{"source":"yellow page","service_name":"Don's Haute Coiffure","category":"beauty salon","phone":"6139327910","address":"915 First St E, Cornwall, ON K6H 1N3","postalcode":"K6H 1N3","website":" ","working_hour":"","latitude":"45.022453","longitude":"-74.709251"},{"source":"yellow page","service_name":"Designer's Edge","category":"beauty salon","phone":"613-936-8314","address":"1202 Daprat Ave, Cornwall, ON K6H 6N9","postalcode":"K6H 6N9","website":" ","working_hour":"","latitude":"45.037874","longitude":"-74.725284"},{"source":"yellow page","service_name":"Newtothisworld Hairstyling","category":"beauty salon","phone":"613-677-9358","address":"1542 Aubin Ave, Cornwall, ON K6J 4S5","postalcode":"K6J 4S5","website":" ","working_hour":"Monday 10:00 am - 7:00 pm   Tuesday 10:00 am - 7:00 pm   Wednesday 10:00 am - 7:00 pm   Thursday 10:00 am - 7:00 pm   Friday 10:00 am - 7:00 pm   Saturday 10:00 am - 6:00 pm","latitude":"45.038067","longitude":"-74.744656"},{"source":"yellow page","service_name":"Loretta's Beauty Salon","category":"beauty salon","phone":"613-932-2697","address":"525 Montreal Rd, Cornwall, ON K6H 1C1","postalcode":"K6H 1C1","website":" ","working_hour":"Monday 10:00 am - 7:00 pm   Tuesday 10:00 am - 7:00 pm   Wednesday 10:00 am - 7:00 pm   Thursday 10:00 am - 7:00 pm   Friday 10:00 am - 7:00 pm   Saturday 10:00 am - 6:00 pm","latitude":"45.018433","longitude":"-74.707853"},{"source":"yellow page","service_name":"Boka's Total Care","category":"beauty salon","phone":"6139324932","address":"18700 County Rd 2, Cornwall, ON K6H 5R5","postalcode":"K6H 5R5","website":" ","working_hour":"","latitude":"45.0456373","longitude":"-74.6049104"},{"source":"yellow page","service_name":"Hunt Melanie","category":"beauty salon","phone":"613-342-9792","address":"6201 Graham Lake Rd, Brockville, ON K6V 5T4","postalcode":"K6V 5T4","website":" ","working_hour":"","latitude":"44.602622","longitude":"-75.728561"},{"source":"yellow page","service_name":"Making Waves Hair Design","category":"beauty salon","phone":"6139369283","address":"933D Marlborough St N, Cornwall, ON K6H 4B7","postalcode":"K6H 4B7","website":"http://makingwaves.ca","working_hour":"","latitude":"45.0328407","longitude":"-74.7247238"},{"source":"yellow page","service_name":"First Choice Haircutters","category":"beauty salon","phone":"613-938-2829","address":"1319 Second St E, Cornwall, ON K6H 7C4","postalcode":"K6H 7C4","website":" ","working_hour":"","latitude":"45.025747","longitude":"-74.705919"},{"source":"yellow page","service_name":"Cutz & Styz","category":"beauty salon","phone":"613-498-0145","address":"15B Buell St, Brockville, ON K6V 4X9","postalcode":"K6V 4X9","website":" ","working_hour":"","latitude":"44.589025","longitude":"-75.686403"},{"source":"yellow page","service_name":"Camille's Hairstyling","category":"beauty salon","phone":"6139383745","address":"119 Montreal Rd, Cornwall, ON K6H 1B2","postalcode":"K6H 1B2","website":" ","working_hour":"Monday 10:00 am - 7:00 pm   Tuesday 10:00 am - 7:00 pm   Wednesday 10:00 am - 7:00 pm   Thursday 10:00 am - 7:00 pm   Friday 10:00 am - 7:00 pm   Saturday 10:00 am - 6:00 pm","latitude":"45.018485","longitude":"-74.714922"},{"source":"yellow page","service_name":"Tory Deschamps Hair Studio","category":"beauty salon","phone":"613-345-8679","address":"158 Perth St, Brockville, ON K6V 5E5","postalcode":"K6V 5E5","website":"#","working_hour":"Monday 12:00 pm - 8:00 pm   Tuesday 8:00 am - 8:00 pm   Wednesday 8:00 am - 8:00 pm   Thursday 8:00 am - 6:30 pm   Friday 8:00 am - 7:00 pm   Saturday 8:00 am - 2:00 pm","latitude":"44.592444","longitude":"-75.693688"},{"source":"yellow page","service_name":"Darlene Hair Styling & Barbering","category":"beauty salon","phone":"613-658-2155","address":"7694 County Rd, Spencerville, ON K0E 1X0","postalcode":"K0E 1X0","website":" ","working_hour":"Monday 9:00 am - 5:00 pm   Tuesday 9:00 am - 5:00 pm   Wednesday 9:00 am - 5:00 pm   Thursday 9:00 am - 5:00 pm   Friday 9:00 am - 5:00 pm","latitude":"44.8418","longitude":"-75.553"},{"source":"yellow page","service_name":"Trang Le Salon","category":"beauty salon","phone":"613-865-7272","address":"3-27 King St E, Brockville, ON K6V 1A7","postalcode":"K6V 1A7","website":" ","working_hour":"Monday 9:00 am - 6:00 pm   Tuesday 9:00 am - 6:00 pm   Wednesday 9:00 am - 6:00 pm   Thursday 9:00 am - 6:00 pm   Friday 9:00 am - 6:00 pm   Saturday 9:00 am - 6:00 pm","latitude":"44.591081","longitude":"-75.681905"},{"source":"yellow page","service_name":"Aura","category":"beauty salon","phone":"613-345-7500","address":"2 King St E, Brockville, ON K6V 1A9","postalcode":"K6V 1A9","website":" ","working_hour":"","latitude":"44.59055","longitude":"-75.682743"},{"source":"yellow page","service_name":"Sherry's Place of Hair Styling","category":"beauty salon","phone":"6137677863","address":"706 Aylmer Cres, Kingston, ON K7M 6L9","postalcode":"K7M 6L9","website":" ","working_hour":"Monday 10:00 am - 5:00 pm   Tuesday 10:00 am - 5:00 pm   Wednesday 10:00 am - 5:00 pm   Thursday 3:00 pm - 9:00 pm   Friday 3:00 pm - 9:00 pm   Saturday 9:00 am - 5:00 pm   Appointment Only   Saturday For Senior With Transportation Available","latitude":"44.245236","longitude":"-76.616232"},{"source":"yellow page","service_name":"Echo","category":"beauty salon","phone":"6135425069","address":"344 Bagot St, Kingston, ON K7K 3B7","postalcode":"K7K 3B7","website":"http://www.echohairstudio.com","working_hour":"Monday 9:00 am - 7:00 pm   Tuesday 9:00 am - 8:00 pm   Wednesday 9:00 am - 8:00 pm   Thursday 9:00 am - 8:00 pm   Friday 9:00 am - 8:00 pm   Saturday 9:00 am - 4:00 pm","latitude":"44.233678","longitude":"-76.483769"},{"source":"yellow page","service_name":"Shanelle Brows","category":"beauty salon","phone":"343-363-3174","address":"Wintergreen Cres, Kingston, ON K7T 2G6","postalcode":"K7T 2G6","website":"#","working_hour":"Monday 9:00 am - 5:00 pm   Tuesday 9:00 am - 5:00 pm   Wednesday 9:00 am - 5:00 pm   Thursday 9:00 am - 5:00 pm   Friday 9:00 am - 5:00 pm   Appointment Only","latitude":"","longitude":""},{"source":"yellow page","service_name":"Essential Beauty Aesthetics","category":"beauty salon","phone":"613-634-1300","address":"774 Baker Cres, Kingston, ON K7M 6P6","postalcode":"K7M 6P6","website":"#","working_hour":"Monday 8:00 am - 5:00 pm   Tuesday 8:00 am - 5:00 pm   Wednesday 8:00 am - 5:00 pm   Thursday 8:00 am - 5:00 pm   Friday 8:00 am - 5:00 pm","latitude":"44.2447867","longitude":"-76.575124"},{"source":"yellow page","service_name":"Gloss Hair Studio","category":"beauty salon","phone":"613-384-6555","address":"645 Gardiners Rd, Kingston, ON K7M 8K2","postalcode":"K7M 8K2","website":" ","working_hour":"Tuesday 9:00 am - 5:00 pm   Wednesday 9:00 am - 5:00 pm   Thursday 9:00 am - 5:00 pm   Friday 9:00 am - 5:00 pm   Saturday 9:00 am - 3:00 pm","latitude":"44.243539","longitude":"-76.567797"},{"source":"yellow page","service_name":"Corner Stone Stylists","category":"beauty salon","phone":"6133827736","address":"117 King St E, Gananoque, ON K7G 1G3","postalcode":"K7G 1G3","website":" ","working_hour":"Monday 8:00 am - 6:30 pm   Tuesday 8:00 am - 6:30 pm   Wednesday 8:00 am - 6:30 pm   Thursday 8:00 am - 6:30 pm   Friday 8:00 am - 6:30 pm   Saturday 8:00 am - 4:00 pm","latitude":"44.3298263","longitude":"-76.1621208"},{"source":"yellow page","service_name":"Quattro","category":"beauty salon","phone":"613-389-2936","address":"945 Gardiners Rd, Kingston, ON K7M 7H4","postalcode":"K7M 7H4","website":" ","working_hour":"","latitude":"44.256425","longitude":"-76.568771"},{"source":"yellow page","service_name":"Salon Bodyworks","category":"beauty salon","phone":"613-283-5099","address":"18 Market St N, Smiths Falls, ON K7A 2E3","postalcode":"K7A 2E3","website":" ","working_hour":"Tuesday 8:30 am - 4:00 pm   Wednesday 8:30 am - 4:00 pm   Thursday 8:30 am - 4:00 pm   Friday 8:30 am - 4:00 pm   Saturday 8:00 am - 12:00 pm","latitude":"44.900505","longitude":"-76.019518"},{"source":"yellow page","service_name":"Salon 296","category":"beauty salon","phone":"6135492888","address":"296 Bagot St, Kingston, ON K7K 3B4","postalcode":"K7K 3B4","website":"#","working_hour":"Tuesday 9:00 am - 8:00 pm   Wednesday 9:00 am - 8:00 pm   Thursday 9:00 am - 8:00 pm   Friday 9:00 am - 8:00 pm   Saturday 8:00 am - 4:00 pm","latitude":"44.232193","longitude":"-76.484051"},{"source":"yellow page","service_name":"Eikon Device Inc","category":"beauty salon","phone":"6133844688","address":"689 Innovation Dr, Kingston, ON K7K 7E6","postalcode":"K7K 7E6","website":"http://www.eikondevice.com","working_hour":"","latitude":"44.2719021","longitude":"-76.4418372"},{"source":"yellow page","service_name":"First Choice Haircutters","category":"beauty salon","phone":"6133847057","address":"480 Gardiners Rd, Kingston, ON K7M 7W8","postalcode":"K7M 7W8","website":"#","working_hour":"","latitude":"44.2359","longitude":"-76.566336"},{"source":"yellow page","service_name":"First Choice Haircutters","category":"beauty salon","phone":"6135446438","address":"900 Montreal St, Kingston, ON K7K 2P9","postalcode":"K7K 2P9","website":"#","working_hour":"","latitude":"44.256553","longitude":"-76.483023"},{"source":"yellow page","service_name":"Snip & Clip","category":"beauty salon","phone":"6133895177","address":"8-730 Front Rd, Kingston, ON K7M 6P7","postalcode":"K7M 6P7","website":"http://www.snipnclip.net/","working_hour":"Monday 10:00 am - 7:00 pm   Tuesday 10:00 am - 7:00 pm   Wednesday 10:00 am - 7:00 pm   Thursday 10:00 am - 7:00 pm   Friday 10:00 am - 7:00 pm   Saturday 10:00 am - 6:00 pm","latitude":"44.218881","longitude":"-76.570601"},{"source":"yellow page","service_name":"First Choice Haircutters","category":"beauty salon","phone":"6135312632","address":"472 Division St, Kingston, ON K7K 4B1","postalcode":"K7K 4B1","website":"#","working_hour":"","latitude":"44.242223","longitude":"-76.495613"},{"source":"yellow page","service_name":"Nancy's Salon","category":"beauty salon","phone":"6133844680","address":"343 Amherst Dr, Amherstview, ON K7N 1X3","postalcode":"K7N 1X3","website":"http://www.nancyssalon.com/","working_hour":"Tuesday 8:00 am - 5:00 pm   Wednesday 8:00 am - 5:00 pm   Thursday 8:00 am - 5:00 pm   Friday 8:00 am - 5:00 pm","latitude":"44.2260726","longitude":"-76.6591754"},{"source":"yellow page","service_name":"First Choice Haircutters","category":"beauty salon","phone":"6136348668","address":"4037 Bath Rd, Kingston, ON K7M 4Y5","postalcode":"K7M 4Y5","website":"#","working_hour":"","latitude":"44.241775","longitude":"-76.60914"},{"source":"yellow page","service_name":"Styles For Miles","category":"beauty salon","phone":"613-384-7054","address":"A 2796 Princess, Kingston, ON K7P 1W9","postalcode":"K7P 1W9","website":"#","working_hour":"Monday 10:00 am - 7:00 pm   Tuesday 10:00 am - 7:00 pm   Wednesday 10:00 am - 7:00 pm   Thursday 10:00 am - 7:00 pm   Friday 10:00 am - 7:00 pm   Saturday 10:00 am - 6:00 pm","latitude":"44.259755","longitude":"-76.582967"},{"source":"yellow page","service_name":"House Of Hair","category":"beauty salon","phone":"613-389-6642","address":"2815 Princess St, Kingston, ON K7P 2X2","postalcode":"K7P 2X2","website":"http://www.houseofhaironline.com/","working_hour":"","latitude":"44.259143","longitude":"-76.583286"},{"source":"yellow page","service_name":"Divine Hair Studio And Aesthetics","category":"beauty salon","phone":"6133546235","address":"9 Dundas St W, Napanee, ON K7R 1Z3","postalcode":"K7R 1Z3","website":" ","working_hour":"","latitude":"44.2471493","longitude":"-76.9508513"},{"source":"yellow page","service_name":"JLB Style","category":"beauty salon","phone":"6136295527","address":"622 Bruham Ave, Pembroke, ON K8A 4Z7","postalcode":"K8A 4Z7","website":"#","working_hour":"Monday 9:00 am - 5:00 pm   Tuesday 9:00 am - 5:00 pm   Wednesday 9:00 am - 5:00 pm   Thursday 9:00 am - 5:00 pm   Friday 9:00 am - 5:00 pm   Saturday 9:00 am - 5:00 pm   Sunday 10:00 am - 4:00 pm","latitude":"45.818145","longitude":"-77.137349"},{"source":"yellow page","service_name":"Rethink Studio","category":"beauty salon","phone":"7054766060","address":"414 Second Ave E, North Bay, ON P1B 1L8","postalcode":"P1B 1L8","website":"#","working_hour":"Tuesday 9:00 am - 5:00 pm   Wednesday 9:00 am - 5:00 pm   Thursday 9:00 am - 5:00 pm   Friday 9:00 am - 5:00 pm   Saturday 10:00 am - 5:00 pm","latitude":"46.307982","longitude":"-79.455783"},{"source":"yellow page","service_name":"Colleen's Hair Salon","category":"beauty salon","phone":"6137350333","address":"635 Joe St, Pembroke, ON K8A 6S9","postalcode":"K8A 6S9","website":" ","working_hour":"Monday 10:00 am - 7:00 pm   Tuesday 10:00 am - 7:00 pm   Wednesday 10:00 am - 7:00 pm   Thursday 10:00 am - 7:00 pm   Friday 10:00 am - 7:00 pm   Saturday 10:00 am - 6:00 pm","latitude":"45.819797","longitude":"-77.140721"},{"source":"yellow page","service_name":"The Head Shed","category":"beauty salon","phone":"6134010799","address":"116 Mud Lake Rd, Pembroke, ON K8A 6W4","postalcode":"K8A 6W4","website":"http://www.headshed.ca/en/","working_hour":"Monday 10:00 am - 9:00 pm   Tuesday 10:00 am - 9:00 pm   Wednesday 10:00 am - 9:00 pm   Thursday 10:00 am - 9:00 pm   Friday 10:00 am - 9:00 pm   Saturday 10:00 am - 9:00 pm   Sunday 12:00 pm - 6:00 pm","latitude":"45.7899252","longitude":"-77.0974493"},{"source":"yellow page","service_name":"A Touch Of Piaz Image Center","category":"beauty salon","phone":"613-735-2451","address":"615 Weston St, Pembroke, ON K8A 8M1","postalcode":"K8A 8M1","website":"http://touchofpiaz.com/","working_hour":"Monday 10:00 am - 7:00 pm   Tuesday 10:00 am - 7:00 pm   Wednesday 10:00 am - 7:00 pm   Thursday 10:00 am - 7:00 pm   Friday 10:00 am - 7:00 pm   Saturday 10:00 am - 6:00 pm","latitude":"45.8066147","longitude":"-77.1214721"},{"source":"yellow page","service_name":"Shampoo Alley Unisex Hairstyling","category":"beauty salon","phone":"705-476-7469","address":"22 Marshall Ave E, North Bay, ON P1A 1R1","postalcode":"P1A 1R1","website":" ","working_hour":"Tuesday 9:00 am - 5:00 pm   Wednesday 9:00 am - 5:00 pm   Thursday 9:00 am - 7:00 pm   Friday 9:00 am - 5:00 pm   Saturday 9:00 am - 2:00 pm","latitude":"46.280004","longitude":"-79.444791"},{"source":"yellow page","service_name":"Home Sweet Hair Design","category":"beauty salon","phone":"613-433-9161","address":"191 Argyle St S, Renfrew, ON K7V 1T6","postalcode":"K7V 1T6","website":"#","working_hour":"Monday 10:00 am - 7:00 pm   Tuesday 10:00 am - 7:00 pm   Wednesday 10:00 am - 7:00 pm   Thursday 10:00 am - 7:00 pm   Friday 10:00 am - 7:00 pm   Saturday 10:00 am - 6:00 pm","latitude":"45.471463","longitude":"-76.684916"},{"source":"yellow page","service_name":"Santerrie Salon","category":"beauty salon","phone":"613-433-3555","address":"113 Renfrew Ave W, Renfrew, ON K7V 2Y3","postalcode":"K7V 2Y3","website":" ","working_hour":"24 hours a day - 7 days a week","latitude":"45.469784","longitude":"-76.685423"},{"source":"yellow page","service_name":"Savelle Salon","category":"beauty salon","phone":"613-472-5880","address":"16 Forsyth, ON K0K 2M0","postalcode":"K0K 2M0","website":"#","working_hour":"","latitude":"44.531908","longitude":"-77.662336"},{"source":"yellow page","service_name":"Bonnie's She & He Hairstyles","category":"beauty salon","phone":"613-432-4324","address":"23 Bonnechere St S, Renfrew, ON K7V 1Z2","postalcode":"K7V 1Z2","website":" ","working_hour":"Monday 10:00 am - 7:00 pm   Tuesday 10:00 am - 7:00 pm   Wednesday 10:00 am - 7:00 pm   Thursday 10:00 am - 7:00 pm   Friday 10:00 am - 7:00 pm   Saturday 10:00 am - 6:00 pm","latitude":"45.472963","longitude":"-76.689636"},{"source":"yellow page","service_name":"Mona Lisa Day Spa","category":"beauty salon","phone":"613-432-3216","address":"134 Raglan St S, Renfrew, ON K7V 1R1","postalcode":"K7V 1R1","website":" ","working_hour":"Monday 10:00 am - 7:00 pm   Tuesday 10:00 am - 7:00 pm   Wednesday 10:00 am - 7:00 pm   Thursday 10:00 am - 7:00 pm   Friday 10:00 am - 7:00 pm   Saturday 10:00 am - 6:00 pm","latitude":"45.47278","longitude":"-76.685177"},{"source":"yellow page","service_name":"Heather's Style for Everyone","category":"beauty salon","phone":"613-433-3479","address":"40 Barnet Blvd, Renfrew, ON K7V 2M4","postalcode":"K7V 2M4","website":" ","working_hour":"Monday 9:00 am - 7:00 pm   Tuesday 9:00 am - 7:00 pm   Wednesday 9:00 am - 7:00 pm   Thursday 9:00 am - 7:00 pm   Friday 9:00 am - 7:00 pm","latitude":"45.462658","longitude":"-76.671171"},{"source":"yellow page","service_name":"Hair Trends","category":"beauty salon","phone":"613-433-9067","address":"160 Elgin Ave W, Renfrew, ON K7V 3V1","postalcode":"K7V 3V1","website":" ","working_hour":"Monday 9:00 am - 7:00 pm   Tuesday 9:00 am - 7:00 pm   Wednesday 9:00 am - 7:00 pm   Thursday 9:00 am - 7:00 pm   Friday 9:00 am - 7:00 pm   Saturday 9:00 am - 7:00 pm   Sunday 9:00 am - 7:00 pm","latitude":"45.4776163","longitude":"-76.6973224"},{"source":"yellow page","service_name":"Hair Gallery","category":"beauty salon","phone":"613-432-4282","address":"19 Renfrew Ave E, Renfrew, ON K7V 2W6","postalcode":"K7V 2W6","website":" ","working_hour":"Monday 10:00 am - 7:00 pm   Tuesday 10:00 am - 7:00 pm   Wednesday 10:00 am - 7:00 pm   Thursday 10:00 am - 7:00 pm   Friday 10:00 am - 7:00 pm   Saturday 10:00 am - 6:00 pm","latitude":"45.4718002","longitude":"-76.6832495"},{"source":"yellow page","service_name":"Enviro Trends","category":"beauty salon","phone":"6137353429","address":"1100 Pembroke St E, Pembroke, ON K8A 6Y7","postalcode":"K8A 6Y7","website":"http://www.envirotrends.ca","working_hour":"Monday 9:30 am - 9:00 pm   Tuesday 9:30 am - 9:00 pm   Wednesday 9:30 am - 9:00 pm   Thursday 9:30 am - 9:00 pm   Friday 9:30 am - 9:00 pm   Saturday 9:30 am - 6:00 pm","latitude":"45.8185632","longitude":"-77.0781994"},{"source":"yellow page","service_name":"Studio-D Hairstyles","category":"beauty salon","phone":"613-432-7466","address":"11 Renfrew Ave E, Renfrew, ON K7V 2W6","postalcode":"K7V 2W6","website":"#","working_hour":"Monday 10:00 am - 7:00 pm   Tuesday 10:00 am - 7:00 pm   Wednesday 10:00 am - 7:00 pm   Thursday 10:00 am - 7:00 pm   Friday 10:00 am - 7:00 pm   Saturday 10:00 am - 6:00 pm","latitude":"45.4717091","longitude":"-76.6834092"},{"source":"yellow page","service_name":"Generation's House Of Hair","category":"beauty salon","phone":"6134333891","address":"57 Lochiel St S, Renfrew, ON K7V 1W4","postalcode":"K7V 1W4","website":" ","working_hour":"Monday 10:00 am - 7:00 pm   Tuesday 10:00 am - 7:00 pm   Wednesday 10:00 am - 7:00 pm   Thursday 10:00 am - 7:00 pm   Friday 10:00 am - 7:00 pm   Saturday 10:00 am - 6:00 pm","latitude":"45.472889","longitude":"-76.688155"},{"source":"yellow page","service_name":"La Beautique","category":"beauty salon","phone":"613-432-0606","address":"215 Lochiel St S, Renfrew, ON K7V 1W6","postalcode":"K7V 1W6","website":" ","working_hour":"Monday 10:00 am - 7:00 pm   Tuesday 10:00 am - 7:00 pm   Wednesday 10:00 am - 7:00 pm   Thursday 10:00 am - 7:00 pm   Friday 10:00 am - 7:00 pm   Saturday 10:00 am - 6:00 pm","latitude":"45.47063","longitude":"-76.685293"},{"source":"yellow page","service_name":"Bonny's Beauty Parlour","category":"beauty salon","phone":"613-433-9201","address":"60 Renfrew Ave W, Renfrew, ON K7V 2Y1","postalcode":"K7V 2Y1","website":" ","working_hour":"Monday 10:00 am - 7:00 pm   Tuesday 10:00 am - 7:00 pm   Wednesday 10:00 am - 7:00 pm   Thursday 10:00 am - 7:00 pm   Friday 10:00 am - 7:00 pm   Saturday 10:00 am - 6:00 pm","latitude":"45.470383","longitude":"-76.68444"},{"source":"yellow page","service_name":"First Choice Haircutters","category":"beauty salon","phone":"6134339399","address":"2-910 O'Brien Rd, Renfrew, ON K7V 3Z4","postalcode":"K7V 3Z4","website":"http://firstchoice.com","working_hour":"","latitude":"45.479261","longitude":"-76.6516956"},{"source":"yellow page","service_name":"Village Hair Works","category":"beauty salon","phone":"613-646-2782","address":"59 Main, Cobden, ON K0J 1K0","postalcode":"K0J 1K0","website":" ","working_hour":"Monday 10:00 am - 7:00 pm   Tuesday 10:00 am - 7:00 pm   Wednesday 10:00 am - 7:00 pm   Thursday 10:00 am - 7:00 pm   Friday 10:00 am - 7:00 pm   Saturday 10:00 am - 6:00 pm","latitude":"45.602805","longitude":"-76.87183"},{"source":"yellow page","service_name":"Friend's Hair Design","category":"beauty salon","phone":"6134321585","address":"290B Veterans Memorial Dr, Renfrew, ON K7V 2R8","postalcode":"K7V 2R8","website":" ","working_hour":"","latitude":"45.46924","longitude":"-76.6699"},{"source":"yellow page","service_name":"The Cutting Room","category":"beauty salon","phone":"613-633-8116","address":"46 Main, Pembroke, ON K0J 1K0","postalcode":"K0J 1K0","website":" ","working_hour":"Monday 10:00 am - 9:00 pm   Wednesday 10:00 am - 9:00 pm   Thursday 10:00 am - 5:30 pm   Friday 10:00 am - 2:00 pm","latitude":"45.602805","longitude":"-76.87183"},{"source":"yellow page","service_name":"Ryan's Studio","category":"beauty salon","phone":"613-732-8075","address":"911 River Rd, Pembroke, ON K8A 1B1","postalcode":"K8A 1B1","website":" ","working_hour":"","latitude":"45.8115344","longitude":"-77.1126802"},